,Name,District,AdmArea,Latitude_WGS84,Longitude_WGS84,Xs,Ys
0,"«Дербеневская наб.», 3-й Дербеневский переулок (7)",Даниловский район,Южный административный округ,55.72566817,37.6551636,1908550.102371036,6413516.558936407
1,"«Наб. Тараса Шевченко», набережная Тараса Шевченко (11)",район Дорогомилово,Западный административный округ,55.74944352,37.57240854,1902635.0911651226,6413590.13360499
2,"«Наб. Тараса Шевченко», набережная Тараса Шевченко (12)",район Дорогомилово,Западный административный округ,55.74976112,37.57271647,1902642.0480514336,6413534.889386951
3,"«ВКНЦ», 3-я Черепковская улица (27)",район Кунцево,Западный административный округ,55.7572642,37.37550932,1890372.5072948108,6413587.337398872
4,"«Новосущевская ул.», улица Сущёвский Вал (33)",район Марьина Роща,Северо-Восточный административный округ,55.79289095,37.60337594,1902905.7164819043,6413176.232675528
5,"«Керамический пр.», Дубнинская улица (35)",район Восточное Дегунино,Северный административный округ,55.89460802,37.55724554,1896335.5317884458,6413178.195714072
6,"«Ин-т Стали», Дубнинская улица (36)",район Восточное Дегунино,Северный административный округ,55.89142924,37.55729147,1896456.1502752174,6413299.671573095
7,"«Мкр. Дубки», Дубнинская улица (37)",район Восточное Дегунино,Северный административный округ,55.88768746,37.55730686,1896595.7853695543,6413304.435253191
8,"«Д/к Юность», Дубнинская улица (38)",район Восточное Дегунино,Северный административный округ,55.88335892,37.55736439,1896759.7176553085,6413470.987731659
9,"«Баскетбольная школа», улица 800-летия Москвы (39)",район Восточное Дегунино,Северный административный округ,55.88011364,37.55636146,1896819.2486244494,6400667.360295197
10,"«Ул. 800-летия Москвы», Дмитровское шоссе (40)",Бескудниковский район,Северный административный округ,55.87767168,37.54599654,1896281.780444037,6405657.744171874
11,"«Бескудниково», Дмитровское шоссе (41)",Бескудниковский район,Северный административный округ,55.87458982,37.54704248,1896459.323407327,6405631.915718677
12,"«Селигерская ул.», Дмитровское шоссе (42)",Бескудниковский район,Северный административный округ,55.86919544,37.54674812,1896641.3193795183,6388813.760029847
13,"«Парк Святослава Федорова», Дмитровское шоссе (43)",район Западное Дегунино,Северный административный округ,55.86333482,37.54848949,1896963.9590320282,6392265.238667846
14,"«Ильменский пр.», Дмитровское шоссе (44)",район Западное Дегунино,Северный административный округ,55.86077256,37.55318989,1897343.792795017,6392262.619302419
15,"«Метро Верхние Лихоборы - Северный вестибюль», Дмитровское шоссе (45)",район Западное Дегунино,Северный административный округ,55.85821217,37.55826147,1897746.0922663766,6387464.342143277
16,"«7-й автобусный парк», Дмитровское шоссе (46)",район Западное Дегунино,Северный административный округ,55.85033933,37.56585131,1898498.0251469254,6402065.205452394
17,"«Нижн. Лихоборы», Дмитровское шоссе (47)",Тимирязевский район,Северный административный округ,55.84733792,37.5673105,1898697.7632185463,6402140.30043826
18,"«Метро Петровско-Разумовская», Локомотивный проезд (48)",Тимирязевский район,Северный административный округ,55.83716907,37.57585651,1899593.0463078478,6400788.9751476105
19,"«К/т Байкал», Большая Академическая улица (49)",район Коптево,Северный административный округ,55.83714435,37.53956854,1897392.9300810446,6401002.411371447
20,"«Стадион Наука», Большая Академическая улица (50)",район Коптево,Северный административный округ,55.83295208,37.5328525,1897140.690282225,6400903.902577274
21,"«Управа района Коптево», улица Зои и Александра Космодемьянских (51)",район Коптево,Северный административный округ,55.82411549,37.52242762,1896835.0836451347,6400957.274733046
22,"«К/т Рассвет», улица Зои и Александра Космодемьянских (52)",район Коптево,Северный административный округ,55.8230898,37.51890475,1896659.2318863468,6401088.008826718
23,"«3-й Новоподмосковный пер.», улица Зои и Александра Космодемьянских (53)",Войковский район,Северный административный округ,55.82093531,37.51084692,1896249.8698429475,6401595.454058554
24,"«3-й Новоподмосковный пер.», улица Зои и Александра Космодемьянских (54)",Войковский район,Северный административный округ,55.8210445,37.51203859,1896318.1572190563,6400989.011624579
25,"«К/т Рассвет», улица Зои и Александра Космодемьянских (55)",Войковский район,Северный административный округ,55.82236885,37.51688177,1896563.1228025202,6401124.672039434
26,"«Управа района Коптево», улица Зои и Александра Космодемьянских (56)",район Коптево,Северный административный округ,55.82398759,37.52300938,1896875.1175740433,6405625.421903072
27,"«Стадион Наука», Большая Академическая улица (57)",район Коптево,Северный административный округ,55.83304516,37.53338601,1897169.6117570146,6413501.967019499
28,"«7-й автобусный парк», Дмитровское шоссе (61)",Бескудниковский район,Северный административный округ,55.85199725,37.56524413,1898399.7543540632,6413569.748991816
29,"«Метро Верхние Лихоборы - Северный вестибюль», Дмитровское шоссе (62)",Бескудниковский район,Северный административный округ,55.8580184,37.55947707,1897826.9613761932,6413573.981418693
30,"«Ильменский пр.», Дмитровское шоссе (63)",Бескудниковский район,Северный административный округ,55.86090628,37.5540423,1897390.5069153823,6413703.451669074
31,"«Парк Святослава Федорова», Дмитровское шоссе (64)",Бескудниковский район,Северный административный округ,55.8634774,37.54946654,1897017.8974969913,6414512.965049925
32,"«Селигерская ул.», Дмитровское шоссе (65)",Бескудниковский район,Северный административный округ,55.86854848,37.54748211,1896709.7669822874,6414696.462128639
33,"«Бескудниково», Дмитровское шоссе (66)",Бескудниковский район,Северный административный округ,55.87427208,37.54811496,1896536.079274042,6414798.0718194125
34,"«Баскетбольная школа», Дубнинская улица (67)",район Восточное Дегунино,Северный административный округ,55.88068293,37.55775278,1896882.435160321,6398918.345862594
35,"«Д/к Юность», Дубнинская улица (68)",район Восточное Дегунино,Северный административный округ,55.88432753,37.55770841,1896744.6530330149,6398895.660512435
36,"«Мкр. Дубки», Дубнинская улица (69)",район Восточное Дегунино,Северный административный округ,55.88815141,37.55767396,1896600.8219258466,6399161.562971873
37,"«Ин-т Стали», Дубнинская улица (70)",район Восточное Дегунино,Северный административный округ,55.89221605,37.55762874,1896447.4088791937,6402845.369379292
38,"«Керамический пр.», Дубнинская улица (71)",район Восточное Дегунино,Северный административный округ,55.89352809,37.55756779,1896395.0799423722,6403003.547771283
39,"«Платф. Лианозово», Дубнинская улица (72)",район Восточное Дегунино,Северный административный округ,55.89652393,37.55445131,1896095.3071745336,6410631.868644496
40,"«Ст. Ховрино», Ангарская улица (73)",район Западное Дегунино,Северный административный округ,55.86956661,37.51160056,1894497.4630147282,6410669.991043266
41,"«Весенняя ул.», Ангарская улица (74)",район Западное Дегунино,Северный административный округ,55.87376954,37.51459808,1894523.671835835,6410781.894387041
42,"«Мкр. Западное Дегунино», Ангарская улица (75)",район Западное Дегунино,Северный административный округ,55.87606574,37.5174212,1894609.8040633171,6410786.033837667
43,"«Ангарская ул.», Коровинское шоссе (76)",Дмитровский район,Северный административный округ,55.87921929,37.52218296,1894781.6490781258,6413440.419474772
44,"«Колледж № 7», Клязьминская улица (77)",Дмитровский район,Северный административный округ,55.88456731,37.52067236,1894492.2271682385,6413533.6049476005
45,"«Ин-т Микрохирургии глаза», Коровинское шоссе (78)",район Западное Дегунино,Северный административный округ,55.86877206,37.53738746,1896089.7133878777,6400682.778510252
46,"«Селигерская ул.», Коровинское шоссе (79)",район Западное Дегунино,Северный административный округ,55.86639614,37.54237868,1896480.1946551488,6400801.009030318
47,"«К/т Комсомолец», Дмитровское шоссе (80)",Тимирязевский район,Северный административный округ,55.84090834,37.57003659,1899101.4335683712,6401618.640319043
48,"«Педагогический колледж», Большая Академическая улица (81)",район Коптево,Северный административный округ,55.84190084,37.55258978,1898006.562315364,6401553.712446589
49,"«Университет Природообустройства», Большая Академическая улица (82)",район Коптево,Северный административный округ,55.83894722,37.54470218,1897637.5657156769,6401573.935991875
50,"«Роддом № 27», Большая Академическая улица (83)",район Коптево,Северный административный округ,55.8289194,37.53038275,1897140.0762867834,6401719.200794082
51,"«Роддом № 27», Большая Академическая улица (84)",район Коптево,Северный административный округ,55.82911305,37.53085818,1897161.7569680947,6401673.948884808
52,"«Университет Природообустройства», Большая Академическая улица (85)",Тимирязевский район,Северный административный округ,55.83864991,37.54499163,1897666.1313637919,6401730.41151863
53,"«Педагогический колледж», Большая Академическая улица (86)",Тимирязевский район,Северный административный округ,55.84225467,37.5546848,1898120.5110180392,6401685.16390853
54,"«Метро Петровско-Разумовская», улица Линии Октябрьской Железной Дороги (87)",Тимирязевский район,Северный административный округ,55.83730911,37.5755751,1899570.7855729796,6419391.800839156
55,"«Метро Селигерская», Коровинское шоссе (91)",Бескудниковский район,Северный административный округ,55.86556347,37.54477895,1896656.5099483328,6417515.66423554
56,"«Селигерская ул.», Коровинское шоссе (92)",Бескудниковский район,Северный административный округ,55.86754868,37.54054356,1896326.2911172938,6417559.482030864
57,"«Ин-т Микрохирургии глаза», Коровинское шоссе (93)",Бескудниковский район,Северный административный округ,55.86998419,37.53539092,1895923.8356130824,6422536.911982161
58,"«Колледж № 7», Клязьминская улица (94)",Дмитровский район,Северный административный округ,55.88351247,37.51853547,1894401.802121141,6419524.98357627
59,"«Ангарская ул.», Ангарская улица (95)",район Западное Дегунино,Северный административный округ,55.87759056,37.5202723,1894726.1482355993,6417350.736270851
60,"«Мкр. Западное Дегунино», Ангарская улица (96)",район Западное Дегунино,Северный административный округ,55.87600214,37.51697285,1894584.9887875323,6417401.710470543
61,"«Весенняя ул.», Ангарская улица (97)",район Западное Дегунино,Северный административный округ,55.87432548,37.51498184,1894526.3630353431,6417353.717516497
62,"«Ст. Ховрино», Путейская улица (98)",район Западное Дегунино,Северный административный округ,55.86996961,37.51076263,1894431.7737926058,6411300.677726284
63,"«Онкологический диспансер», Старопетровский проезд (99)",Войковский район,Северный административный округ,55.82324046,37.50259018,1895663.5723853596,6409033.970637406
64,"«Старопетровский пр.», Старопетровский проезд (100)",Войковский район,Северный административный округ,55.82466889,37.50872434,1895983.045695255,6416906.819560891
65,"«Ф-ка игрушек», улица Клары Цеткин (101)",район Коптево,Северный административный округ,55.82980224,37.51178731,1895979.1468847853,6416759.2408710485
66,"«Диспансер», Михалковская улица (103)",район Коптево,Северный административный округ,55.8371895,37.50612355,1895362.4448927683,6406848.432128883
67,"«Электромеханический колледж», Михалковская улица (104)",район Коптево,Северный административный округ,55.83774587,37.51347393,1895787.7741308857,6407211.331834999
68,"«Ф-ка им. Петра Алексеева», Михалковская улица (105)",район Коптево,Северный административный округ,55.83963781,37.51656276,1895905.1816897457,6407229.102072146
69,"«Ст. Коптево», Михалковская улица (106)",район Коптево,Северный административный округ,55.84119183,37.519363,1896017.5605740966,6406846.508607096
70,"«Онежская ул. - Колледж», Онежская улица (107)",Головинский район,Северный административный округ,55.84540799,37.52181196,1896010.1382655362,6410793.6870856425
71,"«3-й Лихачевский пер.», Онежская улица (108)",Головинский район,Северный административный округ,55.84940542,37.52077371,1895799.3000631505,6410965.645508218
72,"«Онежская ул., 19», Онежская улица (109)",Головинский район,Северный административный округ,55.85217697,37.5192826,1895606.357784436,6413063.62898923
73,"«Солнечногорская ул.», Онежская улица (110)",Головинский район,Северный административный округ,55.85651537,37.51310736,1895071.4727646834,6413023.319149167
74,"«Флотская ул.», Онежская улица (111)",Головинский район,Северный административный округ,55.85959686,37.50880466,1894696.6605486006,6420945.248387477
75,"«Фестивальная ул.», Петрозаводская улица (112)",район Ховрино,Северный административный округ,55.86302215,37.50413371,1894286.853227363,6415596.719059296
76,"«М-н Книги», Петрозаводская улица (113)",район Ховрино,Северный административный округ,55.86474198,37.50026617,1893988.8301595163,6415503.816574468
77,"«Аптека», Петрозаводская улица (114)",район Ховрино,Северный административный округ,55.86590354,37.49690351,1893742.0619987582,6417963.706147021
78,"«Петрозаводская ул.», Петрозаводская улица (115)",район Ховрино,Северный административный округ,55.86712794,37.49043936,1893304.9826634598,6418011.780322451
79,"«15-й таксомоторный парк», Беломорская улица (116)",район Ховрино,Северный административный округ,55.86701264,37.48359511,1892894.363893046,6410356.429978568
80,"«Метро Беломорская», Смольная улица (117)",район Левобережный,Северный административный округ,55.86516218,37.47723461,1892577.1264920037,6399595.147243651
81,"«Смольная ул., 45», Смольная улица (118)",район Левобережный,Северный административный округ,55.86286328,37.47967752,1892810.1121562377,6399133.629154193
82,"«Школа им. Марш. Говорова», Смольная улица (119)",район Левобережный,Северный административный округ,55.86114044,37.48169028,1892995.7608166868,6426682.324889903
83,"«Смольная ул.», Фестивальная улица (120)",район Левобережный,Северный административный округ,55.8581037,37.48466984,1893288.5645477348,6426636.240903584
84,"«Автокомбинат № 3», улица Линии Октябрьской Железной Дороги (121)",Тимирязевский район,Северный административный округ,55.84366117,37.56315646,1898582.1521687026,6426644.028285437
85,"«Учебный центр», Клязьминская улица (122)",Дмитровский район,Северный административный округ,55.88566944,37.52245028,1894559.1472811482,6412566.906053926
86,"«Клязьминская ул.», Ангарская улица (123)",Дмитровский район,Северный административный округ,55.88619486,37.5257866,1894741.8076646007,6402473.694474579
87,"«Храм Матроны Московской», Ангарская улица (124)",Дмитровский район,Северный административный округ,55.88299191,37.52949825,1895085.2181943997,6402679.536728394
88,"«Ангарская ул., 49», Ангарская улица (125)",Дмитровский район,Северный административный округ,55.88104652,37.5289602,1895124.6359494964,6423282.88974849
89,"«Ангарская ул.», Коровинское шоссе (126)",район Западное Дегунино,Северный административный округ,55.87781596,37.52317839,1894893.8940088316,6402116.712234048
90,"«Протезный з-д», Коровинское шоссе (127)",Дмитровский район,Северный административный округ,55.87373993,37.52851198,1895367.9357781922,6402240.923085975
91,"«Талдомская ул.», Коровинское шоссе (128)",Дмитровский район,Северный административный округ,55.87563883,37.5259288,1895141.1223245605,6420814.511338183
92,"«Ангарская ул.», Ангарская улица (129)",Дмитровский район,Северный административный округ,55.87892817,37.52488287,1894956.0089178765,6420500.617215024
93,"«Ангарская ул., 49», Ангарская улица (130)",Дмитровский район,Северный административный округ,55.88135692,37.52936392,1895137.6049533528,6420512.726664182
94,"«Храм Матроны Московской», Ангарская улица (131)",Дмитровский район,Северный административный округ,55.88382937,37.53007852,1895089.3690897895,6423371.3170916
95,"«Клязьминская ул.», Ангарская улица (132)",Дмитровский район,Северный административный округ,55.88657586,37.52535911,1894701.8096551164,6423041.038021551
96,"«Учебный центр», Клязьминская улица (133)",Дмитровский район,Северный административный округ,55.88537864,37.52142869,1894508.022176997,6420548.9406284
97,"«Школа им. Марш. Говорова», Смольная улица (134)",район Ховрино,Северный административный округ,55.86106097,37.48215583,1893026.921093624,6422270.282257238
98,"«Смольная ул., 45», Смольная улица (135)",район Ховрино,Северный административный округ,55.86265788,37.48021163,1892850.0778027978,6411242.391828075
99,"«15-й таксомоторный парк», Петрозаводская улица (136)",район Ховрино,Северный административный округ,55.86687761,37.48618247,1893056.191162522,6408975.3470864585
100,"«Петрозаводская ул.», Петрозаводская улица (137)",район Ховрино,Северный административный округ,55.86659387,37.49280228,1893467.9477009268,6399556.806456092
101,"«Аптека», Петрозаводская улица (138)",район Ховрино,Северный административный округ,55.86519568,37.49827389,1893851.2924205984,6420539.093550405
102,"«М-н Книги», Петрозаводская улица (139)",район Ховрино,Северный административный округ,55.86378554,37.50217988,1894140.1914072067,6408972.164627285
103,"«Фестивальная ул.», Онежская улица (140)",район Ховрино,Северный административный округ,55.86137424,37.50594619,1894457.6521423939,6409013.259248834
104,"«Флотская ул.», Онежская улица (141)",район Ховрино,Северный административный округ,55.85883776,37.50941753,1894761.884811625,6399529.573899951
105,"«Солнечногорская ул.», Онежская улица (142)",Головинский район,Северный административный округ,55.85546521,37.51406449,1895168.341659357,6399514.351087961
106,"«Онежская ул., 19», Онежская улица (143)",Головинский район,Северный административный округ,55.85154723,37.51918742,1895623.880732212,6399683.192307493
107,"«Онежская ул. - Колледж», Онежская улица (144)",Головинский район,Северный административный округ,55.84409988,37.52157813,1896044.3466254084,6417961.196355995
108,"«Ст. Коптево», Михалковская улица (145)",Головинский район,Северный административный округ,55.84118267,37.5180298,1895937.0338780023,6418027.26670472
109,"«Ф-ка им. Петра Алексеева», Михалковская улица (146)",Головинский район,Северный административный округ,55.83918271,37.51581327,1895876.5485960275,6410268.937193453
110,"«Электромеханический колледж», Михалковская улица (147)",Головинский район,Северный административный округ,55.83779697,37.51180454,1895684.6159223672,6400483.351309299
111,"«Ф-ка игрушек», улица Клары Цеткин (150)",Войковский район,Северный административный округ,55.82917814,37.51236379,1896037.1988300935,6400444.908120834
112,"«Старопетровский пр.», Старопетровский проезд (151)",Войковский район,Северный административный округ,55.82460143,37.50758103,1895916.1568437086,6419988.471112152
113,"«Онкологический диспансер», Старопетровский проезд (152)",Войковский район,Северный административный округ,55.82364048,37.50344704,1895700.792083159,6420069.585834434
114,"«Коровинское ш.», Коровинское шоссе (154)",район Западное Дегунино,Северный административный округ,55.88231105,37.51857144,1894448.4340778938,6397978.678356274
115,"«Талдомская ул.», улица 800-летия Москвы (155)",Дмитровский район,Северный административный округ,55.8751219,37.52852678,1895317.6800508013,6397750.596275092
116,"«Ин-т Микрохирургии глаза», Бескудниковский бульвар (156)",Бескудниковский район,Северный административный округ,55.87320802,37.53908121,1896028.0935943236,6398029.152453531
117,"«Муз. школа», Бескудниковский бульвар (157)",Бескудниковский район,Северный административный округ,55.87348434,37.5438328,1896305.7865745325,6397959.349020533
118,"«Аптека», Бескудниковский бульвар (158)",Бескудниковский район,Северный административный округ,55.87321427,37.5524069,1896835.336042003,6397960.600832107
119,"«Школа № 656», Бескудниковский бульвар (159)",Бескудниковский район,Северный административный округ,55.87114913,37.554861,1897060.5700926583,6400575.2501733815
120,"«Рогачевский пер.», Бескудниковский бульвар (160)",Бескудниковский район,Северный административный округ,55.86750227,37.55767154,1897366.040636011,6400516.233057205
121,"«Бескудниковский пер.», Бескудниковский бульвар (161)",Бескудниковский район,Северный административный округ,55.86350936,37.56080902,1897704.181897752,6400526.020276137
122,"«Торговый центр», Бескудниковский бульвар (162)",Бескудниковский район,Северный административный округ,55.86192215,37.5619061,1897829.508050344,6400585.109592165
123,"«Роддом № 27», Коптевский бульвар (163)",район Коптево,Северный административный округ,55.83113256,37.52861005,1896950.6351212144,6400413.932171026
124,"«Коптевский рынок», Коптевский бульвар (164)",район Коптево,Северный административный округ,55.83296339,37.52183663,1896471.9656152667,6399423.620718971
125,"«Коптевская ул.», Коптевская улица (165)",район Коптево,Северный административный округ,55.82930661,37.51809726,1896380.3340129843,6399472.693128366
126,"«Коптевская ул.», Коптевская улица (166)",район Коптево,Северный административный округ,55.83087861,37.51910841,1896383.5494218313,6424359.774712568
127,"«Коптевский рынок», Коптевский бульвар (167)",район Коптево,Северный административный округ,55.83208819,37.5210781,1896458.3174331042,6424572.172602493
128,"«Роддом № 27», Коптевский бульвар (168)",район Коптево,Северный административный округ,55.83033095,37.52758869,1896918.326038967,6424569.707883519
129,"«Метро Петровско-Разумовская», Локомотивный проезд (169)",Тимирязевский район,Северный административный округ,55.8372403,37.57571844,1899582.0308727387,6424369.513294197
130,"«К/т Комсомолец», Дмитровское шоссе (170)",Тимирязевский район,Северный административный округ,55.84221842,37.57029254,1899068.3858741883,6413195.325412558
131,"«Нижн. Лихоборы», Дмитровское шоссе (171)",Тимирязевский район,Северный административный округ,55.84699926,37.56848803,1898781.7181641352,6413172.960353588
132,"«7-й автобусный парк», Дмитровское шоссе (172)",Бескудниковский район,Северный административный округ,55.85171839,37.5655145,1898426.483488814,6400483.330843875
133,"«Торговый центр», Бескудниковский бульвар (173)",Бескудниковский район,Северный административный округ,55.86285461,37.56167358,1897780.8514931784,6400426.320607874
134,"«Бескудниковский пер.», Бескудниковский бульвар (174)",Бескудниковский район,Северный административный округ,55.86490713,37.56012464,1897610.894433662,6400472.525786568
135,"«Рогачевский пер.», Бескудниковский бульвар (175)",Бескудниковский район,Северный административный округ,55.86932066,37.55664809,1897236.6267855007,6412765.839478491
136,"«Школа № 656», Бескудниковский бульвар (176)",Бескудниковский район,Северный административный округ,55.8726825,37.55392499,1896947.0288325893,6416754.10478163
137,"«Аптека», Бескудниковский бульвар (177)",Бескудниковский район,Северный административный округ,55.87378923,37.5508956,1896722.456612025,6415124.913857968
138,"«Бескудниково», Бескудниковский бульвар (178)",Бескудниковский район,Северный административный округ,55.87383774,37.54640192,1896448.3707076334,6415322.923060877
139,"«Муз. школа», Бескудниковский бульвар (179)",Бескудниковский район,Северный административный округ,55.87363021,37.54269997,1896231.7396539517,6411606.805360956
140,"«Ин-т Микрохирургии глаза», Бескудниковский бульвар (180)",Бескудниковский район,Северный административный округ,55.87348554,37.53715086,1895900.8444772041,6411781.405883134
141,"«Коровинское ш.», Коровинское шоссе (181)",Дмитровский район,Северный административный округ,55.88348784,37.51779428,1894357.809918088,6411629.893438452
142,"«Кронштадтский бульв.», Кронштадтский бульвар (182)",Головинский район,Северный административный округ,55.84295524,37.49676253,1894581.5236731132,6408974.33305269
143,"«Гимназия № 1583», Кронштадтский бульвар (183)",Головинский район,Северный административный округ,55.84380494,37.50020429,1894758.886522704,6408732.535006797
144,"«Нарвская ул. - Университет Гражданской Авиации», Кронштадтский бульвар (184)",Головинский район,Северный административный округ,55.84383493,37.50221161,1894879.5302264893,6408731.723058494
145,"«Детский сад», Нарвская улица (185)",Головинский район,Северный административный округ,55.84091159,37.50337847,1895058.3513151035,6408984.742733442
146,"«3-й Лихачевский пер.», 3-й Лихачёвский переулок (186)",Головинский район,Северный административный округ,55.84889439,37.52197759,1895891.209236098,6408927.295155177
147,"«База механизации», 4-й Лихачёвский переулок (187)",Головинский район,Северный административный округ,55.8511234,37.52718031,1896124.2259188166,6409019.766806092
148,"«Лихоборская наб. - Хим-тех. з-д», Автомоторная улица (188)",Головинский район,Северный административный округ,55.85278126,37.53048767,1896263.4149735689,6408768.964212518
149,"«Автомоторная ул.», Автомоторная улица (189)",Головинский район,Северный административный округ,55.84923721,37.53655232,1896762.3298548541,6408709.192333522
150,"«Кадетский корпус полиции», 4-й Новомихалковский проезд (191)",район Коптево,Северный административный округ,55.84292301,37.54326043,1897402.9034010044,6402712.545007592
151,"«Митинская ул., 48», Митинская улица (193)",район Митино,Северо-Западный административный округ,55.84954574,37.35496588,1885736.8174794526,6410149.209930297
152,"«4-й Новомихалковский пр. - Поликлиника № 159», 4-й Новомихалковский проезд (194)",район Коптево,Северный административный округ,55.84060584,37.54523209,1897608.2871493658,6410388.819707273
153,"«Кадетский корпус полиции», 4-й Новомихалковский проезд (195)",район Коптево,Северный административный округ,55.84321186,37.54350999,1897407.3428113773,6414631.8732412215
154,"«НАМИ», Автомоторная улица (196)",Головинский район,Северный административный округ,55.8464752,37.54100334,1897134.4957625351,6414642.933013093
155,"«Автомоторная ул.», Автомоторная улица (197)",Головинский район,Северный административный округ,55.84992976,37.53598672,1896702.395967502,6414659.921744698
156,"«Лихоборская наб. - Хим-тех. з-д», Автомоторная улица (198)",Головинский район,Северный административный округ,55.85291818,37.53095343,1896286.58791248,6414669.530724419
157,"«База механизации», 4-й Лихачёвский переулок (199)",Головинский район,Северный административный округ,55.85125394,37.52699793,1896108.336582917,6402704.511371512
158,"«3-й Лихачевский пер.», Онежская улица (200)",Головинский район,Северный административный округ,55.84831504,37.52091766,1895848.3649214136,6414552.74342912
159,"«Диспансер», Нарвская улица (201)",Головинский район,Северный административный округ,55.83752032,37.50480971,1895270.5140550695,6413285.305877136
160,"«Детский сад», Нарвская улица (202)",Головинский район,Северный административный округ,55.84200789,37.50344783,1895022.039541402,6409211.9105119165
161,"«Гимназия № 1583», Кронштадтский бульвар (203)",Головинский район,Северный административный округ,55.84370335,37.49912551,1894697.2079071556,6409235.213573473
162,"«Кронштадтский бульв.», Кронштадтский бульвар (204)",Головинский район,Северный административный округ,55.84289574,37.49584482,1894528.0570190337,6405568.283000995
163,"«15-й таксомоторный парк», улица Дыбенко (206)",район Ховрино,Северный административный округ,55.86851809,37.48465472,1892902.9882526826,6405664.820354356
164,"«19-й квартал», улица Дыбенко (207)",район Ховрино,Северный административный округ,55.87602353,37.48251534,1892496.0968143523,6405847.262471367
165,"«Интернат», Смольная улица (208)",район Левобережный,Северный административный округ,55.87346894,37.46855178,1891744.1450945358,6405592.59573926
166,"«11-й автобусный парк - Киностудия», Смольная улица (209)",район Левобережный,Северный административный округ,55.87122038,37.47087508,1891967.9645303367,6405690.26149385
167,"«Смольная ул., 61», Смольная улица (210)",район Левобережный,Северный административный округ,55.86924721,37.47291097,1892164.2105682127,6405899.544576186
168,"«Метро Беломорская», Смольная улица (211)",район Левобережный,Северный административный округ,55.86632944,37.47593628,1892455.3219644548,6405869.110111021
169,"«Смольная ул.», Фестивальная улица (212)",район Левобережный,Северный административный округ,55.85832994,37.48635788,1893382.5583268674,6405875.625899614
170,"«Фестивальная ул., 14», Фестивальная улица (213)",район Ховрино,Северный административный округ,55.86018085,37.49617308,1893909.2672179958,6416068.168381874
171,"«Фестивальная ул., 65», Фестивальная улица (214)",район Ховрино,Северный административный округ,55.8609953,37.50113583,1894180.0375237626,6416035.482539437
172,"«Фестивальная ул.», Фестивальная улица (216)",район Ховрино,Северный административный округ,55.86189364,37.50360878,1894296.749753166,6416005.401131362
173,"«Фестивальная ул., 14», Фестивальная улица (217)",район Ховрино,Северный административный округ,55.86023665,37.49502105,1893837.361001193,6416190.501857048
174,"«Метро Беломорская», Смольная улица (218)",район Левобережный,Северный административный округ,55.86691808,37.47572273,1892420.6431243161,6416061.551017155
175,"«Смольная ул., 61», Смольная улица (219)",район Левобережный,Северный административный округ,55.87006376,37.47250317,1892109.3468916416,6416093.5897585135
176,"«11-й автобусный парк - Киностудия», Смольная улица (220)",район Левобережный,Северный административный округ,55.87205598,37.47042618,1891909.9099892774,6397758.435774552
177,"«19-й квартал», улица Дыбенко (221)",район Ховрино,Северный административный округ,55.8751448,37.48222667,1892511.0590281177,6415339.9336619135
178,"«Фестивальная ул.», Фестивальная улица (222)",Головинский район,Северный административный округ,55.86280819,37.50674921,1894453.3166590347,6395141.887474074
179,"«Зеленоградская ул., 21», Зеленоградская улица (225)",район Ховрино,Северный административный округ,55.87385147,37.49737477,1893476.8775157141,6395194.830454228
180,"«Почта», Зеленоградская улица (226)",район Ховрино,Северный административный округ,55.8755477,37.49362797,1893187.1234593317,6402501.57785932
181,"«Зеленоградская ул., 39», Зеленоградская улица (227)",район Ховрино,Северный административный округ,55.87735502,37.48921877,1892853.1419806597,6402492.847881083
182,"«Зеленоградская ул., 39», Зеленоградская улица (228)",район Ховрино,Северный административный округ,55.87686159,37.48987729,1892911.2794298595,6414545.507710314
183,"«Почта», Зеленоградская улица (229)",район Ховрино,Северный административный округ,55.87495346,37.49462501,1893269.5063524994,6414581.119345489
184,"«Зеленоградская ул., 21», Зеленоградская улица (230)",район Ховрино,Северный административный округ,55.87297274,37.49835973,1893569.0493216119,6414573.469920329
185,"«Б-ца - Библиотека им. Короленко», Фестивальная улица (232)",район Ховрино,Северный административный округ,55.8636384,37.50768663,1894479.446702627,6399297.271792939
186,"«Фестивальная ул., 65», Фестивальная улица (233)",район Ховрино,Северный административный округ,55.86101472,37.49975463,1894095.5847366294,6407393.369736598
187,"«1-й Пехотный пер.», улица Академика Курчатова (236)",район Щукино,Северо-Западный административный округ,55.80542046,37.47678643,1894755.15002175,6413657.049187444
188,"«Сосновая ул.», Сосновая улица (237)",район Щукино,Северо-Западный административный округ,55.8067697,37.47964623,1894879.0124520492,6413642.338499666
189,"«Детский сад», Пехотная улица (238)",район Щукино,Северо-Западный административный округ,55.80643966,37.48404293,1895158.1677223092,6413674.342626329
190,"«1-й Волоколамский пр.», 1-й Волоколамский проезд (239)",район Щукино,Северо-Западный административный округ,55.80331626,37.48997891,1895633.9321886224,6413728.957399191
191,"«Почта», 1-й Волоколамский проезд (240)",район Щукино,Северо-Западный административный округ,55.80095854,37.49213145,1895851.708256682,6413803.4044438815
192,"«2-й Балтийский пер.», улица Усиевича (242)",район Аэропорт,Северный административный округ,55.80643003,37.52393804,1897580.8489101778,6413771.191752908
193,"«Ленинградский рынок - К/т Баку», улица Усиевича (243)",район Аэропорт,Северный административный округ,55.8053676,37.52819011,1897878.3042985424,6413805.983848094
194,"«4-я ул. 8-го Марта», Планетная улица (244)",район Аэропорт,Северный административный округ,55.80227973,37.54624078,1899088.5235165223,6413655.125196915
195,"«1-я ул. 8-го Марта», Планетная улица (245)",район Аэропорт,Северный административный округ,55.80027904,37.54935307,1899351.563334634,6407382.977426445
196,"«Петровско-Разумовская аллея», Петровско-Разумовская аллея (246)",район Аэропорт,Северный административный округ,55.79487824,37.55895913,1900134.8681967496,6407640.351721227
197,"«1-я ул. 8-го Марта», Планетная улица (247)",район Аэропорт,Северный административный округ,55.80115306,37.54842919,1899263.1077371002,6413744.514668945
198,"«4-я ул. 8-го Марта», Планетная улица (248)",район Аэропорт,Северный административный округ,55.80315803,37.54530114,1898998.9592520697,6407678.395791171
199,"«Ленинградский рынок - К/т Баку», Часовая улица (249)",район Аэропорт,Северный административный округ,55.80878826,37.52946621,1897829.2443080947,6407688.376696711
200,"«Университет Путей сообщения», Часовая улица (250)",район Аэропорт,Северный административный округ,55.80978817,37.52572758,1897565.2932344726,6407698.021285141
201,"«1-й Балтийский пер.», Часовая улица (251)",район Аэропорт,Северный административный округ,55.81109372,37.52068425,1897210.8458824693,6407685.940609512
202,"«Почта», 1-й Волоколамский проезд (253)",район Щукино,Северо-Западный административный округ,55.80140552,37.49202639,1895828.8228145668,6412315.138383349
203,"«1-й Волоколамский пр.», 1-й Волоколамский проезд (254)",район Щукино,Северо-Западный административный округ,55.80287533,37.4907994,1895700.0378918704,6412367.860564706
204,"«2-й Пехотный пер.», 2-й Пехотный переулок (255)",район Щукино,Северо-Западный административный округ,55.80449312,37.48896731,1895529.0504263155,6417182.651799187
205,"«52-я гор. б-ца», Пехотная улица (256)",район Щукино,Северо-Западный административный округ,55.80576201,37.48431737,1895199.8472904258,6417167.2383118095
206,"«Детский сад», Сосновая улица (257)",район Щукино,Северо-Западный административный округ,55.80703181,37.4831399,1895081.4766312079,6417574.257694219
207,"«Сосновая ул.», Сосновая улица (258)",район Щукино,Северо-Западный административный округ,55.80688858,37.47843633,1894801.1582061332,6404519.135726331
208,"«1-й Пехотный пер.», улица Академика Курчатова (259)",район Щукино,Северо-Западный административный округ,55.80426928,37.47654724,1894783.1050883029,6404490.856148504
209,"«Пулковская ул.», Авангардная улица (260)",Головинский район,Северный административный округ,55.84632385,37.48944038,1894012.9572611249,6404292.394779227
210,"«Флотская ул., 36», Флотская улица (261)",Головинский район,Северный административный округ,55.85079102,37.49234418,1894024.0455163948,6404266.81759756
211,"«Поликлиника», Флотская улица (262)",Головинский район,Северный административный округ,55.85399188,37.50108072,1894435.552750268,6404317.945074594
212,"«Школа № 648», Флотская улица (263)",Головинский район,Северный административный округ,55.8549718,37.50383408,1894566.283822687,6404283.682748028
213,"«Флотская ул.», Флотская улица (264)",Головинский район,Северный административный округ,55.85700257,37.50949264,1894834.2963414653,6413896.646533203
214,"«Солнечногорская ул.», Солнечногорская улица (265)",Головинский район,Северный административный округ,55.85680532,37.5148501,1895166.4112140618,6410761.965880099
215,"«Сенежская ул.,1 - Торговое училище», Сенежская улица (266)",Головинский район,Северный административный округ,55.85977627,37.51653887,1895158.9099917049,6410845.757092794
216,"«Сенежская ул.», Сенежская улица (267)",Головинский район,Северный административный округ,55.86095183,37.5141147,1894968.4692352617,6410787.325356307
217,"«Солнечногорская ул.», Солнечногорская улица (268)",Головинский район,Северный административный округ,55.8564857,37.51403816,1895129.0044355793,6410869.955596051
218,"«Флотская ул.», Флотская улица (269)",район Ховрино,Северный административный округ,55.85691524,37.50859495,1894783.0983341124,6406833.179718114
219,"«Поликлиника», Флотская улица (270)",район Ховрино,Северный административный округ,55.85446122,37.50178932,1894461.1723527275,6406869.43014271
220,"«Смольная ул.», Флотская улица (271)",район Левобережный,Северный административный округ,55.85184812,37.49462719,1894123.437487341,6406820.618753523
221,"«Пулковская ул.», Авангардная улица (272)",Головинский район,Северный административный округ,55.84540275,37.48979253,1894068.339480067,6406854.047403148
222,"«Ин-т Цветметавтоматика», Бескудниковский бульвар (273)",Бескудниковский район,Северный административный округ,55.85891159,37.5624217,1897972.3524493424,6414302.551175875
223,"«Метро Верхние Лихоборы - Северный вестибюль», Бескудниковский бульвар (274)",Бескудниковский район,Северный административный округ,55.85736801,37.56240004,1898028.2544527135,6414315.936963888
224,"«Нарвская ул. - Университет Гражданской Авиации», Кронштадтский бульвар (275)",Головинский район,Северный административный округ,55.84459084,37.5031925,1894911.086148892,6414245.444507382
225,"«Акад. Туризма», Кронштадтский бульвар (276)",Головинский район,Северный административный округ,55.85174733,37.51280334,1895229.363328975,6414059.184896056
226,"«Лихоборская наб.», Кронштадтский бульвар (277)",Головинский район,Северный административный округ,55.85266649,37.51607697,1895393.8742639993,6409635.265511077
227,"«Солнечногорская ул.,15 - Торговое училище», Солнечногорская улица (278)",Головинский район,Северный административный округ,55.86086522,37.52010745,1895334.9641770495,6409745.454864025
228,"«Солнечногорская ул.,15 - Торговое училище», Солнечногорская улица (279)",Головинский район,Северный административный округ,55.86062002,37.51942088,1895302.414271077,6407171.569024087
229,"«Лихоборская наб.», Кронштадтский бульвар (280)",Головинский район,Северный административный округ,55.85259736,37.5151295,1895338.980004013,6404498.516666617
230,"«Акад. Туризма», Кронштадтский бульвар (281)",Головинский район,Северный административный округ,55.85131969,37.51095173,1895132.8970728216,6404466.0193584375
231,"«Нарвская ул. - Университет Гражданской Авиации», Кронштадтский бульвар (282)",Головинский район,Северный административный округ,55.8447254,37.50317031,1894904.7668727422,6414303.491164073
232,"«Пр. Черепановых», Михалковская улица (283)",район Коптево,Северный административный округ,55.83961008,37.52662018,1896516.2633365928,6414142.030475872
233,"«Соболевский пр.», Михалковская улица (284)",район Коптево,Северный административный округ,55.83867407,37.5301106,1896762.6149719008,6404054.249369366
234,"«К/т Байкал», улица Прянишникова (285)",Тимирязевский район,Северный административный округ,55.83595654,37.5403527,1897484.469755976,6402943.724639283
235,"«Университет Печати», улица Прянишникова (286)",Тимирязевский район,Северный административный округ,55.83517852,37.54325751,1897689.4814230443,6402964.862191821
236,"«Тимирязевская академия», Тимирязевская улица (287)",Тимирязевский район,Северный административный округ,55.8333563,37.54995412,1898163.187576081,6402696.17232905
237,"«Пасечная ул.», Тимирязевская улица (288)",Тимирязевский район,Северный административный округ,55.82979983,37.55276469,1898465.4170197158,6402724.444734028
238,"«Парк Дубки», Тимирязевская улица (289)",Тимирязевский район,Северный административный округ,55.81830039,37.56230019,1899470.0121668384,6402973.201052955
239,"«50-я гор. б-ца», улица Вучетича (290)",Тимирязевский район,Северный административный округ,55.81245767,37.55706274,1899368.5974629337,6416893.490781701
240,"«Пр. Соломенной Сторожки», улица Вучетича (291)",Тимирязевский район,Северный административный округ,55.80729184,37.56009979,1899744.3068958274,6416842.264811343
241,"«Дмитровский пр.», Тимирязевская улица (292)",Тимирязевский район,Северный административный округ,55.80737234,37.57133003,1900423.0447323595,6416867.744673003
242,"«Всероссийское Общество Слепых», 2-я Хуторская улица (293)",Савёловский район,Северный административный округ,55.80496909,37.56798446,1900309.0167738318,6416912.956637781
243,"«2-я Хуторская ул.», Петровско-Разумовский проезд (294)",Савёловский район,Северный административный округ,55.8021133,37.56402048,1900174.1783932783,6417311.184092885
244,"«Писцовая ул.», Петровско-Разумовский проезд (295)",Савёловский район,Северный административный округ,55.7976739,37.56828288,1900597.4670903492,6417139.076906336
245,"«Петровско-Разумовский пр.», Петровско-Разумовский проезд (296)",Савёловский район,Северный административный округ,55.7959313,37.56856682,1900679.2805960805,6417006.575300254
246,"«Петровско-Разумовский пр.», Петровско-Разумовский проезд (299)",Савёловский район,Северный административный округ,55.79483867,37.56899242,1900745.612312199,6417032.350855375
247,"«Писцовая ул.», Петровско-Разумовский проезд (300)",Савёловский район,Северный административный округ,55.79828331,37.56806202,1900561.4748271692,6417157.988648699
248,"«2-я Хуторская ул.», Петровско-Разумовский проезд (301)",Савёловский район,Северный административный округ,55.80233029,37.56409114,1900170.4289943436,6411920.287203658
249,"«Всероссийское Общество Слепых», 2-я Хуторская улица (302)",Савёловский район,Северный административный округ,55.80510455,37.56935149,1900386.985640859,6413913.69070529
250,"«Дмитровский пр.», Тимирязевская улица (303)",Тимирязевский район,Северный административный округ,55.80882552,37.57049117,1900318.2647866807,6418317.766605805
251,"«50-я гор. б-ца», улица Вучетича (304)",Тимирязевский район,Северный административный округ,55.81167022,37.55786267,1899446.3197615936,6418362.431315373
252,"«Парк Дубки», Тимирязевская улица (305)",Тимирязевский район,Северный административный округ,55.81949598,37.56165453,1899386.5314489088,6418357.462940377
253,"«Красностуденческий пр.», Тимирязевская улица (306)",Тимирязевский район,Северный административный округ,55.82271493,37.55898612,1899105.3467357561,6418623.644681586
254,"«Пасечная ул.», Тимирязевская улица (307)",Тимирязевский район,Северный административный округ,55.83051264,37.5525004,1898422.9808050143,6420943.847850673
255,"«Тимирязевская академия», Тимирязевская улица (308)",Тимирязевский район,Северный административный округ,55.83386599,37.54997813,1898145.76692291,6420068.755375538
256,"«Университет Печати», улица Прянишникова (309)",Тимирязевский район,Северный административный округ,55.83570208,37.54201196,1897594.54121421,6396124.177819499
257,"«К/т Байкал», Михалковская улица (310)",район Коптево,Северный административный округ,55.83684988,37.53792443,1897304.1016861137,6396144.173419475
258,"«Пр. Черепановых», Михалковская улица (311)",район Коптево,Северный административный округ,55.83977396,37.52668729,1896514.270604541,6428073.66486521
259,"«М-н Оптика», Петровско-Разумовский проезд (313)",Савёловский район,Северный административный округ,55.79220519,37.56965969,1900883.7184845086,6417528.629998785
260,"«Пр. Соломенной Сторожки», улица Вучетича (314)",Тимирязевский район,Северный административный округ,55.80805865,37.56000307,1899710.0293546245,6417608.539577338
261,"«Ижорская ул.», Ижорская улица (315)",Дмитровский район,Северный административный округ,55.88876084,37.51005825,1893694.1003106483,6417508.630436805
262,"«Бусиново», улица Бусиновская Горка (316)",район Западное Дегунино,Северный административный округ,55.88176129,37.49607096,1893105.5152214132,6407352.526824691
263,"«Краснополянская ул.», Краснополянская улица (317)",район Западное Дегунино,Северный административный округ,55.88465504,37.48803781,1892511.860267839,6407287.2898795325
264,"«Ижорская ул., 6», Ижорская улица (318)",район Западное Дегунино,Северный административный округ,55.88251592,37.50137028,1893398.700260212,6415598.634436077
265,"«Ул. Марш. Федоренко», Краснополянская улица (319)",район Западное Дегунино,Северный административный округ,55.88337571,37.48590023,1892429.6152930304,6405272.160712608
266,"«Краснополянская ул.», Краснополянская улица (320)",район Западное Дегунино,Северный административный округ,55.88501834,37.48950949,1892587.6000367692,6405278.368218394
267,"«Ул. Бусиновская Горка», улица Бусиновская Горка (321)",район Западное Дегунино,Северный административный округ,55.88546893,37.493061,1892786.1175412256,6413234.82642969
268,"«Ижорская ул., 6», Ижорская улица (323)",район Западное Дегунино,Северный административный округ,55.88171538,37.50083838,1893396.0692036198,6413238.105983367
269,"«Рыбокомбинат», Ижорская улица (324)",район Западное Дегунино,Северный административный округ,55.88495156,37.50484126,1893518.935702744,6413182.865150845
270,"«Ижорская ул.», Ижорская улица (325)",район Западное Дегунино,Северный административный округ,55.88870379,37.51065136,1893732.1384500326,6413167.147330328
271,"«15-й таксомоторный парк», улица Лавочкина (326)",район Ховрино,Северный административный округ,55.86634844,37.48480428,1892992.1943839276,6413205.610088023
272,"«К/т Волга», Дмитровское шоссе (328)",Дмитровский район,Северный административный округ,55.88858272,37.54249343,1895665.3766059515,6410886.519794772
273,"«Селигерская ул.», Дмитровское шоссе (333)",Бескудниковский район,Северный административный округ,55.86904594,37.54670927,1896644.502988891,6405272.955830675
274,"«Нижн. Лихоборы», Дмитровское шоссе (337)",Тимирязевский район,Северный административный округ,55.84736639,37.56835312,1898759.9272896806,6405517.859176634
275,"«434-е отделение связи», Дмитровское шоссе (340)",Тимирязевский район,Северный административный округ,55.82156527,37.5730144,1899999.1703092877,6404044.285329724
276,"«Ул. Всеволода Вишневского», Дмитровское шоссе (341)",Тимирязевский район,Северный административный округ,55.81266755,37.57784748,1900622.3440961442,6410761.971930572
277,"«Метро Дмитровская», Бутырская улица (342)",Савёловский район,Северный административный округ,55.80662786,37.58130875,1901056.37803299,6410533.757636417
278,"«Бутырская ул., 62», Бутырская улица (343)",Савёловский район,Северный административный округ,55.80184252,37.58301545,1901337.4314029014,6408920.8510867115
279,"«Бутырская ул., 46», Бутырская улица (344)",Савёловский район,Северный административный округ,55.80046147,37.58333572,1901408.0872776369,6408876.976114765
280,"«Савеловский вокзал», Бутырская улица (345)",Савёловский район,Северный административный округ,55.79487456,37.58397332,1901653.9711668666,6408941.832518767
281,"«2-й Лесной пер.», улица Бутырский Вал (347)",Тверской район,Центральный административный округ,55.78210613,37.58658429,1902286.0077182923,6408901.9356879145
282,"«Ул. Сущевский Вал», Новослободская улица (349)",Тверской район,Центральный административный округ,55.79062955,37.590714,1902220.727996094,6408969.863855703
283,"«Савеловский вокзал», Бутырская улица (350)",Бутырский район,Северо-Восточный административный округ,55.79569066,37.58463823,1901664.0828099467,6419427.0138409445
284,"«Бутырская ул., 62», Бутырская улица (351)",Бутырский район,Северо-Восточный административный округ,55.80339594,37.58323426,1901293.1107260236,6428295.27927826
285,"«Метро Дмитровская», Бутырская улица (352)",Бутырский район,Северо-Восточный административный округ,55.80719327,37.58158147,1901051.9666836266,6410517.302137762
286,"«Ул. Всеволода Вишневского», Дмитровское шоссе (353)",Тимирязевский район,Северный административный округ,55.81336942,37.57809073,1900611.084086804,6415500.230467979
287,"«434-е отделение связи», Дмитровское шоссе (354)",Тимирязевский район,Северный административный округ,55.82214075,37.57339366,1900000.8487089707,6415559.730971059
288,"«К/т Комсомолец», Дмитровское шоссе (356)",Тимирязевский район,Северный административный округ,55.84105487,37.56996508,1899091.6644349224,6415522.747949335
289,"«Нижн. Лихоборы», Дмитровское шоссе (357)",Тимирязевский район,Северный административный округ,55.84729349,37.56732208,1898700.1124408783,6417516.527922099
290,"«7-й автобусный парк», Дмитровское шоссе (358)",район Западное Дегунино,Северный административный округ,55.85030802,37.56590713,1898502.570192357,6417558.556808701
291,"«Лианозовский элмех. з-д», Дмитровское шоссе (368)",Дмитровский район,Северный административный округ,55.89139449,37.54350786,1895622.6572968047,6417443.86210063
292,"«М-н Спортмастер», Дмитровское шоссе (369)",Тимирязевский район,Северный административный округ,55.82929303,37.57316568,1899721.8561984934,6417618.530525703
293,"«Ул. Марш. Федоренко», Краснополянская улица (370)",район Западное Дегунино,Северный административный округ,55.88401518,37.48677795,1892459.169765825,6397284.855345877
294,"«Б-ца МПС», Волоколамское шоссе (372)",район Покровское-Стрешнево,Северо-Западный административный округ,55.81683057,37.4607176,1893358.5960893373,6419454.006155346
295,"«Херсонская ул., 32», Херсонская улица (373)",район Черёмушки,Юго-Западный административный округ,55.65530995,37.55959741,1905339.7135324855,6419429.946911194
296,"«Пехотная ул.», Волоколамское шоссе (375)",район Щукино,Северо-Западный административный округ,55.81133819,37.48238529,1894876.6971321832,6419647.911503345
297,"«Ул. Серегина», Ленинградский проспект (378)",Хорошёвский район,Северный административный округ,55.79420677,37.54485023,1899302.917625707,6419548.4431440765
298,"«Путевой дворец», Ленинградский проспект (379)",Хорошёвский район,Северный административный округ,55.79263254,37.54849025,1899582.2541432143,6419635.118489168
299,"«Метро Динамо (южный вход)», Ленинградский проспект (380)",район Беговой,Северный административный округ,55.78758071,37.55983741,1900458.492516029,6419567.429409139
300,"«Белорусский вокзал», Ленинградский проспект (381)",район Беговой,Северный административный округ,55.77879349,37.57900682,1901948.5141247544,6411523.720200059
301,"«Пушкинская пл.», Пушкинская площадь (383)",Тверской район,Центральный административный округ,55.7653481,37.6063666,1904109.5301368241,6411466.46596126
302,"«Метро Динамо (южный вход)», Ленинградский проспект (384)",район Аэропорт,Северный административный округ,55.78897661,37.55932762,1900375.8290615852,6411484.5516034085
303,"«Путевой дворец», Ленинградский проспект (385)",район Аэропорт,Северный административный округ,55.79195895,37.55239291,1899844.211137595,6402419.510414287
304,"«Ул. Серегина», Ленинградский проспект (386)",район Аэропорт,Северный административный округ,55.79485212,37.54602831,1899350.5744898405,6416280.64408395
305,"«М А Д И - Финансовый университет», Ленинградский проспект (387)",район Аэропорт,Северный административный округ,55.80157684,37.52963278,1898106.119917121,6416027.392147387
306,"«Гидропроект», Волоколамское шоссе (388)",район Сокол,Северный административный округ,55.80797638,37.501916,1896186.6361976569,6403500.162802411
307,"«Авиационный ин-т», Волоколамское шоссе (389)",район Сокол,Северный административный округ,55.80877639,37.49750362,1895889.185379406,6403492.095094126
308,"«Пехотная ул.», Волоколамское шоссе (390)",район Щукино,Северо-Западный административный округ,55.81162182,37.48249108,1894872.6501946016,6403709.875812395
309,"«Покровское-Стрешнево», Волоколамское шоссе (391)",район Щукино,Северо-Западный административный округ,55.81280014,37.47657318,1894469.8715000977,6403700.82533165
310,"«Иваньковское ш.», Волоколамское шоссе (392)",район Покровское-Стрешнево,Северо-Западный административный округ,55.81622789,37.46692402,1893757.6028802549,6413879.921981301
311,"«Покровское-Глебово», Волоколамское шоссе (393)",район Покровское-Стрешнево,Северо-Западный административный округ,55.81533781,37.46984766,1893967.927596398,6413477.0042377245
312,"«Б-ца МПС», Волоколамское шоссе (394)",район Покровское-Стрешнево,Северо-Западный административный округ,55.81787195,37.45978638,1893263.6609007106,6411106.63754754
313,"«М-н Спортмастер», Дмитровское шоссе (395)",Тимирязевский район,Северный административный округ,55.82857132,37.57256424,1899712.126079918,6397192.181257742
314,"«Метро Тимирязевская», Дмитровское шоссе (396)",Тимирязевский район,Северный административный округ,55.81846492,37.57464072,1900212.7944871117,6397543.998143695
315,"«Бутырская ул., 46», Бутырская улица (397)",Бутырский район,Северо-Восточный административный округ,55.79983587,37.58409234,1901477.2225884285,6397296.293987814
316,"«Метро Тимирязевская», Дмитровское шоссе (398)",Тимирязевский район,Северный административный округ,55.81854294,37.57519757,1900243.6934070105,6397261.803116303
317,"«К/т Рига», Ботаническая улица (399)",район Марфино,Северо-Восточный административный округ,55.84458929,37.58436933,1899834.0768149502,6397543.5345443925
318,"«Главный вход Ботанического сада», Ботаническая улица (400)",район Марфино,Северо-Восточный административный округ,55.84262896,37.58570115,1899987.56434405,6397253.079087464
319,"«Ботаническая ул., 33», Ботаническая улица (401)",район Марфино,Северо-Восточный административный округ,55.8402493,37.58858337,1900250.638942518,6397198.430432112
320,"«Ул. Акад. Комарова», Ботаническая улица (402)",район Марфино,Северо-Восточный административный округ,55.82945279,37.60107644,1901409.0589714772,6421256.657357218
321,"«Ул. Кашенкин Луг», Ботаническая улица (403)",район Марфино,Северо-Восточный административный округ,55.82440347,37.60214656,1901661.419382543,6421024.367990398
322,"«Телецентр», улица Академика Королёва (404)",Останкинский район,Северо-Восточный административный округ,55.8213684,37.60417904,1901897.4033703902,6421269.594146098
323,"«Останкинский пруд», улица Академика Королёва (405)",Останкинский район,Северо-Восточный административный округ,55.82135806,37.61249591,1902402.387354549,6421038.510089175
324,"«Экскурсионный корпус телебашни», Новомосковская улица (406)",Останкинский район,Северо-Восточный административный округ,55.81684894,37.61738366,1902866.4287177683,6416142.067275572
325,"«2-я Новоостанкинская ул.», Новомосковская улица (407)",Останкинский район,Северо-Восточный административный округ,55.81417973,37.61808166,1903007.9337623238,6416088.428245092
326,"«Звездный бульв.», Звёздный бульвар (409)",Останкинский район,Северо-Восточный административный округ,55.8131772,37.62836544,1903669.2242365114,6416149.3971643895
327,"«6-й Новоостанкинский пр.», 6-й Новоостанкинский проезд (410)",Останкинский район,Северо-Восточный административный округ,55.81555838,37.63212149,1903808.6387314175,6416285.401977485
328,"«Ул. Цандера», улица Цандера (411)",Останкинский район,Северо-Восточный административный округ,55.81782669,37.6306705,1903636.2868502452,6416229.462598009
329,"«Ул. Кондратюка», улица Кондратюка (412)",Останкинский район,Северо-Восточный административный округ,55.81891731,37.6332174,1903750.2737806307,6407870.752099376
330,"«Гост. Останкино», Ботаническая улица (413)",район Марфино,Северо-Восточный административный округ,55.83355588,37.59479679,1900875.859642064,6420782.702690189
331,"«Ул. Акад. Королева», Новомосковская улица (414)",Останкинский район,Северо-Восточный административный округ,55.8208519,37.61655979,1902667.7475286198,6420551.254263101
332,"«Метро Алексеевская», проспект Мира (417)",Останкинский район,Северо-Восточный административный округ,55.80911616,37.6369606,1904341.7671195986,6413538.230688112
333,"«Новоалексеевская ул.», проспект Мира (418)",Останкинский район,Северо-Восточный административный округ,55.80497185,37.63619726,1904449.504792209,6413315.828758531
334,"«Новоалексеевская ул.», проспект Мира (421)",Алексеевский район,Северо-Восточный административный округ,55.80523391,37.63705024,1904491.5337786195,6413372.514744383
335,"«Метро Алексеевская», проспект Мира (422)",Алексеевский район,Северо-Восточный административный округ,55.80921754,37.63778119,1904387.7973386007,6413390.239103137
336,"«Староалексеевская ул.», проспект Мира (423)",Алексеевский район,Северо-Восточный административный округ,55.81102634,37.63791977,1904328.9587618583,6413322.191995643
337,"«Ул. Цандера», улица Цандера (428)",Останкинский район,Северо-Восточный административный округ,55.81805839,37.63044273,1903613.8552654157,6413392.967781791
338,"«Звездный бульв.», Звёздный бульвар (429)",Останкинский район,Северо-Восточный административный округ,55.81365254,37.62537543,1903470.1207492815,6420970.155960068
339,"«2-я Новоостанкинская ул.», Новомосковская улица (431)",Останкинский район,Северо-Восточный административный округ,55.81449523,37.61829629,1903009.2382708977,6408643.13488074
340,"«Экскурсионный корпус телебашни», Новомосковская улица (432)",Останкинский район,Северо-Восточный административный округ,55.81747325,37.6175586,1902853.8529269735,6408666.721086374
341,"«Ул. Акад. Королева», улица Академика Королёва (433)",Останкинский район,Северо-Восточный административный округ,55.82169934,37.6159211,1902597.519357235,6408629.521009065
342,"«Останкинский пруд», улица Академика Королёва (434)",Останкинский район,Северо-Восточный административный округ,55.82175066,37.61176015,1902343.1676185508,6408656.503214206
343,"«Телецентр», улица Академика Королёва (435)",Останкинский район,Северо-Восточный административный округ,55.82176801,37.6045616,1901905.7785340953,6407843.750843872
344,"«Ул. Кашенкин Луг», Ботаническая улица (436)",Останкинский район,Северо-Восточный административный округ,55.82540749,37.60226796,1901631.5123867185,6413458.506542218
345,"«Ул. Акад. Комарова», Ботаническая улица (437)",Останкинский район,Северо-Восточный административный округ,55.83057072,37.60091971,1901358.051645546,6413519.82828188
346,"«6-й Новоостанкинский пр.», Звёздный бульвар (438)",Останкинский район,Северо-Восточный административный округ,55.81531701,37.62955712,1903662.0100569765,6413506.579329741
347,"«Гост. Останкино», Ботаническая улица (439)",Останкинский район,Северо-Восточный административный округ,55.83328234,37.59582389,1900948.3092765731,6396144.437288277
348,"«Ботаническая ул., 33», Ботаническая улица (440)",Останкинский район,Северо-Восточный административный округ,55.83973132,37.58931158,1900314.0201834654,6414572.770073936
349,"«Главный вход Ботанического сада», Сусоколовское шоссе (441)",район Марфино,Северо-Восточный административный округ,55.84380936,37.58652624,1899993.8019791308,6414564.22031909
350,"«Туристская ул.», улица Героев Панфиловцев (442)",район Северное Тушино,Северо-Западный административный округ,55.8579716,37.41946732,1889339.612864597,6416881.281942889
351,"«Планерная ул.», улица Героев Панфиловцев (443)",район Северное Тушино,Северо-Западный административный округ,55.8578072,37.4312515,1890060.3133110716,6416876.065559243
352,"«Нелидовская ул.», Сходненская улица (444)",район Южное Тушино,Северо-Западный административный округ,55.84646022,37.4395792,1890983.5144316878,6417089.945477525
353,"«Западный мост», Сходненская улица (445)",район Южное Тушино,Северо-Западный административный округ,55.83814206,37.43783186,1891184.0262273923,6417194.706799368
354,"«Новопоселковая ул.», Лодочная улица (446)",район Южное Тушино,Северо-Западный административный округ,55.83714279,37.44153012,1891445.2456687808,6388294.860098936
355,"«Тушинская ул.», улица Свободы (448)",район Покровское-Стрешнево,Северо-Западный административный округ,55.82507558,37.4515184,1892496.180948617,6412975.531343956
356,"«Канал им. Москвы», Волоколамское шоссе (449)",район Покровское-Стрешнево,Северо-Западный административный округ,55.81924294,37.45096699,1892677.7238168211,6408558.1144034155
357,"«Б-ца МПС», Волоколамское шоссе (450)",район Покровское-Стрешнево,Северо-Западный административный округ,55.81675657,37.46051703,1893349.14887289,6409991.732773576
358,"«Покровское-Глебово», Волоколамское шоссе (451)",район Покровское-Стрешнево,Северо-Западный административный округ,55.81465719,37.4685905,1893916.7157000245,6409871.894308727
359,"«Покровское-Стрешнево», Авиационная улица (452)",район Щукино,Северо-Западный административный округ,55.81055785,37.47492734,1894452.6914414137,6409299.377471464
360,"«Пехотная ул.», Авиационная улица (453)",район Щукино,Северо-Западный административный округ,55.81053464,37.4823062,1894901.5567658122,6399799.157644072
361,"«Братцево», улица Героев Панфиловцев (456)",район Северное Тушино,Северо-Западный административный округ,55.85256745,37.40770188,1888824.9582881199,6399858.091088435
362,"«НИИАТ», улица Героев Панфиловцев (457)",район Северное Тушино,Северо-Западный административный округ,55.85438566,37.40907673,1888841.4369278261,6399838.2313652
363,"«Гидропроект», Ленинградский проспект (458)",район Сокол,Северный административный округ,55.80633514,37.50777509,1896603.0205261188,6399643.564954464
364,"«Пищевой ин-т», Волоколамское шоссе (459)",район Сокол,Северный административный округ,55.80789141,37.49955887,1896046.661161334,6399623.131370516
365,"«Пехотная ул.», Авиационная улица (460)",район Щукино,Северо-Западный административный округ,55.81065944,37.48271945,1894922.0401959387,6396111.54405187
366,"«Канал им. Москвы», Волоколамское шоссе (462)",район Покровское-Стрешнево,Северо-Западный административный округ,55.81932364,37.45104843,1892679.6928716605,6395968.798927485
367,"«Тушинская ул.», улица Свободы (463)",район Покровское-Стрешнево,Северо-Западный административный округ,55.82428556,37.45160062,1892530.295720105,6419006.467949676
368,"«Восточный мост», Лодочная улица (464)",район Южное Тушино,Северо-Западный административный округ,55.83627754,37.45309035,1892178.5744636082,6419028.267836557
369,"«Новопоселковая ул.», Лодочная улица (465)",район Южное Тушино,Северо-Западный административный округ,55.83721407,37.44196685,1891469.1181303263,6419097.443945249
370,"«Западный мост», Сходненская улица (466)",район Южное Тушино,Северо-Западный административный округ,55.83802814,37.43801697,1891199.455520219,6411670.51211732
371,"«Нелидовская ул.», Сходненская улица (467)",район Южное Тушино,Северо-Западный административный округ,55.84598786,37.43963743,1891004.4543869032,6414519.113385933
372,"«Планерная ул.», улица Героев Панфиловцев (468)",район Северное Тушино,Северо-Западный административный округ,55.85764656,37.43250714,1890142.3782166673,6408063.147621024
373,"«Туристская ул.», улица Героев Панфиловцев (469)",район Северное Тушино,Северо-Западный административный округ,55.85815268,37.42046247,1889393.2960073187,6408252.767326486
374,"«НИИАТ», улица Героев Панфиловцев (470)",район Северное Тушино,Северо-Западный административный округ,55.85481457,37.40923909,1888835.4992316666,6411661.793720439
375,"«Братцево», улица Героев Панфиловцев (471)",район Северное Тушино,Северо-Западный административный округ,55.85172131,37.40736664,1888835.7611626594,6402224.913573339
376,"«Талдомская ул.», Коровинское шоссе (472)",район Западное Дегунино,Северный административный округ,55.87431805,37.52718211,1895265.9513022732,6402241.705530538
377,"«Ул. Марш. Федоренко, 2», улица Маршала Федоренко (474)",район Западное Дегунино,Северный административный округ,55.87926729,37.49327422,1893028.2280899242,6402219.832341325
378,"«Универсам», улица Маршала Федоренко (475)",район Западное Дегунино,Северный административный округ,55.88076925,37.49002478,1892775.8292539865,6402202.71543445
379,"«Универсам», улица Маршала Федоренко (476)",район Западное Дегунино,Северный административный округ,55.88030592,37.49035409,1892812.9037214564,6402170.8740259
380,"«Ул. Марш. Федоренко, 2», улица Маршала Федоренко (477)",район Западное Дегунино,Северный административный округ,55.87908674,37.49303071,1893020.144871345,6402209.617900278
381,"«Бусиново», улица Бусиновская Горка (478)",район Западное Дегунино,Северный административный округ,55.88144854,37.49698687,1893172.5704405694,6411672.298894615
382,"«Стадион Лужники (южн.)», улица Лужники (479)",район Хамовники,Центральный административный округ,55.71416768,37.56615547,1903561.0958247748,6411614.845111849
383,"«Спортзал Дружба», Лужнецкая набережная (480)",район Хамовники,Центральный административный округ,55.71246911,37.5702206,1903871.4064295653,6412179.936191539
384,"«Лужнецкая наб.», Лужнецкая набережная (481)",район Хамовники,Центральный административный округ,55.71371644,37.57438176,1904078.4787542722,6412384.02371934
385,"«Новодевичье кладб.», Лужнецкий проезд (482)",район Хамовники,Центральный административный округ,55.72420225,37.55683707,1902622.5822264063,6413442.039493218
386,"«Абрикосовский пер.», Большая Пироговская улица (483)",район Хамовники,Центральный административный округ,55.72918163,37.56530362,1902953.3836822459,6420802.411449094
387,"«Д/к Каучук», улица Плющиха (485)",район Хамовники,Центральный административный округ,55.73568112,37.57483122,1903292.2482623442,6424466.2280192105
388,"«Ул. Хамовнический вал, 2», улица Хамовнический Вал (486)",район Хамовники,Центральный административный округ,55.7165635,37.57522547,1904024.379581284,6424671.857990337
389,"«Комсомольский просп.», улица Хамовнический Вал (487)",район Хамовники,Центральный административный округ,55.71815991,37.57168183,1903749.6029068131,6401496.791100293
390,"«Смоленская пл.», Смоленская-Сенная площадь (488)",район Арбат,Центральный административный округ,55.74649424,37.58303298,1903390.3723342887,6401471.504625901
391,"«Дом Шаляпина», Новинский бульвар (489)",район Арбат,Центральный административный округ,55.75621878,37.5846308,1903127.069567903,6401433.977925473
392,"«М. Грузинская ул.», улица Красная Пресня (491)",Пресненский район,Центральный административный округ,55.76189075,37.57033117,1902047.6896499917,6401459.3765271045
393,"«Ваганьково», улица 1905 Года (493)",Пресненский район,Центральный административный округ,55.76953423,37.55673251,1900938.1414075883,6418213.3903697105
394,"«Издательский дом Красная звезда», Хорошёвское шоссе (495)",Хорошёвский район,Северный административный округ,55.77625054,37.5332392,1899261.9796323597,6410164.645661921
395,"«5-я Магистральная ул.», Хорошёвское шоссе (496)",Хорошёвский район,Северный административный округ,55.77711411,37.52930581,1898991.0364499788,6413000.503384203
396,"«Ул. Генерала Ивашутина», Хорошёвское шоссе (497)",Хорошёвский район,Северный административный округ,55.77784723,37.52609914,1898769.082013923,6395370.689701801
397,"«Ул. Генерала Ивашутина», Хорошёвское шоссе (498)",Хорошёвский район,Северный административный округ,55.77731284,37.52685063,1898834.5042805127,6421914.956183804
398,"«Ваганьково», улица 1905 Года (501)",Пресненский район,Центральный административный округ,55.76865214,37.55690409,1900981.2283507043,6421974.0840485925
399,"«Метро Ул. 1905 года (сев.) - Трансагентство», улица 1905 Года (502)",Пресненский район,Центральный административный округ,55.76516024,37.56059788,1901335.0145296117,6421793.27866375
400,"«М. Грузинская ул.», улица Красная Пресня (503)",Пресненский район,Центральный административный округ,55.76161739,37.5698903,1902031.0199114967,6421812.003503409
401,"«Кудринская пл.», Кудринская площадь (504)",Пресненский район,Центральный административный округ,55.75837164,37.58407439,1903013.444593939,6410187.750571045
402,"«Дом Шаляпина», Новинский бульвар (505)",Пресненский район,Центральный административный округ,55.75593303,37.58349629,1903068.696928082,6407135.7760384735
403,"«Ружейный пер.», улица Плющиха (507)",район Хамовники,Центральный административный округ,55.74200779,37.5772816,1903206.8893128335,6407260.53684855
404,"«Стадион Буревестник», улица Плющиха (508)",район Хамовники,Центральный административный округ,55.73697755,37.57523218,1903268.6097085217,6407356.638253953
405,"«Д/к Каучук», улица Еланского (509)",район Хамовники,Центральный административный округ,55.73479169,37.5739954,1903274.3568096757,6407421.513296666
406,"«Трубецкая ул.», Большая Пироговская улица (510)",район Хамовники,Центральный административный округ,55.7313274,37.56951744,1903130.2752214586,6411579.076445781
407,"«Абрикосовский пер.», Большая Пироговская улица (511)",район Хамовники,Центральный административный округ,55.7289894,37.56412929,1902889.0572504215,6411663.37703755
408,"«Новодевичье кладб.», Лужнецкий проезд (512)",район Хамовники,Центральный административный округ,55.72361678,37.555955,1902590.5773571369,6416223.93707402
409,"«Комсомольский просп.», улица Хамовнический Вал (513)",район Хамовники,Центральный административный округ,55.71806362,37.5706764,1903691.9829081248,6416351.507764357
410,"«Ул. Хамовнический вал, 2», улица Хамовнический Вал (514)",район Хамовники,Центральный административный округ,55.71597894,37.57552395,1904064.195666616,6416235.721452818
411,"«Лужнецкая наб.», Лужнецкая набережная (515)",район Хамовники,Центральный административный округ,55.71361006,37.57350537,1904029.0793259097,6416325.144189287
412,"«Спортзал Дружба», улица Лужники (516)",район Хамовники,Центральный административный округ,55.71317194,37.5683786,1903733.2698494913,6416322.783394607
413,"«Платф. Окружная», Станционная улица (518)",район Марфино,Северо-Восточный административный округ,55.8478689,37.57612496,1899212.531701638,6417484.36067026
414,"«Ин-т Стройфизики», Локомотивный проезд (519)",Тимирязевский район,Северный административный округ,55.84433844,37.57426183,1899230.4827283497,6413538.877279581
415,"«Гост. Молодежная», Красностуденческий проезд (520)",Тимирязевский район,Северный административный округ,55.82589828,37.57025727,1899671.2567780043,6412550.1525296
416,"«М-н Оптика», Красностуденческий проезд (521)",Тимирязевский район,Северный административный округ,55.82480251,37.56442066,1899357.7454538604,6412730.4225635985
417,"«Красностуденческий пр.», Тимирязевская улица (522)",Тимирязевский район,Северный административный округ,55.82290416,37.55848199,1899067.7461361703,6416668.30371148
418,"«Тимирязевская ул., 30», Тимирязевская улица (523)",Тимирязевский район,Северный административный округ,55.82028969,37.56065872,1899296.6946676576,6416618.76866027
419,"«Префектура САО», Тимирязевская улица (524)",Тимирязевский район,Северный административный округ,55.81482028,37.56512291,1899770.2712609696,6424698.568518417
420,"«Театр Золотое кольцо», Тимирязевская улица (525)",Тимирязевский район,Северный административный округ,55.81087658,37.56841167,1900116.0259284202,6424508.0445367815
421,"«Плодоовощная база», Коровинское шоссе (526)",район Западное Дегунино,Северный административный округ,55.88564426,37.51516239,1894118.5845683697,6416234.488620945
422,"«Плодоовощная база», Коровинское шоссе (527)",Дмитровский район,Северный административный округ,55.8862894,37.51491677,1894079.8379502643,6418050.978374611
423,"«1-й Неопалимовский пер.», Смоленский бульвар (528)",район Хамовники,Центральный административный округ,55.74033924,37.58461639,1903714.779386364,6418035.499165511
424,"«Ул. Берзарина, 32», улица Берзарина (529)",район Хорошёво-Мнёвники,Северо-Западный административный округ,55.78886456,37.47316811,1895146.2180971908,6408353.68155234
425,"«Ин-т Приборостроения», улица Расплетина (530)",район Щукино,Северо-Западный административный округ,55.79117184,37.48240018,1895621.9360510202,6408600.345107027
426,"«Комбинат бытового обслуживания», улица Расплетина (531)",район Щукино,Северо-Западный административный округ,55.79480318,37.4833339,1895544.6300715387,6414648.030186656
427,"«Поликлиника», улица Маршала Бирюзова (532)",район Щукино,Северо-Западный административный округ,55.79772467,37.4844579,1895505.066406624,6414621.635726868
428,"«Поликлиника», улица Маршала Бирюзова (533)",район Щукино,Северо-Западный административный округ,55.79786336,37.48397939,1895470.884406648,6413796.110294029
429,"«Комбинат бытового обслуживания», улица Расплетина (534)",район Щукино,Северо-Западный административный округ,55.79458376,37.48308279,1895537.475841059,6413884.616778553
430,"«Ин-т Приборостроения», улица Расплетина (535)",район Щукино,Северо-Западный административный округ,55.79096481,37.48178342,1895592.1098322128,6415207.468926662
431,"«Ул. Берзарина, 32», улица Берзарина (536)",район Щукино,Северо-Западный административный округ,55.78911845,37.472198,1895077.9151927542,6415233.767402178
432,"«Авангардная ул., 15», Авангардная улица (537)",Головинский район,Северный административный округ,55.84871348,37.48932003,1893917.3900796017,6419714.22402784
433,"«Авангардная ул., 15», Авангардная улица (538)",Головинский район,Северный административный округ,55.84799445,37.48872132,1893907.6383916915,6419735.731273077
434,"«Канал им. Москвы», Волоколамское шоссе (541)",район Покровское-Стрешнево,Северо-Западный административный округ,55.82139165,37.44708095,1892362.624925539,6419522.582102889
435,"«Клуб им. Чкалова», Волоколамское шоссе (542)",район Покровское-Стрешнево,Северо-Западный административный округ,55.82270276,37.44156946,1891979.7490777066,6410419.450769748
436,"«Сходненский тупик», Волоколамское шоссе (543)",район Покровское-Стрешнево,Северо-Западный административный округ,55.82650919,37.42603676,1890896.7093106308,6413788.585018759
437,"«15-й автобусный парк», Волоколамское шоссе (544)",район Покровское-Стрешнево,Северо-Западный административный округ,55.82834922,37.41749333,1890310.4059625908,6413876.32035898
438,"«Акад. Коммунального хоз-ва», Волоколамское шоссе (545)",район Покровское-Стрешнево,Северо-Западный административный округ,55.82928627,37.41287735,1889995.7464752065,6409861.678643588
439,"«Храм Сергия Радонежского», улица Василия Петушкова (546)",район Южное Тушино,Северо-Западный административный округ,55.83609252,37.40569349,1889309.3117638393,6416146.733912324
440,"«Спортшкола», улица Василия Петушкова (547)",район Южное Тушино,Северо-Западный административный округ,55.83866356,37.40853402,1889387.0850070606,6410656.9615262365
441,"«Школа № 821», Светлогорский проезд (548)",район Южное Тушино,Северо-Западный административный округ,55.84602155,37.40411364,1888848.1483065817,6410701.459732075
442,"«Детская б-ца», улица Героев Панфиловцев (549)",район Северное Тушино,Северо-Западный административный округ,55.85288588,37.40775714,1888816.5918548522,6410656.520740209
443,"«Планерная ул.», улица Героев Панфиловцев (551)",район Северное Тушино,Северо-Западный административный округ,55.85798058,37.43088738,1890031.8441891822,6410487.615815912
444,"«Планерная ул.», улица Героев Панфиловцев (552)",район Северное Тушино,Северо-Западный административный округ,55.85819068,37.43085886,1890022.3742083684,6410473.780751697
445,"«НИИАТ», улица Героев Панфиловцев (553)",район Северное Тушино,Северо-Западный административный округ,55.85545149,37.40964917,1888836.9302366925,6410446.760354428
446,"«Детская б-ца», улица Героев Панфиловцев (554)",район Северное Тушино,Северо-Западный административный округ,55.85219474,37.40699114,1888795.562274142,6410462.35300958
447,"«Школа № 821», Светлогорский проезд (555)",район Южное Тушино,Северо-Западный административный округ,55.84515085,37.40367419,1888853.5212110365,6410355.269663813
448,"«Спортшкола», улица Василия Петушкова (556)",район Южное Тушино,Северо-Западный административный округ,55.83860966,37.40779409,1889344.1689166478,6412845.177028231
449,"«Храм Сергия Радонежского», улица Василия Петушкова (557)",район Южное Тушино,Северо-Западный административный округ,55.83498991,37.40498828,1889307.0803288028,6420434.678035577
450,"«Акад. Коммунального хоз-ва», Волоколамское шоссе (558)",район Покровское-Стрешнево,Северо-Западный административный округ,55.82883752,37.41297155,1890017.978435652,6395518.608319993
451,"«15-й автобусный парк», Волоколамское шоссе (559)",район Покровское-Стрешнево,Северо-Западный административный округ,55.82800574,37.41725771,1890308.7474713316,6395380.8363782065
452,"«Сходненский тупик», Волоколамское шоссе (560)",район Покровское-Стрешнево,Северо-Западный административный округ,55.82620278,37.42548966,1890874.7838914485,6395577.53933457
453,"«Клуб им. Чкалова», Волоколамское шоссе (561)",район Покровское-Стрешнево,Северо-Западный административный округ,55.82264714,37.44004068,1891888.9989895583,6395373.298327804
454,"«Канал им. Москвы», Волоколамское шоссе (562)",район Покровское-Стрешнево,Северо-Западный административный округ,55.82088544,37.44696089,1892373.9939473232,6395591.348829297
455,"«Гост. Алтай», Гостиничная улица (564)",район Марфино,Северо-Восточный административный округ,55.84586431,37.58079912,1899570.294845238,6419706.07046971
456,"«Башиловская ул. - Гор. б-ца № 24», Башиловская улица (565)",Савёловский район,Северный административный округ,55.79615076,37.57627571,1901139.2464465878,6413262.978210194
457,"«Ул. Марины Расковой», улица Расковой (567)",район Беговой,Северный административный округ,55.79070802,37.57652815,1901356.3251204651,6414037.0609199535
458,"«5-я ул. Ямского Поля», 5-я улица Ямского Поля (568)",район Беговой,Северный административный округ,55.78898927,37.57614776,1901396.930837251,6410730.867821644
459,"«Издательство Пресса», 5-я улица Ямского Поля (569)",район Беговой,Северный административный округ,55.78690997,37.58100222,1901768.84313413,6393521.576220717
460,"«1-я ул. Ямского Поля», 1-я улица Ямского Поля (570)",район Беговой,Северный административный округ,55.78450598,37.58522087,1902114.2049870882,6389348.527150836
461,"«3-я ул. Ямского Поля», 1-я улица Ямского Поля (571)",район Беговой,Северный административный округ,55.78056554,37.58331026,1902144.2494241283,6404490.206890132
462,"«М-н Свет», улица Расковой (573)",район Беговой,Северный административный округ,55.78679063,37.57172221,1901209.6267940507,6404671.500311115
463,"«5-я ул. Ямского Поля», улица Расковой (574)",район Беговой,Северный административный округ,55.78915877,37.57488842,1901314.1644860501,6408591.502689109
464,"«К/т Прага», улица Нижняя Масловка (575)",район Беговой,Северный административный округ,55.79156181,37.57953903,1901507.524250033,6395098.876736675
465,"«Вятская ул.», улица Нижняя Масловка (576)",район Беговой,Северный административный округ,55.79173869,37.58286369,1901702.8658346052,6418625.652901861
466,"«Бутырский рынок», Башиловская улица (577)",Савёловский район,Северный административный округ,55.79457583,37.57700018,1901241.6185000248,6418312.848512328
467,"«Башиловская ул. - Гор. б-ца № 24», Башиловская улица (578)",Савёловский район,Северный административный округ,55.79709428,37.57641334,1901112.628428946,6417498.549639712
468,"«Театр Золотое кольцо», Тимирязевская улица (580)",Тимирязевский район,Северный административный округ,55.81188966,37.56793172,1900049.3500216336,6417535.914931857
469,"«Префектура САО», Тимирязевская улица (581)",Тимирязевский район,Северный административный округ,55.81555686,37.56497722,1899734.1346503322,6417435.895922948
470,"«М-н Оптика», Красностуденческий проезд (582)",Тимирязевский район,Северный административный округ,55.82485209,37.56555445,1899424.699940831,6416917.35897372
471,"«Метро Окружная - Платф. Окружная», 3-й Нижнелихоборский проезд (583)",Тимирязевский район,Северный административный округ,55.84673184,37.57272152,1899048.33307616,6416752.79983239
472,"«3-й мкр. Строгина», улица Исаковского (584)",район Строгино,Северо-Западный административный округ,55.815082,37.40691689,1890156.5185778583,6415895.082767569
473,"«Аллея Дорога Жизни», улица Исаковского (585)",район Строгино,Северо-Западный административный округ,55.80721429,37.4175948,1891094.4336684633,6421895.070153426
474,"«Универсам», улица Маршала Катукова (586)",район Строгино,Северо-Западный административный округ,55.80783426,37.40781094,1890477.4213230256,6421640.470378442
475,"«МКАД», Рублёвское шоссе (588)",район Кунцево,Западный административный округ,55.76750163,37.37424653,1889919.8660449812,6413794.841655219
476,"«Черепково», Рублёвское шоссе (589)",район Кунцево,Западный административный округ,55.76352583,37.38276314,1890583.7607214649,6413887.242222273
477,"«ЦКБ», Рублёвское шоссе (590)",район Кунцево,Западный административный округ,55.75710953,37.39591586,1891619.3934718815,6413785.020637673
478,"«ЦКБ», Рублёвское шоссе (593)",район Крылатское,Западный административный округ,55.75809003,37.3953002,1891545.9185313426,6413873.425305622
479,"«Черепково», Рублёвское шоссе (594)",район Крылатское,Западный административный округ,55.76383631,37.3832414,1890601.4423471293,6407366.863810813
480,"«Строгинский бульв.», улица Кулакова (597)",район Строгино,Северо-Западный административный округ,55.8045034,37.39362212,1889738.110975837,6407300.864162343
481,"«Школа им. Маресьева», улица Кулакова (598)",район Строгино,Северо-Западный административный округ,55.81130853,37.39828376,1889771.0504066015,6410658.582095026
482,"«Универсам», улица Маршала Катукова (599)",район Строгино,Северо-Западный административный округ,55.80691863,37.40836875,1890544.980814604,6399576.948767191
483,"«Аллея Дорога Жизни», улица Исаковского (601)",район Строгино,Северо-Западный административный округ,55.80791776,37.41839955,1891117.4184728393,6421112.3018890545
484,"«3-й мкр. Строгина», улица Исаковского (602)",район Строгино,Северо-Западный административный округ,55.81579666,37.40639641,1890098.625721364,6421077.957330887
485,"«2-я Хуторская ул.», Башиловская улица (603)",Савёловский район,Северный административный округ,55.80517985,37.57298455,1900604.7459566442,6420852.239729884
486,"«1-я Хуторская ул.», Башиловская улица (604)",Савёловский район,Северный административный округ,55.80275398,37.57435139,1900777.6431600528,6400466.765990671
487,"«4-й Вятский пер.», Башиловская улица (605)",Савёловский район,Северный административный округ,55.800329,37.57550586,1900937.62242086,6400437.530369118
488,"«Бутырский рынок», 2-я Квесисская улица (606)",Савёловский район,Северный административный округ,55.79504025,37.57959509,1901381.9725892993,6413871.362720446
489,"«Бутырская ул.», 2-я Квесисская улица (607)",Савёловский район,Северный административный округ,55.79534376,37.58274548,1901562.0169022367,6413895.165375266
490,"«К/т Прага», улица Нижняя Масловка (609)",Савёловский район,Северный административный округ,55.79214116,37.57867474,1901433.5602881603,6414025.246422636
491,"«4-й Вятский пер.», Башиловская улица (610)",Савёловский район,Северный административный округ,55.80119461,37.57552723,1900906.8328915043,6419498.121804194
492,"«Неманский пр., 11», Мякининский проезд (611)",район Строгино,Северо-Западный административный округ,55.80833396,37.3920409,1889501.263867381,6419771.666652086
493,"«Знаменский храм», 2-й Крестовский переулок (612)",Мещанский район,Центральный административный округ,55.79148173,37.63881417,1905109.8434684486,6419759.83510196
494,"«Рижский вокзал», Рижская площадь (614)",район Марьина Роща,Северо-Восточный административный округ,55.79257937,37.63292423,1904711.4279045407,6419571.877449632
495,"«Олимпийский просп.», улица Сущёвский Вал (615)",район Марьина Роща,Северо-Восточный административный округ,55.79301703,37.6236267,1904130.6494782527,6419521.942286219
496,"«Метро Марьина Роща», улица Сущёвский Вал (616)",район Марьина Роща,Северо-Восточный административный округ,55.79336636,37.61799083,1903775.4776190512,6419566.625384419
497,"«Метро Марьина Роща», улица Сущёвский Вал (617)",район Марьина Роща,Северо-Восточный административный округ,55.79343299,37.61437242,1903553.3001324297,6412103.872745822
498,"«Ул. Образцова», улица Сущёвский Вал (618)",район Марьина Роща,Северо-Восточный административный округ,55.79313758,37.60736661,1903138.8793319415,6412147.62342553
499,"«Мебельная ф-ка», улица Сущёвский Вал (619)",Тверской район,Центральный административный округ,55.79204084,37.59640821,1902514.1612652908,6412130.771833588
500,"«Вятская ул.», улица Нижняя Масловка (620)",Савёловский район,Северный административный округ,55.79236001,37.58201742,1901628.437538115,6414552.664799191
501,"«Севастопольский просп., 81», Херсонская улица (621)",район Черёмушки,Юго-Западный административный округ,55.65250171,37.56509384,1905778.7014965282,6416240.463463329
502,"«4-й Вятский пер.», 4-й Вятский переулок (622)",Савёловский район,Северный административный округ,55.80082119,37.57477297,1900874.8814572059,6412439.058745645
503,"«Полтавская ул. - Пенсионный фонд», 4-й Вятский переулок (623)",Савёловский район,Северный административный округ,55.80056848,37.57165224,1900694.7763112015,6410377.771171148
504,"«Перинатальный центр», 4-й Вятский переулок (624)",Савёловский район,Северный административный округ,55.80008771,37.56708661,1900435.389147097,6410575.086560351
505,"«Швейное объединение Вымпел», Старый Петровско-Разумовский проезд (625)",Савёловский район,Северный административный округ,55.80105082,37.56272232,1900134.7244653325,6410526.182593141
506,"«Ул. Верхн. Масловка», Старый Петровско-Разумовский проезд (626)",район Аэропорт,Северный административный округ,55.79911381,37.55660914,1899835.29646115,6410374.200717582
507,"«Планетная ул.», Петровско-Разумовская аллея (627)",район Аэропорт,Северный административный округ,55.7973023,37.55511922,1899811.9140360279,6410583.688862285
508,"«Метро Динамо», Ленинградский проспект (633)",район Аэропорт,Северный административный округ,55.7903361,37.55617372,1900133.9267643844,6410519.533153894
509,"«Петровско-Разумовская аллея», Петровско-Разумовская аллея (635)",район Аэропорт,Северный административный округ,55.79600106,37.558886,1900088.8398707306,6399754.75137348
510,"«Планетная ул.», Петровско-Разумовская аллея (636)",район Аэропорт,Северный административный округ,55.79772012,37.55425922,1899744.2196670957,6403048.963295853
511,"«Ул. Верхн. Масловка», Старый Петровско-Разумовский проезд (637)",Савёловский район,Северный административный округ,55.79942257,37.55803944,1899910.7078701355,6413410.8525010785
512,"«Швейное объединение Вымпел», Старый Петровско-Разумовский проезд (638)",Савёловский район,Северный административный округ,55.80123862,37.56382951,1900194.989982474,6413485.338456185
513,"«Метро Войковская», Ленинградское шоссе (639)",Войковский район,Северный административный округ,55.81880591,37.49879953,1895597.353713386,6413460.6634453265
514,"«Новослободская ул.», улица Сущёвский Вал (640)",Тверской район,Центральный административный округ,55.79146127,37.59128484,1902224.5435246613,6416227.135733498
515,"«Ул. Двинцев», улица Сущёвский Вал (641)",район Марьина Роща,Северо-Восточный административный округ,55.79240658,37.60088133,1902772.2140281664,6416232.4245168185
516,"«Ул. Сущевский Вал, 46», улица Сущёвский Вал (642)",район Марьина Роща,Северо-Восточный административный округ,55.79275978,37.61224317,1903449.0103621036,6416153.237814278
517,"«Метро Марьина Роща», улица Сущёвский Вал (643)",Мещанский район,Центральный административный округ,55.79277781,37.61745841,1903765.0075131087,6399668.921618134
518,"«Олимпийский просп.», улица Сущёвский Вал (644)",Мещанский район,Центральный административный округ,55.79245674,37.62353968,1904146.1794220277,6408941.790531688
519,"«Бульв. Яна Райниса, 20», бульвар Яна Райниса (647)",район Южное Тушино,Северо-Западный административный округ,55.84965089,37.41647559,1889464.509256857,6401385.025682331
520,"«Туристская ул.», бульвар Яна Райниса (648)",район Северное Тушино,Северо-Западный административный округ,55.84897708,37.42222475,1889838.0636968918,6401188.330977688
521,"«Аэродромная ул.», бульвар Яна Райниса (649)",район Южное Тушино,Северо-Западный административный округ,55.84982611,37.43308739,1890465.7028779986,6401347.988161343
522,"«Метро Сходненская», Химкинский бульвар (650)",район Южное Тушино,Северо-Западный административный округ,55.85074066,37.44177371,1890958.8716162732,6422810.076577468
523,"«Химкинский бульв.», Химкинский бульвар (651)",район Южное Тушино,Северо-Западный административный округ,55.85142154,37.44814109,1891319.968730779,6422774.612538378
524,"«Захарково», улица Свободы (652)",район Южное Тушино,Северо-Западный административный округ,55.85134868,37.45217586,1891567.367456018,6422595.993533197
525,"«Парусный пр.», улица Свободы (653)",район Южное Тушино,Северо-Западный административный округ,55.84662867,37.45378092,1891838.7777204497,6422824.584789436
526,"«Ул. Фабрициуса», улица Свободы (654)",район Южное Тушино,Северо-Западный административный округ,55.84377536,37.45480728,1892006.2593729936,6422787.378645059
527,"«Культурный центр Салют», улица Свободы (655)",район Южное Тушино,Северо-Западный административный округ,55.84034957,37.45461078,1892120.6706476558,6422605.521696915
528,"«Восточный мост», улица Свободы (656)",район Южное Тушино,Северо-Западный административный округ,55.83705137,37.45389394,1892198.7992787752,6415641.616081816
529,"«Метро Динамо», Ленинградский проспект (659)",район Беговой,Северный административный округ,55.78979632,37.55484967,1900073.4983915482,6415685.814778801
530,"«Восточный мост», улица Свободы (663)",район Южное Тушино,Северо-Западный административный округ,55.8371272,37.45431864,1892221.7715859725,6415558.585178996
531,"«Культурный центр Салют», улица Свободы (664)",район Южное Тушино,Северо-Западный административный округ,55.84130663,37.45521153,1892121.8237176852,6415594.852623815
532,"«Ул. Фабрициуса», улица Свободы (665)",район Южное Тушино,Северо-Западный административный округ,55.84531135,37.4546848,1891942.1857255448,6417813.986670023
533,"«Парусный пр.», улица Свободы (666)",район Южное Тушино,Северо-Западный административный округ,55.84798091,37.45372115,1891785.2857051948,6400272.814234928
534,"«Захарково», Химкинский бульвар (667)",район Северное Тушино,Северо-Западный административный округ,55.85194058,37.45047669,1891442.486551697,6400296.594586772
535,"«Химкинский бульв.», Химкинский бульвар (668)",район Северное Тушино,Северо-Западный административный округ,55.85129788,37.44470763,1891116.2827248892,6400268.18970366
536,"«Метро Сходненская», бульвар Яна Райниса (669)",район Северное Тушино,Северо-Западный административный округ,55.85057382,37.43711785,1890682.6231601883,6400508.044005574
537,"«Аэродромная ул.», бульвар Яна Райниса (670)",район Северное Тушино,Северо-Западный административный округ,55.84995573,37.43130505,1890352.8164639827,6400487.840614559
538,"«Бульв. Яна Райниса, 10», бульвар Яна Райниса (671)",район Северное Тушино,Северо-Западный административный округ,55.84941971,37.42668909,1890092.5671979464,6400294.848248254
539,"«Бульв. Яна Райниса, 20», бульвар Яна Райниса (672)",район Северное Тушино,Северо-Западный административный округ,55.85025365,37.41525442,1889368.243769622,6400491.777390089
540,"«Ул. Циолковского», улица Свободы (673)",район Покровское-Стрешнево,Северо-Западный административный округ,55.82903346,37.45259057,1892415.3380171987,6400512.48535138
541,"«Ул. Циолковского», улица Свободы (674)",район Покровское-Стрешнево,Северо-Западный административный округ,55.82905383,37.45309283,1892445.068395425,6398431.926190942
542,"«Ул. Костякова», улица Костякова (681)",Тимирязевский район,Северный административный округ,55.81588433,37.56953021,1899998.3168818448,6398695.11163514
543,"«Префектура САО», улица Дубки (682)",Тимирязевский район,Северный административный округ,55.81697626,37.5663045,1899762.086630767,6398418.534342182
544,"«Парк Дубки», улица Дубки (683)",Тимирязевский район,Северный административный округ,55.81996682,37.5637131,1899494.006293789,6398687.602047986
545,"«Красностуденческий пр.», улица Дубки (684)",Тимирязевский район,Северный административный округ,55.82390172,37.56233809,1899264.7645617197,6414658.111421948
546,"«Пасечная ул.», Тимирязевская улица (685)",Тимирязевский район,Северный административный округ,55.83006259,37.55313647,1898478.239394778,6414899.296497546
547,"«Тимирязевская академия», Тимирязевская улица (686)",Тимирязевский район,Северный административный округ,55.83355397,37.5502233,1898172.1956335262,6416670.136794533
548,"«Университет Печати», улица Прянишникова (687)",Тимирязевский район,Северный административный округ,55.8353774,37.54321293,1897679.4135190349,6416669.832020395
549,"«К/т Байкал», Михалковская улица (688)",район Коптево,Северный административный округ,55.83697925,37.53743801,1897269.807158598,6416666.821140215
550,"«Соболевский пр.», Соболевский проезд (693)",район Коптево,Северный административный округ,55.83808957,37.52825999,1896671.9888162117,6416630.782164103
551,"«3-й Михалковский пер.», 3-й Михалковский переулок (694)",район Коптево,Северный административный округ,55.83632652,37.52565465,1896579.1780423669,6419061.044307589
552,"«Коптевский рынок», Соболевский проезд (695)",район Коптево,Северный административный округ,55.83314257,37.5227999,1896523.7779410444,6419037.254572128
553,"«Коптевская ул.», Соболевский проезд (696)",район Коптево,Северный административный округ,55.83070881,37.52005162,1896447.0564023915,6401151.796971434
554,"«Коптево», Соболевский проезд (697)",район Коптево,Северный административный округ,55.82694973,37.51733713,1896421.3673669798,6395201.288880752
555,"«Новопетровская ул.», Коптевская улица (698)",Войковский район,Северный административный округ,55.82537159,37.51576716,1896384.4542277218,6395270.743191241
556,"«К/т Рассвет», улица Клары Цеткин (699)",Войковский район,Северный административный округ,55.82314845,37.51761444,1896578.759168321,6395275.666677721
557,"«3-й Новоподмосковный пер.», улица Зои и Александра Космодемьянских (701)",Войковский район,Северный административный округ,55.82124738,37.51158542,1896283.1541411541,6395241.003043117
558,"«3-й Новоподмосковный пер.», улица Зои и Александра Космодемьянских (702)",Войковский район,Северный административный округ,55.82098388,37.51105598,1896260.7625367846,6395277.2263273625
559,"«К/т Рассвет», улица Зои и Александра Космодемьянских (703)",Войковский район,Северный административный округ,55.82262955,37.51739336,1896584.530085176,6395205.275172625
560,"«Новопетровская ул.», улица Клары Цеткин (704)",Войковский район,Северный административный округ,55.8254084,37.51607832,1896401.9751877796,6395202.631596156
561,"«Коптево», Соболевский проезд (705)",район Коптево,Северный административный округ,55.82687564,37.51771722,1896447.1709041751,6395271.46733716
562,"«Коптевская ул.», Соболевский проезд (706)",район Коптево,Северный административный округ,55.83040179,37.51995372,1896452.4714173605,6414915.2022081055
563,"«Коптевский рынок», Соболевский проезд (707)",район Коптево,Северный административный округ,55.83330439,37.52330001,1896548.132801727,6416159.807243548
564,"«3-й Михалковский пер.», Соболевский проезд (708)",район Коптево,Северный административный округ,55.83584219,37.52573672,1896602.0748616494,6399504.845498574
565,"«Соболевский пр.», Соболевский проезд (709)",район Коптево,Северный административный округ,55.83849211,37.52895503,1896699.2540539613,6399567.407103775
566,"«К/т Байкал», Михалковская улица (710)",район Коптево,Северный административный округ,55.83664901,37.53768727,1897297.151349832,6399658.778031022
567,"«Университет Печати», улица Прянишникова (711)",Тимирязевский район,Северный административный округ,55.83543422,37.54225999,1897619.5039938774,6392069.206143
568,"«Тимирязевская академия», Тимирязевская улица (712)",Тимирязевский район,Северный административный округ,55.83371416,37.549687,1898133.7296681409,6392068.536700549
569,"«Пасечная ул.», Тимирязевская улица (713)",Тимирязевский район,Северный административный округ,55.82979555,37.55319028,1898491.3952790184,6389490.22332245
570,"«Красностуденческий пр.», улица Дубки (714)",Тимирязевский район,Северный административный округ,55.82339645,37.56232075,1899282.4347782468,6413012.894362794
571,"«Парк Дубки», улица Дубки (715)",Тимирязевский район,Северный административный округ,55.81975081,37.56363513,1899497.2791155085,6410704.71970508
572,"«Префектура САО», улица Дубки (716)",Тимирязевский район,Северный административный округ,55.81716867,37.56578348,1899723.3369606982,6402807.086858977
573,"«Ул. Костякова», улица Костякова (717)",Тимирязевский район,Северный административный округ,55.81510464,37.56987491,1900048.13482414,6402820.360313177
574,"«Дмитровский пр.», улица Костякова (718)",Тимирязевский район,Северный административный округ,55.8091022,37.57446333,1900549.119132258,6403027.724905688
575,"«Международный центр научно-технической информации», улица Куусинена (726)",Хорошёвский район,Северный административный округ,55.79031449,37.51056967,1897364.7701192182,6403040.191001773
576,"«Михалково», Коптевская улица (728)",район Коптево,Северный административный округ,55.83904194,37.52295893,1896315.2008255224,6401069.959013228
577,"«Пр. Черепановых», Коптевская улица (729)",район Коптево,Северный административный округ,55.83981364,37.52458275,1896385.1490893243,6400942.407291987
578,"«Кадетский корпус», улица Маршала Тухачевского (730)",район Хорошёво-Мнёвники,Северо-Западный административный округ,55.78504023,37.46638371,1894875.0707394308,6408631.406208508
579,"«Детский центр», улица Маршала Тухачевского (731)",район Хорошёво-Мнёвники,Северо-Западный административный округ,55.7829872,37.47945069,1895744.771976258,6399309.244830196
580,"«Ин-т Связи», улица Народного Ополчения (732)",район Хорошёво-Мнёвники,Северо-Западный административный округ,55.78605221,37.48315537,1895856.760029819,6399541.046679815
581,"«Ин-т Связи», улица Народного Ополчения (733)",район Хорошёво-Мнёвники,Северо-Западный административный округ,55.78562284,37.48213608,1895810.6772314333,6414665.588026908
582,"«Детский центр», улица Маршала Тухачевского (734)",район Хорошёво-Мнёвники,Северо-Западный административный округ,55.78324567,37.47915281,1895717.1351810156,6414564.3474342795
583,"«Стоматологическая п-ка», бульвар Генерала Карбышева (735)",район Хорошёво-Мнёвники,Северо-Западный административный округ,55.78290291,37.4708585,1895225.794614826,6414573.470096413
584,"«Универмаг», бульвар Генерала Карбышева (736)",район Хорошёво-Мнёвники,Северо-Западный административный округ,55.7805228,37.46963545,1895239.2582783012,6414524.372396513
585,"«Покровское-Глебово», Волоколамское шоссе (737)",район Покровское-Стрешнево,Северо-Западный административный округ,55.81484201,37.46903484,1893936.8732706644,6415844.710509623
586,"«Школа имени Зои и Александра Космодемьянских», улица Зои и Александра Космодемьянских (738)",Войковский район,Северный административный округ,55.82016349,37.50736012,1896066.776161844,6415798.227914012
587,"«Школа имени Зои и Александра Космодемьянских», улица Зои и Александра Космодемьянских (739)",Войковский район,Северный административный округ,55.81991401,37.50692439,1896049.5506102594,6415785.3131423835
588,"«Больница № 67», улица Саляма Адиля (740)",район Хорошёво-Мнёвники,Северо-Западный административный округ,55.77218067,37.46473179,1895248.8508739464,6417187.433086542
589,"«Шлюз № 9», Карамышевская набережная (741)",район Хорошёво-Мнёвники,Северо-Западный административный округ,55.76865079,37.47109984,1895766.0988494104,6392020.91990342
590,"«Карамышевская наб.», Карамышевская набережная (742)",район Хорошёво-Мнёвники,Северо-Западный административный округ,55.7690432,37.47619244,1896061.1909328627,6392062.730685935
591,"«Карамышевская наб., 10», Карамышевская набережная (743)",район Хорошёво-Мнёвники,Северо-Западный административный округ,55.76960181,37.48360303,1896491.0365073173,6392261.016158136
592,"«МЖК Атом», улица Мнёвники (747)",район Хорошёво-Мнёвники,Северо-Западный административный округ,55.7727582,37.49213024,1896892.8280595476,6392302.402522825
593,"«Карамышевская наб., 10», Карамышевская набережная (748)",район Хорошёво-Мнёвники,Северо-Западный административный округ,55.76971848,37.48277866,1896436.6227848157,6392310.542800589
594,"«Карамышевская наб.», Карамышевская набережная (749)",район Хорошёво-Мнёвники,Северо-Западный административный округ,55.76928973,37.47672161,1896084.2631101112,6394129.55084158
595,"«Шлюз № 9», Карамышевская набережная (750)",район Хорошёво-Мнёвники,Северо-Западный административный округ,55.76905902,37.47351584,1895897.9056133556,6395586.297115348
596,"«Просп. Марш. Жукова, 24», проспект Маршала Жукова (752)",район Хорошёво-Мнёвники,Северо-Западный административный округ,55.77559294,37.4826982,1896214.9633408072,6397156.745669317
597,"«Живописная ул. - Храм Живоначальной Троицы», проспект Маршала Жукова (753)",район Хорошёво-Мнёвники,Северо-Западный административный округ,55.77939303,37.45260926,1894246.2143141876,6397207.136598015
598,"«Хорошевский мост», проспект Маршала Жукова (754)",район Хорошёво-Мнёвники,Северо-Западный административный округ,55.7797359,37.44847463,1893982.3047611676,6397498.026353119
599,"«Водная станция Труд», Таманская улица (755)",район Хорошёво-Мнёвники,Северо-Западный административный округ,55.77987788,37.44456492,1893739.4662976104,6397496.053858056
600,"«Серебряный бор», Таманская улица (756)",район Хорошёво-Мнёвники,Северо-Западный административный округ,55.78166113,37.4367245,1893197.2992812018,6398413.346170089
