,index,Unnamed: 0,Name,TypeObject,OperatingCompany,IsNetObject,TypeService,Address,District,AdmArea,Longitude_WGS84,Latitude_WGS84,Xs,Ys
0,11,11,Мультисервис ООО«ВЕТЕР ПЕРЕМЕН»,комплексное предприятие бытового обслуживания,,нет,бытовые услуги,"город Москва, Абрамцевская улица, дом 9, корпус 1",район Лианозово,Северо-Восточный административный округ,37.5723048673721,55.90302486264769,1896935.2054986241,6428052.817669015
1,24,24,Дом быта,комплексное предприятие бытового обслуживания,,нет,бытовые услуги,"город Москва, Авиамоторная улица, дом 28/6",район Лефортово,Юго-Восточный административный округ,37.719955109221694,55.7461956257438,1911725.211707247,6414245.024286884
2,30,30,Дом быта,комплексное предприятие бытового обслуживания,,нет,бытовые услуги,"город Москва, Авиамоторная улица, дом 51",район Лефортово,Юго-Восточный административный округ,37.7210333572432,55.7462499751824,1911788.7191438102,6414273.564569625
3,63,63,Мультисервис,комплексное предприятие бытового обслуживания,,нет,бытовые услуги,"город Москва, Большая Академическая улица, дом 12/18, корпус 1",район Коптево,Северный административный округ,37.52583736494397,55.820697821888096,1897168.4224714716,6418211.4484205535
4,87,87,Мультисервис,комплексное предприятие бытового обслуживания,,нет,бытовые услуги,"город Москва, Алтуфьевское шоссе, дом 87, корпус 3",район Лианозово,Северо-Восточный административный округ,37.58333650940224,55.892593516506814,1897990.2119844663,6427158.708776668
5,93,93,Мультисервис,комплексное предприятие бытового обслуживания,,нет,бытовые услуги,"город Москва, Алтуфьевское шоссе, дом 97",район Лианозово,Северо-Восточный административный округ,37.58589336333057,55.903821940146216,1897728.2353254848,6428422.004136237
6,98,98,Мультисервис,комплексное предприятие бытового обслуживания,,нет,бытовые услуги,"город Москва, улица Амундсена, дом 15, корпус 2",район Свиблово,Северо-Восточный административный округ,37.65440276586866,55.853605777816576,1903744.6094483281,6424442.654136622
7,157,157,ЦЕНТР БЫТОВЫХ УСЛУГ,комплексное предприятие бытового обслуживания,,нет,бытовые услуги,"город Москва, улица Лётчика Бабушкина, дом 6",Бабушкинский район,Северо-Восточный административный округ,37.67431,55.8592,1904742.6823209058,6425462.370603338
8,169,169,ДОМ БЫТА НА БАГРИЦКОГО,комплексное предприятие бытового обслуживания,,нет,бытовые услуги,"город Москва, улица Багрицкого, дом 8",Можайский район,Западный административный округ,37.43621581533827,55.72297894173997,1895326.6931819685,6405810.7468879325
9,174,174,Ремонт одежды и обуви,комплексное предприятие бытового обслуживания,,нет,бытовые услуги,"город Москва, Байкальская улица, дом 31",район Гольяново,Восточный административный округ,37.80833130875743,55.817790200632395,1914413.9319959816,6423819.628406374
10,180,180,"Ремонт обуви, одежды и техники",комплексное предприятие бытового обслуживания,,нет,бытовые услуги,"город Москва, Бакинская улица, дом 2",район Царицыно,Южный административный округ,37.65640925889587,55.62732144146998,1912280.7219792726,6400096.803734693
11,188,188,Дом БЫТА,комплексное предприятие бытового обслуживания,,нет,бытовые услуги,"город Москва, Балаклавский проспект, дом 3",район Чертаново Северное,Южный административный округ,37.612371097087106,55.63975434972,1909133.548136135,6400512.701648159
12,193,193,Дом быта,комплексное предприятие бытового обслуживания,Дом быта.com,да,бытовые услуги,"город Москва, Балтийская улица, дом 6, корпус 1",район Аэропорт,Северный административный округ,37.513859532933296,55.8086987235202,1896885.0734245544,6416668.516715408
13,226,226,Дом быта МиксМастер,комплексное предприятие бытового обслуживания,,нет,бытовые услуги,"город Москва, Беговая улица, дом 11",район Беговой,Северный административный округ,37.5572415815422,55.779672608490806,1900593.6719872702,6414443.651266907
14,342,342,"Парикмахерская, Ремонт одежды",комплексное предприятие бытового обслуживания,,нет,бытовые услуги,"город Москва, улица Вавилова, дом 47, корпус 1",Академический район,Юго-Западный административный округ,37.565500106880634,55.6936458719862,1904280.871398563,6405341.7382430425
15,343,343,Дом Быта,комплексное предприятие бытового обслуживания,,нет,бытовые услуги,"город Москва, улица Вавилова, дом 72/13",Гагаринский район,Юго-Западный административный округ,37.547629324075764,55.68137658803453,1903646.272827973,6403645.338326926
16,394,394,Дом быта,комплексное предприятие бытового обслуживания,,нет,бытовые услуги,"город Москва, Веерная улица, дом 46",район Очаково-Матвеевское,Западный административный округ,37.4882980810234,55.71283495075009,1898871.0420473209,6405799.98767538
17,398,398,"Ремонт телефонов, ключей, часов",комплексное предприятие бытового обслуживания,,нет,бытовые услуги,"город Москва, Вельяминовская улица, дом 6",район Соколиная Гора,Восточный административный округ,37.72293372517599,55.78173274544246,1910580.4444937748,6418136.693540247
18,417,417,Дом быта,комплексное предприятие бытового обслуживания,,нет,бытовые услуги,"город Москва, Верхняя улица, дом 6",район Беговой,Северный административный округ,37.5777980314326,55.7773254476511,1901929.4920958644,6414619.845092472
19,440,440,Бытовые услуги,комплексное предприятие бытового обслуживания,,нет,бытовые услуги,"город Москва, 1-я Владимирская улица, дом 39/12",район Перово,Восточный административный округ,37.78057303195809,55.7493148721132,1915292.483821949,6415858.075311108
20,456,456,Бытовые услуги,комплексное предприятие бытового обслуживания,,нет,бытовые услуги,"город Москва, 3-я Владимирская улица, дом 25, корпус 1",район Перово,Восточный административный округ,37.790615223509505,55.754818122961204,1915696.7293509832,6416662.806761396
21,465,465,Немтинов,комплексное предприятие бытового обслуживания,Немтинов,да,бытовые услуги,"город Москва, 1-й Войковский проезд, дом 4, корпус 1",Войковский район,Северный административный округ,37.497128330201,55.8155018782388,1895617.968827091,6417053.8044571765
22,502,502,Дом Быта ТЭГ АСТЭКО,комплексное предприятие бытового обслуживания,,нет,бытовые услуги,"город Москва, Волоколамское шоссе, дом 14",район Сокол,Северный административный округ,37.493308614115804,55.80967813016831,1895601.1833122172,6416346.492110698
23,526,526,"Ремонт одежды, ателье, металлоремонт",комплексное предприятие бытового обслуживания,,нет,бытовые услуги,"город Москва, улица 800-летия Москвы, дом 11",район Восточное Дегунино,Северный административный округ,37.564601079055294,55.88088935155216,1897289.6483340168,6425506.783348053
24,571,571,Ремонт обуви.Ремонт одежды. Химчистка.ИП Шнурков А.И.,комплексное предприятие бытового обслуживания,,нет,бытовые услуги,"город Москва, улица Героев Панфиловцев, дом 12, корпус 1",район Северное Тушино,Северо-Западный административный округ,37.42962071524384,55.85878432180232,1889925.41979096,6420318.9424904585
25,572,572,Салон красоты Валерия-М,комплексное предприятие бытового обслуживания,,нет,бытовые услуги,"город Москва, улица Героев Панфиловцев, дом 16, корпус 1",район Северное Тушино,Северо-Западный административный округ,37.424047627107036,55.85879007027412,1889587.2412347281,6420204.10474262
26,579,579,Дом быта,комплексное предприятие бытового обслуживания,,нет,бытовые услуги,"город Москва, улица Гиляровского, дом 36, строение 1",Мещанский район,Центральный административный округ,37.6325906318118,55.78261977886029,1905061.2864434218,6416336.483333997
27,603,603,Дом быта,комплексное предприятие бытового обслуживания,,нет,бытовые услуги,"город Москва, Городецкая улица, дом 8, корпус 1",район Новокосино,Восточный административный округ,37.86641685261312,55.73990730681216,1920861.0122572046,6416659.264220129
28,630,630,УЮТ,комплексное предприятие бытового обслуживания,,нет,бытовые услуги,"город Москва, улица Гришина, дом 5",Можайский район,Западный административный округ,37.416676,55.722772,1894144.8245566841,6405382.7333143875
29,675,675,Водолей мультисервис,комплексное предприятие бытового обслуживания,,нет,бытовые услуги,"город Москва, улица Декабристов, дом 10, корпус 3",район Отрадное,Северо-Восточный административный округ,37.59899139404297,55.876081238490315,1899551.4043411687,6425705.986205612
30,711,711,МОСКОВСКИЙ СЕРВИС,комплексное предприятие бытового обслуживания,,нет,бытовые услуги,"город Москва, Дмитровское шоссе, дом 25, корпус 1",Тимирязевский район,Северный административный округ,37.570979856115905,55.8256550368114,1899724.1140066388,6419686.828133052
31,718,718,Мастерcкая типу Мультисервис,комплексное предприятие бытового обслуживания,,нет,бытовые услуги,"город Москва, Дмитровское шоссе, дом 50, корпус 1",Тимирязевский район,Северный административный округ,37.5690593944612,55.8458808260455,1898857.8276735328,6421826.7084912965
32,733,733,Дом быта,комплексное предприятие бытового обслуживания,,нет,бытовые услуги,"город Москва, улица Довженко, дом 6",район Раменки,Западный административный округ,37.514545487019696,55.72202104735244,1900129.6332685042,6407337.460622897
33,759,759,МУЛЬТИСЕРВИС,комплексное предприятие бытового обслуживания,,нет,бытовые услуги,"город Москва, улица Дружбы, дом 10/32",район Раменки,Западный административный округ,37.512512,55.707502,1900542.0746410647,6405729.472638813
34,761,761,Ателье,комплексное предприятие бытового обслуживания,,нет,бытовые услуги,"город Москва, Дубининская улица, дом 11, строение 1",район Замоскворечье,Центральный административный округ,37.63768792335959,55.72762851577253,1907414.2664537837,6410516.392485763
35,826,826,"РЕМОНТ ОБУВИ, одежды",комплексное предприятие бытового обслуживания,,нет,бытовые услуги,"город Москва, проспект Маршала Жукова, дом 16, корпус 1",район Хорошёво-Мнёвники,Северо-Западный административный округ,37.488963268858896,55.7760703540216,1896578.0910775675,6412632.577613445
36,872,872,Бытовые услуги,комплексное предприятие бытового обслуживания,,нет,бытовые услуги,"город Москва, Зелёный проспект, дом 39, корпус 1",район Перово,Восточный административный округ,37.795933,55.753276,1916077.5038477557,6416608.915067192
37,892,892,Мультисервис,комплексное предприятие бытового обслуживания,,нет,бытовые услуги,"город Москва, Ивовая улица, дом 9",район Свиблово,Северо-Восточный административный округ,37.64560135807818,55.86063234493864,1902949.7209748237,6425015.519704168
38,894,894,"Ремонт обуви, ключей",комплексное предприятие бытового обслуживания,,нет,бытовые услуги,"город Москва, Иерусалимский проезд, дом 4",Таганский район,Центральный административный округ,37.67515380941441,55.73252831414971,1909510.7058965932,6411830.576314994
39,903,903,Енот,комплексное предприятие бытового обслуживания,,нет,бытовые услуги,"город Москва, Измайловский бульвар, дом 60/10",район Восточное Измайлово,Восточный административный округ,37.812784495094725,55.79634862191161,1915487.5225642868,6421604.234525495
40,1044,1044,Дом быта,комплексное предприятие бытового обслуживания,,нет,бытовые услуги,"город Москва, Кировоградский проезд, дом 3, корпус 1",район Чертаново Южное,Южный административный округ,37.59681247496809,55.60408622899988,1909505.9512997,6396340.620203561
41,1180,1180,Престиж,комплексное предприятие бытового обслуживания,,нет,бытовые услуги,"город Москва, Красноармейская улица, дом 5",район Аэропорт,Северный административный округ,37.547666095354096,55.797657778642204,1899346.1715006563,6416182.6643014485
42,1190,1190,Дом быта,комплексное предприятие бытового обслуживания,,нет,бытовые услуги,"город Москва, Краснобогатырская улица, дом 31, корпус 2",район Богородское,Восточный административный округ,37.70565182908806,55.80957740319004,1908492.7959702644,6420773.537730938
43,1193,1193,"Ателье, парикмахерская, ремонт обуви",комплексное предприятие бытового обслуживания,,нет,бытовые услуги,"город Москва, Краснобогатырская улица, дом 75, корпус 1",район Богородское,Восточный административный округ,37.706468962295,55.808168154429,1908594.932386164,6420638.865925855
44,1203,1203,Дом быта,комплексное предприятие бытового обслуживания,,нет,бытовые услуги,"город Москва, Красноказарменная улица, дом 12, корпус 2",район Лефортово,Юго-Восточный административный округ,37.701732181173696,55.7559833422872,1910252.8545290453,6414916.518536799
45,1204,1204,Дом быта,комплексное предприятие бытового обслуживания,,нет,бытовые услуги,"город Москва, Краснопролетарская улица, дом 8, строение 1",Тверской район,Центральный административный округ,37.607740098765774,55.777017837816935,1903759.892738157,6415212.604795057
46,1255,1255,РЕМОНТ - М,комплексное предприятие бытового обслуживания,,нет,бытовые услуги,"город Москва, улица Крымский Вал, дом 8",район Якиманка,Центральный административный округ,37.608653900967504,55.7313898297458,1905508.6056756268,6410313.567465985
47,1256,1256,ДЕКОЛАЙТ,комплексное предприятие бытового обслуживания,,нет,бытовые услуги,"город Москва, Кубанская улица, дом 14, строение 1",район Люблино,Юго-Восточный административный округ,37.7423676477483,55.683728331785,1915418.8646673798,6407985.758156104
48,1264,1264,ДОМ БЫТА,комплексное предприятие бытового обслуживания,,нет,бытовые услуги,"город Москва, улица Кулакова, дом 19",район Строгино,Северо-Западный административный округ,37.395919472548705,55.8071633031986,1889779.8675537503,6414054.387024826
49,1316,1316,Дом быта,комплексное предприятие бытового обслуживания,,нет,бытовые услуги,"город Москва, Ленинградский проспект, дом 2",район Беговой,Северный административный округ,37.58272103600321,55.77867411625446,1902178.577838199,6414868.071293128
50,1322,1322,Дом быта MERCI,комплексное предприятие бытового обслуживания,,нет,бытовые услуги,"город Москва, Ленинградский проспект, дом 12",район Беговой,Северный административный округ,37.578783498641165,55.78018806474115,1901883.2549945198,6414948.998831702
51,1352,1352,Комплексное предприятие бытового обслуживания,комплексное предприятие бытового обслуживания,,нет,бытовые услуги,"город Москва, Ленинградский проспект, дом 74, корпус 1",район Аэропорт,Северный административный округ,37.5161233173416,55.805340340356196,1897146.6682209088,6416353.591605889
52,1369,1369,Парикмахерская.Дом быта,комплексное предприятие бытового обслуживания,,нет,бытовые услуги,"город Москва, Ленинградское шоссе, дом 8, корпус 2",Войковский район,Северный административный округ,37.5017902152069,55.81658190935809,1895861.0529170725,6417267.215102137
53,1383,1383,Металлоремонт ремонт кожаных изделий,комплексное предприятие бытового обслуживания,,нет,бытовые услуги,"город Москва, Ленинградское шоссе, дом 128",район Левобережный,Северный административный округ,37.4619856105867,55.8694793353642,1891493.3824888784,6422143.065764599
54,1418,1418,Химчистка №1,комплексное предприятие бытового обслуживания,Химчистка №1,да,бытовые услуги,"город Москва, Ленинский проспект, дом 73/8",Гагаринский район,Юго-Западный административный округ,37.547587924024036,55.68863773702508,1903375.232670853,6404427.4157376
55,1433,1433,Легрина,комплексное предприятие бытового обслуживания,,нет,бытовые услуги,"город Москва, Ленинский проспект, дом 90",Ломоносовский район,Юго-Западный административный округ,37.52480838849168,55.674949686014045,1902493.314829164,6402475.739134338
56,1454,1454,Мультисервис,комплексное предприятие бытового обслуживания,,нет,бытовые услуги,"город Москва, Ленинский проспект, дом 150",район Тропарёво-Никулино,Западный административный округ,37.491526,55.654694,1901212.02517838,6399596.980721657
57,1460,1460,"АТЕЛЬЕ, РЕМОНТ ОБУВИ, МАНИКЮР,ПЕДИКЮР",комплексное предприятие бытового обслуживания,,нет,бытовые услуги,"город Москва, Ленская улица, дом 28",Бабушкинский район,Северо-Восточный административный округ,37.65640351042407,55.86864803612677,1903305.8749014447,6426105.267584469
58,1511,1511,Дом быта,комплексное предприятие бытового обслуживания,,нет,бытовые услуги,"город Москва, Люблинская улица, дом 25/1",район Текстильщики,Юго-Восточный административный округ,37.733467,55.701283,1914222.1806489541,6409689.882728973
59,1532,1532,"Ремонт часов, фото, ксерокс",комплексное предприятие бытового обслуживания,,нет,бытовые услуги,"город Москва, Люсиновская улица, дом 72",Даниловский район,Южный административный округ,37.62184458233975,55.71389845669833,1906960.2025945557,6408704.376663614
60,1601,1601,МАСТЕРСКИЕ СТОЕВА,комплексное предприятие бытового обслуживания,,нет,бытовые услуги,"город Москва, улица Менжинского, дом 9",Бабушкинский район,Северо-Восточный административный округ,37.67395232353434,55.867748842480125,1904402.488156384,6426375.910046113
61,1620,1620,Мультисервис,комплексное предприятие бытового обслуживания,,нет,бытовые услуги,"город Москва, Мещанская улица, дом 8",Мещанский район,Центральный административный округ,37.627740763289204,55.775635888768306,1905026.1882262647,6415482.244687706
62,1623,1623,ДОМ БЫТА,комплексное предприятие бытового обслуживания,,нет,бытовые услуги,"город Москва, улица Миклухо-Маклая, дом 21, корпус 2",Обручевский район,Юго-Западный административный округ,37.50725343999322,55.651250063351,1902298.1229052232,6399553.564279572
63,1625,1625,Саркисов И.А.,комплексное предприятие бытового обслуживания,,нет,бытовые услуги,"город Москва, улица Миклухо-Маклая, дом 53, корпус 1",район Коньково,Юго-Западный административный округ,37.53033289098703,55.64186247725818,1904052.2458004681,6399022.984521968
64,1626,1626,ТАРЬКОВО-2,комплексное предприятие бытового обслуживания,,нет,бытовые услуги,"город Москва, улица Миклухо-Маклая, дом 55",район Коньково,Юго-Западный административный округ,37.534151,55.640932999999904,1904319.4600892537,6399002.514395726
65,1635,1635,Ростовщик,комплексное предприятие бытового обслуживания,,нет,бытовые услуги,"город Москва, Минская улица, дом 15, корпус 1",район Фили-Давыдково,Западный административный округ,37.4805733190606,55.7414246578738,1897346.3476433272,6408722.207516967
66,1638,1638,Дом быта,комплексное предприятие бытового обслуживания,,нет,бытовые услуги,"город Москва, проспект Мира, дом 51, строение 1",Мещанский район,Центральный административный округ,37.6340493188891,55.784052790889696,1905096.6229853246,6416521.4688808685
67,1660,1660,"Салон красоты «Амплуа», пункт приема",комплексное предприятие бытового обслуживания,,нет,бытовые услуги,"город Москва, проспект Мира, дом 110/2",Алексеевский район,Северо-Восточный административный округ,37.638961928422376,55.805410424419875,1904600.998710875,6418926.015391861
68,1666,1666,"Ремонт обуви, металлоремонт",комплексное предприятие бытового обслуживания,,нет,бытовые услуги,"город Москва, проспект Мира, дом 116",Алексеевский район,Северо-Восточный административный округ,37.637983999999996,55.80900177283683,1904408.1271163812,6419292.55901499
69,1670,1670,Мультисервис «Дом Быта»,комплексное предприятие бытового обслуживания,,нет,бытовые услуги,"город Москва, проспект Мира, дом 122",Алексеевский район,Северо-Восточный административный округ,37.63879909190387,55.813187609302055,1904301.961687561,6419760.704381557
70,1685,1685,Дом быта РОДНИК,комплексное предприятие бытового обслуживания,,нет,бытовые услуги,"город Москва, улица Михайлова, дом 43",Рязанский район,Юго-Восточный административный округ,37.78197274151782,55.72281278879542,1916368.673444733,6413032.439744962
71,1691,1691,"Ремонт обуви, металлоремонт",комплексное предприятие бытового обслуживания,,нет,бытовые услуги,"город Москва, Михалковская улица, дом 16/1",район Коптево,Северный административный округ,37.532290245635096,55.83869109136135,1896894.1959853284,6420285.432328247
72,1698,1698,Мультисервис,комплексное предприятие бытового обслуживания,,нет,бытовые услуги,"город Москва, 3-й Михалковский переулок, дом 15",район Коптево,Северный административный округ,37.52639784094451,55.8356117345106,1896650.7065408856,6419830.799601256
73,1699,1699,МУЛЬТИСЕРВИС,комплексное предприятие бытового обслуживания,,нет,бытовые услуги,"город Москва, Мичуринский проспект, дом 10, корпус 1",район Раменки,Западный административный округ,37.508778,55.703887,1900448.1998973938,6405261.803407517
74,1700,1700,МУЛЬТИСЕРВИС,комплексное предприятие бытового обслуживания,,нет,бытовые услуги,"город Москва, Мичуринский проспект, дом 10, корпус 1",район Раменки,Западный административный округ,37.509415326752496,55.7042396261322,1900473.9881302784,6405313.115846619
75,1701,1701,МУЛЬТИСЕРВИС,комплексное предприятие бытового обслуживания,,нет,бытовые услуги,"город Москва, Мичуринский проспект, дом 54, корпус 2",район Раменки,Западный административный округ,37.489411233726045,55.69420662435559,1899625.9597110276,6403814.270018605
76,1744,1744,МУЛЬТИСЕРВИС «СТАРЫЙ МАСТЕР»,комплексное предприятие бытового обслуживания,,нет,бытовые услуги,"город Москва, Мосфильмовская улица, дом 22",район Раменки,Западный административный округ,37.524742,55.721288999999906,1900777.2300381346,6407471.1503706975
77,1819,1819,Дом быта,комплексное предприятие бытового обслуживания,,нет,бытовые услуги,"город Москва, Неманский проезд, дом 9",район Строгино,Северо-Западный административный округ,37.39251576688957,55.810679562110245,1889443.8826742368,6414363.139142508
78,1841,1841,Мультисервис ООО «РУСЬ»,комплексное предприятие бытового обслуживания,,нет,бытовые услуги,"город Москва, Новгородская улица, дом 22",район Лианозово,Северо-Восточный административный округ,37.5808772073813,55.8999633436062,1897567.7840830414,6427901.604610883
79,1843,1843,ДОМ БЫТА И КРАСОТЫ ЕЛЕНА,комплексное предприятие бытового обслуживания,,нет,бытовые услуги,"город Москва, улица Маршала Новикова, дом 4, корпус 1",район Щукино,Северо-Западный административный округ,37.467533434433626,55.8027105772555,1894293.2154353275,6415059.491675112
80,1861,1861,"Ремонт обуви, металлоремонт",комплексное предприятие бытового обслуживания,,нет,бытовые услуги,"город Москва, Новокосинская улица, дом 39",район Новокосино,Восточный административный округ,37.86861453760147,55.74334970176662,1920865.2882810354,6417076.569055359
81,1864,1864,Мультисервис Конта М,комплексное предприятие бытового обслуживания,,нет,бытовые услуги,"город Москва, Новокосинская улица, дом 45",район Новокосино,Восточный административный округ,37.872411569047,55.74351789984055,1921089.658433096,6417175.118600639
82,1873,1873,Дом быта,комплексное предприятие бытового обслуживания,,нет,бытовые услуги,"город Москва, Новокузнецкая улица, дом 13, строение 1",район Замоскворечье,Центральный административный округ,37.63178462973684,55.73741683667837,1906691.642161621,6411447.691476315
83,1886,1886,Мультисервис,комплексное предприятие бытового обслуживания,,нет,бытовые услуги,"город Москва, 3-й Новомихалковский проезд, дом 3",район Коптево,Северный административный округ,37.543070999999905,55.840308999999905,1897488.2053715573,6420684.391204403
84,1902,1902,Ателье «Магистраль Информ»,комплексное предприятие бытового обслуживания,,нет,бытовые услуги,"город Москва, Новорязанская улица, дом 31/7, строение 5",Басманный район,Центральный административный округ,37.671342753035105,55.771436289185296,1907830.9849771657,6415943.561707031
85,1983,1983,ЦЕНТР БЫТОВЫХ УСЛУГ,комплексное предприятие бытового обслуживания,,нет,бытовые услуги,"город Москва, Осташковская улица, дом 7, корпус 1",Бабушкинский район,Северо-Восточный административный округ,37.67952342181554,55.877408486055664,1904379.9507267098,6427533.316054827
86,2007,2007,Дом быта,комплексное предприятие бытового обслуживания,,нет,бытовые услуги,"город Москва, Отрадная улица, дом 5",район Отрадное,Северо-Восточный административный округ,37.6070311940368,55.8583919282737,1900695.535326584,6423967.661769346
87,2048,2048,Дом быта «Марис»,комплексное предприятие бытового обслуживания,,нет,бытовые услуги,"город Москва, 5-я Парковая улица, дом 28",район Измайлово,Восточный административный округ,37.788623447022154,55.79403961555589,1914107.9192831253,6420845.768972166
88,2049,2049,Дом быта «Зенит-Ф»,комплексное предприятие бытового обслуживания,,нет,бытовые услуги,"город Москва, 5-я Парковая улица, дом 52",район Измайлово,Восточный административный округ,37.78900732333614,55.802305254719805,1913821.8096700744,6421744.19787178
89,2053,2053,Парикмахерская ателье ремонт обуви,комплексное предприятие бытового обслуживания,,нет,бытовые услуги,"город Москва, 9-я Парковая улица, дом 6, корпус 1",район Восточное Измайлово,Восточный административный округ,37.80268045043,55.78999429434759,1915112.4449470574,6420706.556262455
90,2066,2066,Парикмахерская ремонт обуви,комплексное предприятие бытового обслуживания,,нет,бытовые услуги,"город Москва, 11-я Парковая улица, дом 8",район Восточное Измайлово,Восточный административный округ,37.80670255665604,55.790060070130686,1915354.0728552318,6420798.523513158
91,2067,2067,Салон красоты багетная мастерская,комплексное предприятие бытового обслуживания,,нет,бытовые услуги,"город Москва, 11-я Парковая улица, дом 14",район Восточное Измайлово,Восточный административный округ,37.80626252219446,55.7924456859279,1915238.0039904825,6421046.193162047
92,2073,2073,Парикмахерская ремонт обуви,комплексное предприятие бытового обслуживания,,нет,бытовые услуги,"город Москва, 15-я Парковая улица, дом 16, корпус 1",район Восточное Измайлово,Восточный административный округ,37.83149262020063,55.800909536821386,1916451.54734584,6422490.535990463
93,2074,2074,Комплексное предприятие бытового обслуживания,комплексное предприятие бытового обслуживания,,нет,бытовые услуги,"город Москва, 15-я Парковая улица, дом 36/63, корпус 2",район Северное Измайлово,Восточный административный округ,37.82052763133624,55.8042820104602,1915659.9312267888,6422622.17283848
94,2076,2076,Дом Быта,комплексное предприятие бытового обслуживания,,нет,бытовые услуги,"город Москва, 15-я Парковая улица, дом 44, корпус 1",район Северное Измайлово,Восточный административный округ,37.8186755732149,55.80702060453546,1915444.925927776,6422878.024124578
95,2091,2091,Дом быта,комплексное предприятие бытового обслуживания,,нет,бытовые услуги,"город Москва, Первомайская улица, дом 9",район Измайлово,Восточный административный округ,37.20637947615664,55.967881251677966,1872403.2650111825,6427487.215722683
96,2096,2096,Мультисервис,комплексное предприятие бытового обслуживания,,нет,бытовые услуги,"город Москва, Первомайская улица, дом 34/16",район Измайлово,Восточный административный округ,37.783751119707325,55.79261100976594,1913865.7069594646,6420589.150346503
97,2103,2103,Дом быта,комплексное предприятие бытового обслуживания,,нет,бытовые услуги,"город Москва, Первомайская улица, дом 51/23",район Измайлово,Восточный административный округ,37.79040210158051,55.79337677253828,1914240.6669426654,6420811.878546136
98,2116,2116,"Металлоремонт, ремонт сумок, обуви, зонтов, ремонт одежды",комплексное предприятие бытового обслуживания,,нет,бытовые услуги,"город Москва, Первомайская улица, дом 99",район Восточное Измайлово,Восточный административный округ,37.80849425582346,55.79361649486712,1915329.5686165118,6421219.403000267
99,2118,2118,Дом быта,комплексное предприятие бытового обслуживания,,нет,бытовые услуги,"город Москва, Первомайская улица, дом 107",район Восточное Измайлово,Восточный административный округ,37.810764902184665,55.79363628287581,1915466.6109705637,6421269.461998317
100,2126,2126,Дом быта,комплексное предприятие бытового обслуживания,,нет,бытовые услуги,"город Москва, Нижняя Первомайская улица, дом 12Б",район Измайлово,Восточный административный округ,37.794573557525815,55.79054211265542,1914599.937774929,6420594.52425007
101,2141,2141,Мультисервис,комплексное предприятие бытового обслуживания,,нет,бытовые услуги,"город Москва, Перовская улица, дом 62",район Новогиреево,Восточный административный округ,37.7940377222129,55.7449757628862,1916272.9884083609,6415674.75946481
102,2151,2151,Весна,комплексное предприятие бытового обслуживания,,нет,бытовые услуги,"город Москва, Петровско-Разумовский проезд, дом 22, корпус 6",Савёловский район,Северный административный округ,37.5668542779755,55.800247286793294,1900415.36994231,6416862.114671208
103,2171,2171,Скортел Консалтинг,комплексное предприятие бытового обслуживания,,нет,бытовые услуги,"город Москва, Большая Пионерская улица, дом 40, строение 1",район Замоскворечье,Центральный административный округ,37.634084681742245,55.72553673532236,1907272.7869872472,6410215.393566402
104,2176,2176,Диана,комплексное предприятие бытового обслуживания,Диана,да,бытовые услуги,"город Москва, Малая Пироговская улица, дом 25",район Хамовники,Центральный административный округ,37.56443675014508,55.72680162021353,1902988.7629230483,6408894.167504572
105,2178,2178,КАМЕЛИЯ +,комплексное предприятие бытового обслуживания,,нет,бытовые услуги,"город Москва, Планерная улица, дом 3, корпус 1",район Северное Тушино,Северо-Западный административный округ,37.43271582511827,55.860020961798405,1890067.5485278869,6420516.412736649
106,2179,2179,Ателье. Ремонт мебели.ИП Шнурков А.И.,комплексное предприятие бытового обслуживания,,нет,бытовые услуги,"город Москва, Планерная улица, дом 3, корпус 2",район Северное Тушино,Северо-Западный административный округ,37.43092407067707,55.859482429483485,1889978.7380785253,6420421.219673508
107,2181,2181,Ремонт одежды. Ателье. Химчистка. Фото на документы (ИП Шнурков А.И.),комплексное предприятие бытового обслуживания,,нет,бытовые услуги,"город Москва, Планерная улица, дом 7, корпус 1",район Северное Тушино,Северо-Западный административный округ,37.4334571016117,55.86337154702535,1889989.0387850725,6420893.035290271
108,2185,2185,Ремонт одежды и обуви. Фото.ИП Шнурков А.И.,комплексное предприятие бытового обслуживания,,нет,бытовые услуги,"город Москва, Планерная улица, дом 12, корпус 1",район Северное Тушино,Северо-Западный административный округ,37.43663661452882,55.86212528939376,1890227.7515439384,6420824.5550348675
109,2187,2187,Дом быта,комплексное предприятие бытового обслуживания,,нет,бытовые услуги,"город Москва, Планетная улица, дом 15",район Аэропорт,Северный административный округ,37.54925396309089,55.7999615002222,1899357.3020865384,6416464.112763737
110,2194,2194,Дежа вю,комплексное предприятие бытового обслуживания,,нет,бытовые услуги,"город Москва, улица Плеханова, дом 18, корпус 4",район Перово,Восточный административный округ,37.76614274845831,55.743550528269296,1914631.097141505,6414932.743905673
111,2199,2199,Бытовые услуги,комплексное предприятие бытового обслуживания,,нет,бытовые услуги,"город Москва, улица Плеханова, дом 28, корпус 5",район Перово,Восточный административный округ,37.76813400000001,55.73985075272711,1914890.400291517,6414576.124895562
112,2209,2209,ФОТОУСЛУГИ ПУНКТ ХИМЧИСТКИ ОПТИКА РЕМОНТ ОБУВИ АТЕЛЬЕ,комплексное предприятие бытового обслуживания,,нет,бытовые услуги,"город Москва, улица Плющиха, дом 33",район Хамовники,Центральный административный округ,37.577600418925606,55.74160321654085,1903241.267777524,6410764.959070848
113,2212,2212,РЭНДЕЙЛ,комплексное предприятие бытового обслуживания,,нет,бытовые услуги,"город Москва, площадь Победы, дом 1, корпус Е",район Дорогомилово,Западный административный округ,37.521973102903296,55.735551279547906,1900081.7023436932,6408951.216133145
114,2217,2217,Дом быта,комплексное предприятие бытового обслуживания,,нет,бытовые услуги,"город Москва, Ивантеевская улица, дом 17, корпус 1",район Богородское,Восточный административный округ,37.729646724216096,55.816736295711046,1909681.301532509,6422048.99161865
115,2225,2225,Дом быта,комплексное предприятие бытового обслуживания,,нет,бытовые услуги,"город Москва, улица Фёдора Полетаева, дом 7",Рязанский район,Юго-Восточный административный округ,37.77759229545831,55.71353823755676,1916449.0374502216,6411940.7620922625
116,2230,2230,Дом быта,комплексное предприятие бытового обслуживания,,нет,бытовые услуги,"город Москва, улица Большая Полянка, дом 28, корпус 2",район Якиманка,Центральный административный округ,37.6185461507851,55.735300054312894,1905965.1565523457,6410942.192802814
117,2255,2255,Мультисервис,комплексное предприятие бытового обслуживания,,нет,бытовые услуги,"город Москва, улица Преображенский Вал, дом 24, корпус 1",район Преображенское,Восточный административный округ,37.71471943722489,55.791894862524494,1909702.623479667,6419058.897860749
118,2256,2256,Мультисервис,комплексное предприятие бытового обслуживания,,нет,бытовые услуги,"город Москва, улица Пресненский Вал, дом 8, корпус 3",Пресненский район,Центральный административный округ,37.5646220197519,55.7647344153,1901595.3597145355,6412987.38763817
119,2293,2293,ДОМ БЫТА,комплексное предприятие бытового обслуживания,,нет,бытовые услуги,"город Москва, Профсоюзная улица, дом 24, корпус 1",Академический район,Юго-Западный административный округ,37.5636359678336,55.679445762634096,1904692.866448896,6403771.705714294
120,2294,2294,СТУДИЯ МАСТЕР,комплексное предприятие бытового обслуживания,,нет,бытовые услуги,"город Москва, Профсоюзная улица, дом 24, корпус 2",Академический район,Юго-Западный административный округ,37.5632068906566,55.6805553261792,1904625.666445372,6403882.369754002
121,2307,2307,Новый День,комплексное предприятие бытового обслуживания,,нет,бытовые услуги,"город Москва, Профсоюзная улица, дом 111, корпус 1",район Коньково,Юго-Западный административный округ,37.52125544600259,55.63204132373456,1903861.1532803287,6397774.2144790925
122,2314,2314,Центр бытовых услуг,комплексное предприятие бытового обслуживания,,нет,бытовые услуги,"город Москва, 2-я Прядильная улица, дом 10",район Измайлово,Восточный административный округ,37.7808213889447,55.795720656641166,1913571.5547433102,6420862.355079579
123,2326,2326,Бытовые услуги,комплексное предприятие бытового обслуживания,,нет,бытовые услуги,"город Москва, улица Пырьева, дом 8",район Раменки,Западный административный округ,37.5255700574942,55.72470354965951,1900701.4367646403,6407856.592636308
124,2350,2350,Мультисервис,комплексное предприятие бытового обслуживания,,нет,бытовые услуги,"город Москва, бульвар Яна Райниса, дом 1",район Южное Тушино,Северо-Западный административный округ,37.43603792057729,55.84985305058591,1890643.6789746287,6419488.942804612
125,2361,2361,АВАРА,комплексное предприятие бытового обслуживания,,нет,бытовые услуги,"город Москва, бульвар Яна Райниса, дом 30, корпус 1",район Северное Тушино,Северо-Западный административный округ,37.42115655601655,55.848775176190884,1889780.701123774,6419064.351000731
126,2366,2366,МУЛЬТИСЕРВИС,комплексное предприятие бытового обслуживания,,нет,бытовые услуги,"город Москва, улица Раменки, дом 9, корпус 4",район Раменки,Западный административный округ,37.4942268943898,55.6902588331003,1900064.92795073,6403488.865226338
127,2371,2371,Эд Марко,комплексное предприятие бытового обслуживания,,нет,бытовые услуги,"город Москва, улица Расковой, дом 8",район Беговой,Северный административный округ,37.57058369053413,55.78585152548752,1901175.273942007,6415388.224393583
128,2380,2380,Мультисервис,комплексное предприятие бытового обслуживания,,нет,бытовые услуги,"город Москва, Рижский проезд, дом 1/5",Алексеевский район,Северо-Восточный административный округ,37.65795106536128,55.811193608146255,1905538.2716261046,6419946.9853762025
129,2397,2397,Варда-Роза,комплексное предприятие бытового обслуживания,,нет,бытовые услуги,"город Москва, улица Петра Романова, дом 6",Южнопортовый район,Юго-Восточный административный округ,37.6807304845856,55.708253335412195,1910753.3401851559,6409331.5283111315
130,2447,2447,Бытовые услуги,комплексное предприятие бытового обслуживания,,нет,бытовые услуги,"город Москва, улица Генерала Рычагова, дом 15",район Коптево,Северный административный округ,37.53828634391316,55.8421561485604,1897129.62407626,6420783.818163215
131,2468,2468,АННОН,комплексное предприятие бытового обслуживания,,нет,бытовые услуги,"город Москва, улица Сайкина, дом 15/7",Южнопортовый район,Юго-Восточный административный округ,37.66892876492191,55.706167857627904,1910112.74729167,6408858.840597956
132,2469,2469,Мультисервис,комплексное предприятие бытового обслуживания,,нет,бытовые услуги,"город Москва, Салтыковская улица, дом 41",район Новокосино,Восточный административный округ,37.878510752901086,55.742583109887754,1921495.320520278,6417203.674108843
133,2478,2478,Галла-вик,комплексное предприятие бытового обслуживания,,нет,бытовые услуги,"город Москва, Саратовская улица, дом 6/2",район Текстильщики,Юго-Восточный административный округ,37.733271,55.713668,1913748.228294371,6411020.331175485
134,2480,2480,Дом быта,комплексное предприятие бытового обслуживания,,нет,бытовые услуги,"город Москва, Светлогорский проезд, дом 1",район Южное Тушино,Северо-Западный административный округ,37.4032840118699,55.8432658953412,1888899.195917464,6418100.185652095
135,2531,2531,Ремонт,комплексное предприятие бытового обслуживания,,нет,бытовые услуги,"город Москва, Большая Семёновская улица, дом 21",район Соколиная Гора,Восточный административный округ,37.70683524044623,55.78257965010522,1909571.3811461132,6417889.550398171
136,2541,2541,Мультисервис,комплексное предприятие бытового обслуживания,,нет,бытовые услуги,"город Москва, Малая Тульская улица, дом 2/1, корпус 4",Даниловский район,Южный административный округ,37.619089848324414,55.7107117029177,1906910.834674213,6408303.141744675
137,2547,2547,СЕНЗАР,комплексное предприятие бытового обслуживания,,нет,бытовые услуги,"город Москва, Сеславинская улица, дом 18",район Филёвский Парк,Западный административный округ,37.49450321899218,55.744024318096656,1898097.7713119104,6409292.478663778
138,2574,2574,Комплексное предприятие бытового обслуживания,комплексное предприятие бытового обслуживания,,нет,бытовые услуги,"город Москва, Сиреневый бульвар, дом 69, корпус 1",район Северное Измайлово,Восточный административный округ,37.82468421863815,55.803624363176716,1915936.727331216,6422639.11519907
139,2614,2614,Мультисервис,комплексное предприятие бытового обслуживания,,нет,бытовые услуги,"город Москва, Снежная улица, дом 21/1",район Свиблово,Северо-Восточный административный округ,37.650823402518796,55.85485933158546,1903481.01809646,6424502.785712007
140,2618,2618,Мультисервис,комплексное предприятие бытового обслуживания,,нет,бытовые услуги,"город Москва, Снежная улица, дом 25",район Свиблово,Северо-Восточный административный округ,37.652145937949285,55.85547889524327,1903538.1127055755,6424597.228392389
141,2619,2619,Мультисервис,комплексное предприятие бытового обслуживания,,нет,бытовые услуги,"город Москва, Снежная улица, дом 27, корпус 1",район Свиблово,Северо-Восточный административный округ,37.65245652124781,55.856190876640014,1903530.4360342862,6424680.444411422
142,2627,2627,Мультисервис,комплексное предприятие бытового обслуживания,,нет,бытовые услуги,"город Москва, Совхозная улица, дом 8",район Люблино,Юго-Восточный административный округ,37.74728889471936,55.67059577136284,1916208.560637789,6406674.338835826
143,2663,2663,Мультисервис,комплексное предприятие бытового обслуживания,,нет,бытовые услуги,"город Москва, улица Сретенка, дом 21/28, строение 1",Мещанский район,Центральный административный округ,37.632047511774175,55.77043301864323,1905481.1203148437,6415011.689403158
144,2680,2680,"Ремонт обуви, ателье, фото, мастерская",комплексное предприятие бытового обслуживания,,нет,бытовые услуги,"город Москва, проезд Стратонавтов, дом 9",район Покровское-Стрешнево,Северо-Западный административный округ,37.4362977270808,55.8263889992684,1891523.9464317432,6416964.309655411
145,2695,2695,ЦЕНТР БЫТОВЫХ УСЛУГ,комплексное предприятие бытового обслуживания,,нет,бытовые услуги,"город Москва, Строгинский бульвар, дом 5",район Строгино,Северо-Западный административный округ,37.3990127073355,55.805295117780304,1890036.4309334191,6413916.960084599
146,2701,2701,Ателье,комплексное предприятие бытового обслуживания,,нет,бытовые услуги,"город Москва, Строгинский бульвар, дом 26, корпус 1",район Строгино,Северо-Западный административный округ,37.402546,55.802576,1890351.033125055,6413696.89070259
147,2709,2709,Дом быта Люкс,комплексное предприятие бытового обслуживания,,нет,бытовые услуги,"город Москва, улица Стромынка, дом 16",район Сокольники,Восточный административный округ,37.69294450053046,55.79327634010307,1908329.3183504697,6418750.343352845
148,2717,2717,ШЕСТОПАЛОВА,комплексное предприятие бытового обслуживания,,нет,бытовые услуги,"город Москва, улица Судакова, дом 22/10",район Люблино,Юго-Восточный административный округ,37.7535792814311,55.6729544778242,1916503.6148613603,6407061.192931823
149,2719,2719,Мультисервис,комплексное предприятие бытового обслуживания,,нет,бытовые услуги,"город Москва, Судостроительная улица, дом 21/11",район Нагатинский Затон,Южный административный округ,37.6767354562233,55.6818433552804,1911492.7987497747,6406401.1232452085
150,2750,2750,Мультисервис,комплексное предприятие бытового обслуживания,,нет,бытовые услуги,"город Москва, Сходненская улица, дом 25",район Южное Тушино,Северо-Западный административный округ,37.438635148133535,55.84552392392897,1890960.7501384437,6419076.007909446
151,2754,2754,Мультисервис,комплексное предприятие бытового обслуживания,,нет,бытовые услуги,"город Москва, Сходненская улица, дом 37",район Южное Тушино,Северо-Западный административный округ,37.43892400884151,55.849695932611965,1890824.5273830711,6419531.8313895
152,2763,2763,"Ремонт ключей, часов",комплексное предприятие бытового обслуживания,,нет,бытовые услуги,"город Москва, Сходненская улица, дом 50",район Южное Тушино,Северо-Западный административный округ,37.4406450157813,55.8478447758117,1890997.140879175,6419367.918250734
153,2801,2801,Дом быта,комплексное предприятие бытового обслуживания,,нет,бытовые услуги,"город Москва, улица Твардовского, дом 11",район Строгино,Северо-Западный административный округ,37.39706336082144,55.79479493158622,1890304.05356579,6412744.16971896
154,2861,2861,Кристина,комплексное предприятие бытового обслуживания,,нет,бытовые услуги,"город Москва, улица Трофимова, дом 35/20",Южнопортовый район,Юго-Восточный административный округ,37.685059569937906,55.7047774772677,1911146.1487070262,6409047.8941331925
155,2864,2864,Мультисервис,комплексное предприятие бытового обслуживания,,нет,бытовые услуги,"город Москва, Трубная улица, дом 25, строение 1",Мещанский район,Центральный административный округ,37.62483555643655,55.771525615201696,1905002.3760635369,6414978.422812431
156,2865,2865,Фабрика Котовского,комплексное предприятие бытового обслуживания,,нет,бытовые услуги,"город Москва, улица Сергия Радонежского, дом 8",Таганский район,Центральный административный округ,37.6755699144426,55.7465700314454,1909013.405297291,6413352.575971029
157,2884,2884,Дом Быта Мультисервис,комплексное предприятие бытового обслуживания,,нет,бытовые услуги,"город Москва, Илимская улица, дом 8/2",район Лианозово,Северо-Восточный административный округ,37.580297850232895,55.890711155789695,1897876.057361391,6426892.490976838
158,2922,2922,Дом Быта,комплексное предприятие бытового обслуживания,,нет,бытовые услуги,"город Москва, улица Дмитрия Ульянова, дом 24",Академический район,Юго-Западный административный округ,37.57404830322871,55.68707603076351,1905044.697084689,6404812.150503812
159,2934,2934,Центр бытовых услуг,комплексное предприятие бытового обслуживания,,нет,бытовые услуги,"город Москва, Университетский проспект, дом 4",Гагаринский район,Юго-Западный административный округ,37.554301880462205,55.696790899825906,1903482.556416176,6405446.787030715
160,2937,2937,РОНИКС СЕРВИС,комплексное предприятие бытового обслуживания,,нет,бытовые услуги,"город Москва, Университетский проспект, дом 9",Гагаринский район,Юго-Западный административный округ,37.548685334785205,55.6963222952026,1903157.865705993,6405278.921596701
161,2938,2938,МУЛЬТИСЕРВИС,комплексное предприятие бытового обслуживания,,нет,бытовые услуги,"город Москва, Университетский проспект, дом 21, корпус 1",район Раменки,Западный административный округ,37.5208708273006,55.7142733946023,1900800.832585323,6406633.942667538
162,2942,2942,Дом быта,комплексное предприятие бытового обслуживания,,нет,бытовые услуги,"город Москва, Уральская улица, дом 1",район Гольяново,Восточный административный округ,37.7977820859979,55.8115172505649,1914009.1672010275,6422921.469841175
163,2977,2977,Парикмахерская,комплексное предприятие бытового обслуживания,,нет,бытовые услуги,"город Москва, Уссурийская улица, дом 5",район Гольяново,Восточный административный округ,37.812495000000006,55.825004777508155,1914396.0039909603,6424684.498913462
164,2999,2999,Парикмахерская,комплексное предприятие бытового обслуживания,,нет,бытовые услуги,"город Москва, Федеративный проспект, дом 3",район Перово,Восточный административный округ,37.7982756124582,55.757474530748496,1916062.6568866398,6417110.644085187
165,3008,3008,Комплексное предприятие бытового обслуживания,комплексное предприятие бытового обслуживания,,нет,бытовые услуги,"город Москва, Федоскинская улица, дом 1",Ярославский район,Северо-Восточный административный округ,37.70326903225299,55.867510888911845,1906187.287580631,6426964.915119306
166,3070,3070,Мультисервис,комплексное предприятие бытового обслуживания,,нет,бытовые услуги,"город Москва, Халтуринская улица, дом 13",район Преображенское,Восточный административный округ,37.7260598159396,55.8024490046425,1909997.062198529,6420434.367999768
167,3082,3082,Ремонт Обуви Одежды Металлоремонт,комплексное предприятие бытового обслуживания,,нет,бытовые услуги,"город Москва, улица Хачатуряна, дом 7",район Отрадное,Северо-Восточный административный округ,37.592692976364056,55.85822207704122,1899832.7974509932,6423649.927029577
168,3094,3094,Мультисервис,комплексное предприятие бытового обслуживания,,нет,бытовые услуги,"город Москва, 2-й Хвостов переулок, дом 10, корпус 1",район Якиманка,Центральный административный округ,37.6155528055243,55.7356685241041,1905769.4341580968,6410919.2241199985
169,3097,3097,Мультисервис,комплексное предприятие бытового обслуживания,,нет,бытовые услуги,"город Москва, Химкинский бульвар, дом 13",район Южное Тушино,Северо-Западный административный округ,37.4474641309809,55.850045778978,1891329.6311377727,6419746.637386197
170,3111,3111,Комплексный приемный пункт,комплексное предприятие бытового обслуживания,,нет,бытовые услуги,"город Москва, переулок Хользунова, дом 10",район Хамовники,Центральный административный округ,37.57939908258773,55.72988877066547,1903784.6990038224,6409539.707541946
171,3113,3113,Ваш мастер салон бытовых услуг,комплексное предприятие бытового обслуживания,,нет,бытовые услуги,"город Москва, 1-й Хорошёвский проезд, дом 6",Хорошёвский район,Северный административный округ,37.548469,55.776588,1900174.8800301158,6413928.08346648
172,3115,3115,Бытовые услуги,комплексное предприятие бытового обслуживания,,нет,бытовые услуги,"город Москва, 1-й Хорошёвский проезд, дом 14, корпус 1",Хорошёвский район,Северный административный округ,37.5492625211486,55.7769320339659,1900210.3596568056,6413981.725753065
173,3152,3152,Мультисервис ДАЙДЖИ,комплексное предприятие бытового обслуживания,,нет,бытовые услуги,"город Москва, Череповецкая улица, дом 9/17",район Лианозово,Северо-Восточный административный округ,37.579085491757105,55.8988685964229,1897499.9337007743,6427746.275854923
174,3155,3155,Мультисервис ООО «РЕВЕС-НОРД»,комплексное предприятие бытового обслуживания,,нет,бытовые услуги,"город Москва, Череповецкая улица, дом 16",район Лианозово,Северо-Восточный административный округ,37.577594183547504,55.897858033139,1897447.140653615,6427606.283382528
175,3162,3162,Мультисервис,комплексное предприятие бытового обслуживания,,нет,бытовые услуги,"город Москва, Большая Черкизовская улица, дом 5, корпус 3",район Преображенское,Восточный административный округ,37.7199765668934,55.7980105825383,1909793.5390602262,6419828.303886394
176,3172,3172,Мультисервис,комплексное предприятие бытового обслуживания,,нет,бытовые услуги,"город Москва, Большая Черкизовская улица, дом 26, корпус 5",район Преображенское,Восточный административный округ,37.73778643475271,55.79781759618751,1910881.6012342242,6420182.022365752
177,3176,3176,"Ремонт обуви, одежды",комплексное предприятие бытового обслуживания,,нет,бытовые услуги,"город Москва, Хабаровская улица, дом 7/50",район Гольяново,Восточный административный округ,37.826216020551676,55.81707037036069,1915525.4136318362,6424119.5886136675
178,3186,3186,Мультисервис,комплексное предприятие бытового обслуживания,,нет,бытовые услуги,"город Москва, Хабаровская улица, дом 12/23",район Гольяново,Восточный административный округ,37.8268101955552,55.821658545912996,1915389.364050449,6424626.26573288
179,3200,3200,Мастерская «Старый мастер»,комплексное предприятие бытового обслуживания,,нет,бытовые услуги,"город Москва, улица Покровка, дом 45, строение 6",Басманный район,Центральный административный округ,37.652336,55.76345975957898,1906973.0158232732,6414685.309484662
180,3206,3206,"Ремонт ювелирных изделий, металлоремонт, фото",комплексное предприятие бытового обслуживания,,нет,бытовые услуги,"город Москва, улица Черняховского, дом 6",район Аэропорт,Северный административный округ,37.535263559870096,55.80375450397769,1898367.447353593,6416581.331656357
181,3207,3207,"Ремонт обуви, ателье",комплексное предприятие бытового обслуживания,,нет,бытовые услуги,"город Москва, улица Черняховского, дом 6",район Аэропорт,Северный административный округ,37.535346995515006,55.80414681082535,1898357.9974325157,6416625.361255945
182,3225,3225,Фотостудия «Гарда»,комплексное предприятие бытового обслуживания,,нет,бытовые услуги,"город Москва, улица Макаренко, дом 1/19",Басманный район,Центральный административный округ,37.64601197109911,55.7610151202741,1906679.6297038968,6414289.270581813
183,3226,3226,Либрофф,комплексное предприятие бытового обслуживания,,нет,бытовые услуги,"город Москва, Чистопрудный бульвар, дом 19, строение 1",Басманный район,Центральный административный округ,37.64628200000001,55.761886759122014,1906663.63498821,6414388.870170742
184,3234,3234,Дом быта,комплексное предприятие бытового обслуживания,,нет,бытовые услуги,"город Москва, улица Земляной Вал, дом 18-22, строение 1",Басманный район,Центральный административный округ,37.657116,55.75939,1907414.829064541,6414346.942536628
185,3268,3268,Дом Быта,комплексное предприятие бытового обслуживания,,нет,бытовые услуги,"город Москва, улица Шаболовка, дом 38",Донской район,Южный административный округ,37.607455604685406,55.71723986647991,1905960.6286584325,6408763.171749042
186,3272,3272,Шанс,комплексное предприятие бытового обслуживания,,нет,бытовые услуги,"город Москва, Шарикоподшипниковская улица, дом 32",Южнопортовый район,Юго-Восточный административный округ,37.676589153868704,55.716143896773296,1910207.725358167,6410094.927459641
187,3273,3273,Реджига,комплексное предприятие бытового обслуживания,,нет,бытовые услуги,"город Москва, Шарикоподшипниковская улица, дом 32",Южнопортовый район,Юго-Восточный административный округ,37.67629411087551,55.7163040486934,1910183.815955128,6410105.990223956
188,3315,3315,ДОМ БЫТА,комплексное предприятие бытового обслуживания,,нет,бытовые услуги,"город Москва, Шмитовский проезд, дом 13",Пресненский район,Центральный административный округ,37.550522961068324,55.757946619333566,1900989.6724773413,6411961.311070315
189,3352,3352,"Салон красоты, ремонт обуви",комплексное предприятие бытового обслуживания,,нет,бытовые услуги,"город Москва, Щёлковское шоссе, дом 45",район Гольяново,Восточный административный округ,37.787043751681,55.8103402712272,1913401.9122194976,6422568.27952756
190,3361,3361,Мультисервис,комплексное предприятие бытового обслуживания,,нет,бытовые услуги,"город Москва, улица Щепкина, дом 64, строение 1",Мещанский район,Центральный административный округ,37.62978997097569,55.7869967690086,1904728.5617037304,6416749.560839882
191,3362,3362,Дом быта,комплексное предприятие бытового обслуживания,,нет,бытовые услуги,"город Москва, Щербаковская улица, дом 7",район Соколиная Гора,Восточный административный округ,37.72608571175699,55.78281953825536,1910731.265892753,6418320.070379125
192,3383,3383,Комплексоное предприятие бытовых услуг,комплексное предприятие бытового обслуживания,,нет,бытовые услуги,"город Москва, Югорский проезд, дом 16/13",Ярославский район,Северо-Восточный административный округ,37.71251,55.87982279355968,1906287.4632571256,6428485.091950605
193,3425,3425,Комплексное предпритие бытовых услуг,комплексное предприятие бытового обслуживания,,нет,бытовые услуги,"город Москва, Ярославское шоссе, дом 114, корпус 1",Ярославский район,Северо-Восточный административный округ,37.70750576651749,55.86628674078719,1906489.6068236271,6426921.937045657
194,3426,3426,Бытовые услуги,комплексное предприятие бытового обслуживания,,нет,бытовые услуги,"город Москва, Ярославское шоссе, дом 117",Ярославский район,Северо-Восточный административный округ,37.71258194348617,55.872777373461375,1906554.8217755924,6427727.6595837185
195,3428,3428,Дом быта,комплексное предприятие бытового обслуживания,,нет,бытовые услуги,"город Москва, Ярославское шоссе, дом 140",Ярославский район,Северо-Восточный административный округ,37.71796920121729,55.87493896467967,1906800.3828677826,6428073.581675717
196,3477,3477,Мультисервис,комплексное предприятие бытового обслуживания,,нет,бытовые услуги,"город Москва, город Зеленоград, корпус 1204",район Силино,Зеленоградский административный округ,37.190385,55.995009,1870446.1437273347,6430086.300169682
197,3503,3503,Фирма ШЕСТАКОВОЙ,комплексное предприятие бытового обслуживания,,нет,бытовые услуги,"город Москва, Старокачаловская улица, дом 3, корпус 3",район Северное Бутово,Юго-Западный административный округ,37.581915752487234,55.56901845061368,1909894.1993480888,6392246.695342341
198,3528,3528,Дом быта,комплексное предприятие бытового обслуживания,,нет,бытовые услуги,"город Москва, улица Римского-Корсакова, дом 14",район Отрадное,Северо-Восточный административный округ,37.60457460817471,55.873196825067104,1899996.772741236,6425511.737962102
199,3530,3530,Химчистка №1,комплексное предприятие бытового обслуживания,Химчистка №1,да,бытовые услуги,"город Москва, улица Земляной Вал, дом 10",Басманный район,Центральный административный округ,37.6569017396984,55.7619296462089,1907307.3503780374,6414616.146632227
200,3537,3537,ЛИЛАНА,комплексное предприятие бытового обслуживания,,нет,бытовые услуги,"город Москва, 2-я Вольская улица, дом 20",район Некрасовка,Юго-Восточный административный округ,37.92058591841212,55.68614848291416,1926174.914643667,6412018.635649151
201,3539,3539,"Ремонт обуви, пошив одежды, металлоремонт",комплексное предприятие бытового обслуживания,,нет,бытовые услуги,"город Москва, улица 800-летия Москвы, дом 32",район Восточное Дегунино,Северный административный округ,37.56554360733551,55.879393975051286,1897402.1930574959,6425365.2698050635
202,3546,3546,БАГДАСАРЯН Э.А.,комплексное предприятие бытового обслуживания,,нет,бытовые услуги,"город Москва, бульвар Дмитрия Донского, дом 15",район Северное Бутово,Юго-Западный административный округ,37.5744349455454,55.56443426544786,1909606.5995604368,6391595.503094207
203,3551,3551,"Ремонт одежды, обуви",комплексное предприятие бытового обслуживания,,нет,бытовые услуги,"город Москва, Керамический проезд, дом 51, корпус 2",район Восточное Дегунино,Северный административный округ,37.56434228727673,55.87536413049784,1897478.8283018998,6424905.926998204
204,3555,3555,Срочный ремонт,комплексное предприятие бытового обслуживания,,нет,бытовые услуги,"город Москва, Лукинская улица, дом 9",район Ново-Переделкино,Западный административный округ,37.338313,55.643678,1892270.3657939318,6395225.436264713
205,3564,3564,Дом быта,комплексное предприятие бытового обслуживания,,нет,бытовые услуги,"город Москва, улица Скульптора Мухиной, дом 10",район Ново-Переделкино,Западный административный округ,37.343106214646326,55.6406255056195,1892674.6469082169,6394995.3049303815
206,3568,3568,Дом быта,комплексное предприятие бытового обслуживания,,нет,бытовые услуги,"город Москва, Новогиреевская улица, дом 29, корпус 1",район Перово,Восточный административный округ,37.79774682450723,55.75514186255884,1916117.8541273247,6416848.200290318
207,3576,3576,ФИРМА ЮЛ МИ,комплексное предприятие бытового обслуживания,,нет,бытовые услуги,"город Москва, Ратная улица, дом 16, корпус 2",район Северное Бутово,Юго-Западный административный округ,37.57194386740015,55.57700302267081,1908989.5438113585,6392898.800600613
208,3599,3599,ДОМ БЫТА,комплексное предприятие бытового обслуживания,,нет,бытовые услуги,"город Москва, Пятницкое шоссе, дом 27, корпус 1",район Митино,Северо-Западный административный округ,37.3626955972734,55.8485611434034,1886241.9462675,6417831.89575961
209,3600,3600,ДОМ БЫТА,комплексное предприятие бытового обслуживания,,нет,бытовые услуги,"город Москва, набережная Новикова-Прибоя, дом 3, корпус 2",район Хорошёво-Мнёвники,Северо-Западный административный округ,37.4479597136582,55.783203691355,1893823.2441988413,6412549.551107454
210,3612,3612,Мультисервис,комплексное предприятие бытового обслуживания,,нет,бытовые услуги,"город Москва, Перовская улица, дом 50, корпус 1",район Новогиреево,Восточный административный округ,37.78555121288969,55.7455192708504,1915736.9533975048,6415554.202870889
211,3628,3628,ФИРМА «ТЭСТИ»,комплексное предприятие бытового обслуживания,,нет,бытовые услуги,"город Москва, бульвар Дмитрия Донского, дом 2, корпус 1",район Северное Бутово,Юго-Западный административный округ,37.57423032838586,55.56663446659945,1909512.7233406585,6391828.501085702
212,3631,3631,Предпиятие бытового обслуживания,комплексное предприятие бытового обслуживания,,нет,бытовые услуги,"город Москва, Кантемировская улица, дом 3, корпус 3",район Царицыно,Южный административный округ,37.67869414948455,55.63624461736984,1913308.1128938557,6401527.270392773
213,3635,3635,Мультисервис«Амелича»,комплексное предприятие бытового обслуживания,,нет,бытовые услуги,"город Москва, Кантемировская улица, дом 29, корпус 1",район Царицыно,Южный административный округ,37.667745853297895,55.637057307570636,1912610.326813297,6401384.638159207
214,3737,3737,Мультисервис,комплексное предприятие бытового обслуживания,,нет,бытовые услуги,"город Москва, Лермонтовский проспект, дом 12",район Выхино-Жулебино,Юго-Восточный административный округ,37.854676,55.699071,1921679.6670717932,6412012.055117013
215,3782,3782,МУЛЬТИСЕРВИС,комплексное предприятие бытового обслуживания,,нет,бытовые услуги,"город Москва, Мичуринский проспект, дом 25, корпус 3",район Раменки,Западный административный округ,37.5032544557385,55.6954504952798,1900423.2477283971,6404236.891409452
216,3798,3798,Дом Быта,комплексное предприятие бытового обслуживания,,нет,бытовые услуги,"город Москва, улица Мусоргского, дом 5, корпус 1",район Отрадное,Северо-Восточный административный округ,37.6205964081755,55.862728698710704,1901356.505945197,6424718.448294047
217,3826,3826,ТОРГОВЫЙ ДОМ ЭЛВИС,комплексное предприятие бытового обслуживания,,нет,бытовые услуги,"город Москва, 9-я Северная линия, дом 13",район Северный,Северо-Восточный административный округ,37.5518342471682,55.936556426540996,1894452.875035297,6431239.923932496
218,3836,3836,Мультисервис,комплексное предприятие бытового обслуживания,,нет,бытовые услуги,"город Москва, Хабаровская улица, дом 10/30",район Гольяново,Восточный административный округ,37.82818603289245,55.81989889485536,1915538.7800407144,6424465.809690889
219,3847,3847,Мультисервис,комплексное предприятие бытового обслуживания,,нет,бытовые услуги,"город Москва, Сокольническая площадь, дом 4, корпус 1-2",район Сокольники,Восточный административный округ,37.677721046072094,55.78906285030791,1907562.0876564344,6417976.810390362
220,3864,3864,Бытовые услуги,комплексное предприятие бытового обслуживания,,нет,бытовые услуги,"город Москва, 1-я Владимирская улица, дом 34, корпус 2",район Перово,Восточный административный округ,37.77989428204557,55.748685499620365,1915274.7800073184,6415775.954624602
221,3954,3954,ВЕДА,комплексное предприятие бытового обслуживания,,нет,бытовые услуги,"город Москва, Южнопортовая улица, дом 18",Южнопортовый район,Юго-Восточный административный округ,37.6847645269463,55.706107407336496,1911078.6913184891,6409185.0256987335
222,4020,4020,Комплекс бытовых услуг,комплексное предприятие бытового обслуживания,,нет,бытовые услуги,"город Москва, улица Академика Варги, дом 1",район Тёплый Стан,Юго-Западный административный округ,37.4833628164357,55.6319916088174,1901550.9514267852,6396978.185136872
223,4052,4052,Город красоты,комплексное предприятие бытового обслуживания,Город красоты,да,бытовые услуги,"город Москва, Профсоюзная улица, дом 91",район Коньково,Юго-Западный административный округ,37.52708478332468,55.641147179435386,1903880.5476533312,6398877.996795513
224,4075,4075,Дом быта,комплексное предприятие бытового обслуживания,,нет,бытовые услуги,"город Москва, Южнобутовская улица, дом 80",район Южное Бутово,Юго-Западный административный округ,37.51763071880951,55.534469955820896,1907239.6970844257,6387174.275725617
225,4085,4085,Дом быта,комплексное предприятие бытового обслуживания,,нет,бытовые услуги,"город Москва, улица Адмирала Лазарева, дом 68",район Южное Бутово,Юго-Западный административный округ,37.50734176502911,55.53848305164,1906462.3014327246,6387392.072194459
226,4091,4091,Дом быта,комплексное предприятие бытового обслуживания,,нет,бытовые услуги,"город Москва, улица Адмирала Лазарева, дом 62",район Южное Бутово,Юго-Западный административный округ,37.509798668486596,55.54006753494151,1906554.1892507363,6387614.356814755
227,4097,4097,Бытовые услуги,комплексное предприятие бытового обслуживания,,нет,бытовые услуги,"город Москва, Бартеневская улица, дом 57, корпус 2",район Южное Бутово,Юго-Западный административный округ,37.5164827333518,55.5447841819762,1906789.1217805168,6388262.899182719
228,4104,4104,Дом быта,комплексное предприятие бытового обслуживания,,нет,бытовые услуги,"город Москва, Скобелевская улица, дом 23",район Южное Бутово,Юго-Западный административный округ,37.55782093868929,55.5461984587735,1909265.0161622954,6389280.599874158
229,4136,4136,Бытовые услуги,комплексное предприятие бытового обслуживания,,нет,бытовые услуги,"город Москва, улица Адмирала Лазарева, дом 47",район Южное Бутово,Юго-Западный административный округ,37.517416142089104,55.5415366156697,1906965.9754551232,6387932.093839698
230,4138,4138,Бытовые услуги,комплексное предприятие бытового обслуживания,,нет,бытовые услуги,"город Москва, улица Адмирала Лазарева, дом 35",район Южное Бутово,Юго-Западный административный округ,37.5247224794458,55.5435944505039,1907336.9620514803,6388306.879560538
231,4166,4166,Дом быта,комплексное предприятие бытового обслуживания,,нет,бытовые услуги,"город Москва, Южнобутовская улица, дом 45",район Южное Бутово,Юго-Западный административный округ,37.534303330046896,55.536497804289695,1908184.8474841216,6387741.831590728
232,4175,4175,Ремонт и изготовление ключей,комплексное предприятие бытового обслуживания,,нет,бытовые услуги,"город Москва, Старокачаловская улица, дом 8",район Северное Бутово,Юго-Западный административный округ,37.58946996299206,55.56929343760607,1910345.638169494,6392434.7444671
233,4176,4176,Дом быта,комплексное предприятие бытового обслуживания,,нет,бытовые услуги,"город Москва, Южнобутовская улица, дом 85",район Южное Бутово,Юго-Западный административный округ,37.52385344372511,55.5338506519127,1907643.237124396,6387237.626761811
234,4183,4183,ДОМ БЫТА,комплексное предприятие бытового обслуживания,,нет,бытовые услуги,"город Москва, улица Дмитрия Ульянова, дом 28",Академический район,Юго-Западный административный округ,37.57916676694372,55.685275710128295,1905423.1229077154,6404725.122492418
235,4193,4193,Маникюрный салон «Расческа»,комплексное предприятие бытового обслуживания,,нет,бытовые услуги,"город Москва, Южнобутовская улица, дом 61",район Южное Бутово,Юго-Западный административный округ,37.530097626311395,55.536412806753,1907930.7091590175,6387644.651093996
236,4197,4197,МУЛЬТИСЕРВИС,комплексное предприятие бытового обслуживания,,нет,бытовые услуги,"город Москва, Мичуринский проспект, дом 27, корпус 2",район Раменки,Западный административный округ,37.501580380065505,55.6972141507844,1900256.19586892,6404392.186216994
237,4198,4198,МУЛЬТИСЕРВИС,комплексное предприятие бытового обслуживания,,нет,бытовые услуги,"город Москва, Мичуринский проспект, дом 27, корпус 2",район Раменки,Западный административный округ,37.50149454937689,55.696960199759395,1900260.3406421626,6404363.011466687
238,4205,4205,Мультисервис «Зорина Е.Г.»,комплексное предприятие бытового обслуживания,,нет,бытовые услуги,"город Москва, улица Удальцова, дом 52",район Проспект Вернадского,Западный административный округ,37.4893982333358,55.6856770720911,1899939.7590383145,6402894.133316265
239,4213,4213,МЕСТТЕХ,комплексное предприятие бытового обслуживания,,нет,бытовые услуги,"город Москва, Веерная улица, дом 30, корпус 2",район Очаково-Матвеевское,Западный административный округ,37.477633617980096,55.7098853708186,1898330.5279622946,6405259.859255925
240,4273,4273,Мультисервис,комплексное предприятие бытового обслуживания,,нет,бытовые услуги,"город Москва, Кастанаевская улица, дом 13",район Филёвский Парк,Западный административный округ,37.49196139952855,55.738188790112645,1898158.5223061997,6408610.309130293
241,4274,4274,Приемный пункт химчистки «Диана»,комплексное предприятие бытового обслуживания,Диана,да,бытовые услуги,"город Москва, Кастанаевская улица, дом 13",район Филёвский Парк,Западный административный округ,37.49192099440464,55.73821753247165,1898155.0035098,6408612.567216005
242,4299,4299,Дом быта,комплексное предприятие бытового обслуживания,,нет,бытовые услуги,"город Москва, Таллинская улица, дом 20, корпус 2",район Строгино,Северо-Западный административный округ,37.40294082941129,55.797970627581,1890544.3730690645,6413208.397695882
243,4433,4433,Фото Ателье,комплексное предприятие бытового обслуживания,,нет,бытовые услуги,"город Москва, Бескудниковский бульвар, дом 2, корпус 1",Бескудниковский район,Северный административный округ,37.56271865235071,55.857281436254205,1898050.7774561013,6422923.218754621
244,4445,4445,"Ремонт одежды, обуви",комплексное предприятие бытового обслуживания,,нет,бытовые услуги,"город Москва, Дубнинская улица, дом 13",район Восточное Дегунино,Северный административный округ,37.56730999111751,55.85981042401871,1898235.3368796343,6423291.512713905
245,4461,4461,"Ремонт обуви, одежды",комплексное предприятие бытового обслуживания,,нет,бытовые услуги,"город Москва, Дубнинская улица, дом 17, корпус 2",район Восточное Дегунино,Северный административный округ,37.5658030071255,55.86109283069413,1898096.4495646681,6423398.303060953
246,4494,4494,Служба Быта,комплексное предприятие бытового обслуживания,,нет,бытовые услуги,"город Москва, город Зеленоград, корпус 1805",район Крюково,Зеленоградский административный округ,37.162537,55.980382,1869295.3664062775,6427939.365309613
247,4510,4510,Дом быта,комплексное предприятие бытового обслуживания,,нет,бытовые услуги,"город Москва, Ключевая улица, дом 22, корпус 1",район Братеево,Южный административный округ,37.76250753162105,55.63242000431442,1918560.699978535,6402881.506852043
248,4521,4521,"Парикмахерская,фотоуслуги,ателье «ОКИРА»",комплексное предприятие бытового обслуживания,,нет,бытовые услуги,"город Москва, улица Борисовские Пруды, дом 16, корпус 4",район Братеево,Южный административный округ,37.74728911581443,55.633933842253576,1917576.4152293117,6402723.397525509
249,4524,4524,Дом быта,комплексное предприятие бытового обслуживания,,нет,бытовые услуги,"город Москва, Братеевская улица, дом 16, корпус 1",район Братеево,Южный административный округ,37.765870442898105,55.634466736644235,1918689.3050704896,6403173.094819629
250,4525,4525,Дом быта,комплексное предприятие бытового обслуживания,,нет,бытовые услуги,"город Москва, улица Мусы Джалиля, дом 28, корпус 1",район Зябликово,Южный административный округ,37.74191037024349,55.620181065661015,1917761.3556093576,6401127.699362666
251,4540,4540,Ателье и Химчистка,комплексное предприятие бытового обслуживания,,нет,бытовые услуги,"город Москва, Задонский проезд, дом 22",район Зябликово,Южный административный округ,37.75391246080395,55.62364634395514,1918364.0588937001,6401754.49254095
252,4547,4547,Дом быта,комплексное предприятие бытового обслуживания,,нет,бытовые услуги,"город Москва, Каширское шоссе, дом 4, корпус 3",район Нагатино-Садовники,Южный административный округ,37.625758517803135,55.6680679914361,1908899.404856544,6403845.948491158
253,4573,4573,Приемный пункт Химчистки Диана,комплексное предприятие бытового обслуживания,Диана,да,бытовые услуги,"город Москва, Суздальская улица, дом 20, корпус 6",район Новокосино,Восточный административный округ,37.8528579763962,55.74100012446569,1919996.1361711202,6416489.870810395
254,4576,4576,"Меховое Ателье, парикмахерская, СПА салон, металлоремонт",комплексное предприятие бытового обслуживания,,нет,бытовые услуги,"город Москва, Новокосинская улица, дом 17, корпус 3",район Новокосино,Восточный административный округ,37.85657143390565,55.73922666564148,1920288.325634681,6416377.467692069
255,4577,4577,Дом быта,комплексное предприятие бытового обслуживания,,нет,бытовые услуги,"город Москва, Зелёный проспект, дом 48, корпус 3",район Новогиреево,Восточный административный округ,37.8102820858272,55.75222324182343,1916988.6493361485,6416798.494770872
256,4580,4580,Дом быта,комплексное предприятие бытового обслуживания,,нет,бытовые услуги,"город Москва, Новокосинская улица, дом 8, корпус 1",район Новокосино,Восточный административный округ,37.85538420865754,55.733066072631885,1920447.355649256,6415688.7861233335
257,4602,4602,Мультисервис - дом быта,комплексное предприятие бытового обслуживания,,нет,бытовые услуги,"город Москва, Новокосинская улица, дом 12, корпус 2",район Новокосино,Восточный административный округ,37.85569075697106,55.73604521814249,1920354.19632403,6416016.156127811
258,4607,4607,"Ремонт обуви, одежды, изготовление ключей",комплексное предприятие бытового обслуживания,,нет,бытовые услуги,"город Москва, Новокосинская улица, дом 11, корпус 2",район Новокосино,Восточный административный округ,37.852931,55.734334,1920250.6895981182,6415773.416691112
259,4651,4651,Химчистка №1,комплексное предприятие бытового обслуживания,Химчистка №1,да,бытовые услуги,"город Москва, улица Большая Якиманка, дом 25",район Якиманка,Центральный административный округ,37.614579287816646,55.736295663582204,1905686.9530177882,6410966.438608999
260,4662,4662,Дом Быта,комплексное предприятие бытового обслуживания,,нет,бытовые услуги,"город Москва, улица Милашенкова, дом 1",Бутырский район,Северо-Восточный административный округ,37.58864975555891,55.82171237188713,1900942.416450055,6419630.762674843
261,4667,4667,Мультисервис,комплексное предприятие бытового обслуживания,,нет,бытовые услуги,"город Москва, Северный бульвар, дом 3, корпус 2",район Отрадное,Северо-Восточный административный округ,37.6060801253494,55.8655979772171,1900370.2420673368,6424724.329144446
262,4676,4676,СЛАВЯНКА,комплексное предприятие бытового обслуживания,,нет,бытовые услуги,"город Москва, Челюскинская улица, дом 11",Лосиноостровский район,Северо-Восточный административный округ,37.705752999,55.88311099999991,1905755.595290133,6428697.5363062965
263,4702,4702,Парикмахерская,комплексное предприятие бытового обслуживания,,нет,бытовые услуги,"город Москва, 9-я Северная линия, дом 25, корпус 2",район Северный,Северо-Восточный административный округ,37.555052898986,55.9330107570532,1894779.032997366,6430924.827049297
264,4705,4705,А-Стиль,комплексное предприятие бытового обслуживания,,нет,бытовые услуги,"город Москва, Дмитровское шоссе, дом 165Д, корпус 2",район Северный,Северо-Восточный административный округ,37.5404187666008,55.92192694534489,1894304.4651356337,6429425.848839288
265,4726,4726,ДОМ БЫТА,комплексное предприятие бытового обслуживания,,нет,бытовые услуги,"город Москва, Большая Марфинская улица, дом 4, корпус 2",район Марфино,Северо-Восточный административный округ,37.593580383954595,55.8276280733458,1901022.0609302758,6420371.317509893
266,4737,4737,Дом Быта,комплексное предприятие бытового обслуживания,,нет,бытовые услуги,"город Москва, Юрловский проезд, дом 14, корпус 1",район Отрадное,Северо-Восточный административный округ,37.61292450177085,55.87901429954362,1900286.464077868,6426313.006569474
267,4746,4746,Предприятие бытового обслуживания,комплексное предприятие бытового обслуживания,,нет,бытовые услуги,"город Москва, улица Руднёвка, дом 4",район Косино-Ухтомский,Восточный административный округ,37.88799495753918,55.71585520333496,1923075.8853778308,6414526.137277566
268,4761,4761,НАРИ,комплексное предприятие бытового обслуживания,,нет,бытовые услуги,"город Москва, улица Татьяны Макаровой, дом 6",район Косино-Ухтомский,Восточный административный округ,37.88635476376794,55.7116956865234,1923132.4339395098,6414043.355982229
269,4765,4765,Торгсервис центр «Галина»,комплексное предприятие бытового обслуживания,,нет,бытовые услуги,"город Москва, Святоозерская улица, дом 14",район Косино-Ухтомский,Восточный административный округ,37.888557600702,55.713007532934306,1923217.0890615364,6414231.369763335
270,4803,4803,Мультисервис,комплексное предприятие бытового обслуживания,,нет,бытовые услуги,"город Москва, Сокольническая площадь, дом 9",район Сокольники,Восточный административный округ,37.680591009718,55.7900792617663,1907698.4775699559,6418146.554821574
271,4805,4805,Сервисная мастерская,комплексное предприятие бытового обслуживания,,нет,бытовые услуги,"город Москва, Первомайская улица, дом 42",район Измайлово,Восточный административный округ,37.20761617142648,55.964206264710654,1872612.213007852,6427116.106040622
272,4823,4823,Мультисервис,комплексное предприятие бытового обслуживания,,нет,бытовые услуги,"город Москва, улица Васильцовский Стан, дом 5, корпус 2",Рязанский район,Юго-Восточный административный округ,37.74896750375888,55.71410805482399,1914686.6232072532,6411398.4548957925
273,4879,4879,СЕКУНДОЧКУ,комплексное предприятие бытового обслуживания,,нет,бытовые услуги,"город Москва, улица Островитянова, дом 9, корпус 1",Обручевский район,Юго-Западный административный округ,37.497402106992645,55.644104049617766,1901960.916677021,6398577.354091865
274,4937,4937,Дом быта,комплексное предприятие бытового обслуживания,,нет,бытовые услуги,"город Москва, Бартеневская улица, дом 57, корпус 2",район Южное Бутово,Юго-Западный административный округ,37.516555,55.544803696669725,1906792.8220708687,6388266.515286395
275,4939,4939,Дом быта,комплексное предприятие бытового обслуживания,,нет,бытовые услуги,"город Москва, улица Адмирала Лазарева, дом 55",район Южное Бутово,Юго-Западный административный округ,37.51191639027748,55.53991946526448,1906689.1908045763,6387642.654675093
276,4942,4942,Дом быта,комплексное предприятие бытового обслуживания,,нет,бытовые услуги,"город Москва, улица Брусилова, дом 15, корпус 1",район Южное Бутово,Юго-Западный административный округ,37.5803944097589,55.50226537230431,1912269.9727988576,6385015.274142282
277,4943,4943,"Студия красоты Рафинад-Ремонт одежды, обуви",комплексное предприятие бытового обслуживания,,нет,бытовые услуги,"город Москва, улица Брусилова, дом 15",район Южное Бутово,Юго-Западный административный округ,37.58082356320129,55.501742787251295,1912315.567417303,6384967.913108839
278,4949,4949,Дом быта,комплексное предприятие бытового обслуживания,,нет,бытовые услуги,"город Москва, улица Захарьинские Дворики, дом 3",район Южное Бутово,Юго-Западный административный округ,37.575072907072496,55.5017063275701,1911964.84025724,6384843.316485321
279,4971,4971,МУЛЬТИСЕРВИС,комплексное предприятие бытового обслуживания,,нет,бытовые услуги,"город Москва, Ломоносовский проспект, дом 29, корпус 2",район Раменки,Западный административный округ,37.515093349081695,55.7023713978587,1900888.720192706,6405230.054395615
280,4979,4979,МУЛЬТИСЕРВИС,комплексное предприятие бытового обслуживания,,нет,бытовые услуги,"город Москва, Мичуринский проспект, дом 34",район Раменки,Западный административный округ,37.49741759167391,55.6985201534242,1899954.4723272026,6404446.267005445
281,4995,4995,МУЛЬТИСЕРВИС,комплексное предприятие бытового обслуживания,,нет,бытовые услуги,"город Москва, улица Столетова, дом 17",район Раменки,Западный административный округ,37.499048374755,55.70183333470911,1899931.526490289,6404837.541435498
282,5044,5044,"Парикмахерская, ателье, ремонт обуви",комплексное предприятие бытового обслуживания,,нет,бытовые услуги,"город Москва, Куркинское шоссе, дом 17",район Куркино,Северо-Западный административный округ,37.39375,55.88522779514653,1886777.3462494125,6422427.764319653
283,5078,5078,"Ремонт обуви и сумок, ателье",комплексное предприятие бытового обслуживания,,нет,бытовые услуги,"город Москва, Соколово-Мещерская улица, дом 14",район Куркино,Северо-Западный административный округ,37.389192376356135,55.89632631983474,1886092.9095454463,6423530.2728232965
284,5149,5149,Центр бытовых услуг,комплексное предприятие бытового обслуживания,,нет,бытовые услуги,"город Москва, Дубнинская улица, дом 53, корпус 2",Бескудниковский район,Северный административный округ,37.558508,55.872996,1897213.1127044787,6424529.1121133715
285,5153,5153,Дом быта,комплексное предприятие бытового обслуживания,,нет,бытовые услуги,"город Москва, улица Дыбенко, дом 26, корпус 1",район Ховрино,Северный административный округ,37.48608657189597,55.873878758548855,1892791.753446598,6423117.628206038
286,5161,5161,Дом быта,комплексное предприятие бытового обслуживания,,нет,бытовые услуги,"город Москва, Петрозаводская улица, дом 15, корпус 5",район Ховрино,Северный административный округ,37.49365388228366,55.863689923925065,1893626.873856491,6422176.481548172
287,5184,5184,Goodson и Bali Spa Lux,комплексное предприятие бытового обслуживания,,нет,бытовые услуги,"город Москва, город Зеленоград, корпус 315",район Савёлки,Зеленоградский административный округ,37.74423497388961,55.91756873136188,1906796.9913947969,6433216.7159730615
288,5196,5196,Красный мак,комплексное предприятие бытового обслуживания,,нет,бытовые услуги,"город Москва, город Зеленоград, корпус 2033",район Крюково,Зеленоградский административный округ,37.172472,55.97293,1870167.8414469657,6427338.3886498585
289,5197,5197,Дом красоты «Орбита»,комплексное предприятие бытового обслуживания,,нет,бытовые услуги,"город Москва, город Зеленоград, корпус 2013",район Крюково,Зеленоградский административный округ,37.16272437301569,55.9720750612917,1869609.2807190528,6427047.010494955
290,5231,5231,На все руки,комплексное предприятие бытового обслуживания,,нет,бытовые услуги,"город Москва, Кировоградская улица, дом 24",район Чертаново Центральное,Южный административный округ,37.60260544215129,55.614056621695255,1909490.206298526,6397537.172995472
291,5238,5238,Мультисервис,комплексное предприятие бытового обслуживания,,нет,бытовые услуги,"город Москва, улица Мастеркова, дом 1",Даниловский район,Южный административный округ,37.658796,55.710235,1909344.87797038,6409084.451728413
292,5328,5328,Дом быта,комплексное предприятие бытового обслуживания,,нет,бытовые услуги,"город Москва, Шмитовский проезд, дом 16, строение 2",Пресненский район,Центральный административный округ,37.54773743956462,55.75807303043941,1900815.6583255413,6411916.80883743
293,5345,5345,Мастерская № 1,комплексное предприятие бытового обслуживания,,нет,бытовые услуги,"город Москва, улица Шаболовка, дом 10, корпус 1",район Якиманка,Центральный административный округ,37.60886580431085,55.72397337208768,1905796.6440257598,6409518.548852118
294,5349,5349,"Ателье, химчистка. Военторг",комплексное предприятие бытового обслуживания,,нет,бытовые услуги,"город Москва, Нижегородская улица, дом 25",Таганский район,Центральный административный округ,37.69398292879696,55.73732403202305,1910477.056267056,6412742.9416791275
295,5361,5361,Дом Быта,комплексное предприятие бытового обслуживания,,нет,бытовые услуги,"город Москва, Новорогожская улица, дом 6, строение 1",Таганский район,Центральный административный округ,37.68232336977252,55.741227354923126,1909622.835037609,6412918.62621378
296,5381,5381,Дом Быта,комплексное предприятие бытового обслуживания,,нет,бытовые услуги,"город Москва, поселение Внуковское, улица Лётчика Ульянина, дом 2",поселение Внуковское,Новомосковский административный округ,37.30487,55.625069,1890909.4771593197,6392525.293795157
297,5514,5514,Дом быта,комплексное предприятие бытового обслуживания,,нет,бытовые услуги,"город Москва, Большая Сухаревская площадь, дом 1/2, строение 1",Мещанский район,Центральный административный округ,37.63272876095631,55.77308101901387,1905424.119614956,6415311.347201117
298,5536,5536,Ателье,комплексное предприятие бытового обслуживания,,нет,бытовые услуги,"город Москва, улица Коровий Вал, дом 1А, строение 1",район Замоскворечье,Центральный административный округ,37.62196474750988,55.72925992101475,1906397.296890155,6410362.734664703
299,5563,5563,Баграмян А.Х.,комплексное предприятие бытового обслуживания,,нет,бытовые услуги,"город Москва, Азовская улица, дом 18",район Зюзино,Юго-Западный административный округ,37.5977221706305,55.6560085267051,1907637.9580335303,6401958.12742835
300,5582,5582,ЛЕССИ,комплексное предприятие бытового обслуживания,,нет,бытовые услуги,"город Москва, улица Гончарова, дом 9А",Бутырский район,Северо-Восточный административный округ,37.58458547544842,55.816567876542045,1900886.6268444185,6418991.41523751
301,5590,5590,Мультисервис,комплексное предприятие бытового обслуживания,,нет,бытовые услуги,"город Москва, Уссурийская улица, дом 14, корпус 2",район Гольяново,Восточный административный округ,37.822079,55.822966,1915053.487093778,6424667.1897760285
302,5592,5592,"Ремонт бытовой техники, парикмахерская",комплексное предприятие бытового обслуживания,,нет,бытовые услуги,"город Москва, Уссурийская улица, дом 14, корпус 2",район Гольяново,Восточный административный округ,37.8221794591974,55.822970126599,1915059.422972997,6424669.754833045
303,5617,5617,Дом быта,комплексное предприятие бытового обслуживания,,нет,бытовые услуги,"город Москва, улица Кулакова, дом 9, корпус 1",район Строгино,Северо-Западный административный округ,37.39893863392505,55.81141912511689,1889806.7536246218,6414575.871818043
304,5628,5628,Дом быта,комплексное предприятие бытового обслуживания,,нет,бытовые услуги,"город Москва, 3-я Парковая улица, дом 14А",район Измайлово,Восточный административный округ,37.78458083422846,55.79198017025959,1913939.6678103916,6420538.690626544
305,5667,5667,Студия Интер,комплексное предприятие бытового обслуживания,,нет,бытовые услуги,"город Москва, город Зеленоград, корпус 317А, строение 1",район Савёлки,Зеленоградский административный округ,37.215559,55.996661,1871907.640600226,6430779.4553321935
306,5708,5708,Ремонт бытовой техники,комплексное предприятие бытового обслуживания,,нет,бытовые услуги,"город Москва, Профсоюзная улица, дом 128, корпус 1",район Тёплый Стан,Юго-Западный административный округ,37.515613697631295,55.630828743611396,1903561.689161026,6397525.6286122175
307,5722,5722,Комплекс бытовых услуг,комплексное предприятие бытового обслуживания,,нет,бытовые услуги,"город Москва, улица Генерала Тюленева, дом 25А",район Тёплый Стан,Юго-Западный административный округ,37.48714379324336,55.61923002522064,1902252.001818115,6395680.532942397
308,5761,5761,"АТЕЛЬЕ, ФОТО услуги",комплексное предприятие бытового обслуживания,,нет,бытовые услуги,"город Москва, улица Шверника, дом 13, корпус 1",Академический район,Юго-Западный административный округ,37.58890774117249,55.69171153084831,1905777.976588524,6405622.8264103625
309,5762,5762,Срочный ремонт,комплексное предприятие бытового обслуживания,,нет,бытовые услуги,"город Москва, улица Шверника, дом 13, корпус 1",Академический район,Юго-Западный административный округ,37.5893047081056,55.6915845381657,1905806.8562428628,6405617.443657292
310,5771,5771,Дом быта,комплексное предприятие бытового обслуживания,,нет,бытовые услуги,"город Москва, улица Каховка, дом 11, корпус 1",район Зюзино,Юго-Западный административный округ,37.587219737557405,55.6508338783751,1907189.408760565,6401180.219042309
311,5779,5779,Мультисервис,комплексное предприятие бытового обслуживания,,нет,бытовые услуги,"город Москва, Коптевская улица, дом 69, строение 1",район Коптево,Северный административный округ,37.51545308227897,55.83004749017655,1896192.5013752612,6419003.157142257
312,5801,5801,Мастерская №1(Дом быта),комплексное предприятие бытового обслуживания,,нет,бытовые услуги,"город Москва, Череповецкая улица, дом 18",район Лианозово,Северо-Восточный административный округ,37.5790747629226,55.8977798336927,1897539.6870364896,6427628.725349604
313,5813,5813,Мотор-СБ,комплексное предприятие бытового обслуживания,,нет,бытовые услуги,"город Москва, Клязьминская улица, дом 15",Дмитровский район,Северный административный округ,37.5255700574945,55.88891520567391,1894627.999862204,6425559.091110609
314,5831,5831,Дом Быта,комплексное предприятие бытового обслуживания,,нет,бытовые услуги,"город Москва, Селигерская улица, дом 24/1, строение 1",Бескудниковский район,Северный административный округ,37.5507908308247,55.86805123606089,1896928.70702395,6423835.387206498
315,5849,5849,Бизнес-гарант,комплексное предприятие бытового обслуживания,,нет,бытовые услуги,"город Москва, Новослободская улица, дом 48",Тверской район,Центральный административный округ,37.59553581676448,55.78623424105239,1902676.603225544,6415950.773580659
316,5850,5850,СНЕЖИНКА,комплексное предприятие бытового обслуживания,Снежинка,да,бытовые услуги,"город Москва, Новослободская улица, дом 48",Тверской район,Центральный административный округ,37.59553581676448,55.78623424105239,1902676.603225544,6415950.773580659
317,5853,5853,Дом быта,комплексное предприятие бытового обслуживания,,нет,бытовые услуги,"город Москва, Новослободская улица, дом 48",Тверской район,Центральный административный округ,37.59553581676448,55.78623424105239,1902676.603225544,6415950.773580659
318,5858,5858,СТОЛИЧНЫЙ МУЛЬТИСЕРВИС,комплексное предприятие бытового обслуживания,,нет,бытовые услуги,"город Москва, Столешников переулок, дом 7, строение 5",Тверской район,Центральный административный округ,37.61417932683638,55.76380033238704,1904641.7438481324,6413922.71544526
319,5868,5868,Дом Быта,комплексное предприятие бытового обслуживания,,нет,бытовые услуги,"город Москва, Каргопольская улица, дом 18, строение 1",район Отрадное,Северо-Восточный административный округ,37.5900816656748,55.8621718328009,1899527.9273954362,6424021.070390873
320,5902,5902,Бытовые услуги Димос,комплексное предприятие бытового обслуживания,,нет,бытовые услуги,"город Москва, Валдайский проезд, дом 8",район Левобережный,Северный административный округ,37.4679293857632,55.8659275290428,1891984.768345708,6421883.488655607
321,5965,5965,Недильский И.Р.,комплексное предприятие бытового обслуживания,,нет,бытовые услуги,"город Москва, улица Каховка, дом 19, строение 1",район Зюзино,Юго-Западный административный округ,37.5778212771702,55.6537606758169,1906508.05212899,6401299.022460784
322,5990,5990,Ателье,комплексное предприятие бытового обслуживания,,нет,бытовые услуги,"город Москва, улица Свободы, дом 61, корпус 1",район Северное Тушино,Северо-Западный административный округ,37.45010224390019,55.854003583119926,1891343.707858377,6420228.073782752
323,5994,5994,Мультисервис,комплексное предприятие бытового обслуживания,,нет,бытовые услуги,"город Москва, улица Свободы, дом 57",район Южное Тушино,Северо-Западный административный округ,37.45090421099013,55.851304509788285,1891491.8698363588,6419953.702373317
324,6006,6006,"Ремонт обуви, одежды, металлоремонт",комплексное предприятие бытового обслуживания,,нет,бытовые услуги,"город Москва, Хабаровская улица, дом 4, корпус 1",район Гольяново,Восточный административный округ,37.828642,55.81701977517648,1915674.4150459238,6424165.367993567
325,6013,6013,Мульти Сервис,комплексное предприятие бытового обслуживания,,нет,бытовые услуги,"город Москва, Таллинская улица, дом 18",район Строгино,Северо-Западный административный округ,37.40258194902368,55.7970672914342,1890555.7883231696,6413103.5417871475
326,6025,6025,Дом быта,комплексное предприятие бытового обслуживания,,нет,бытовые услуги,"город Москва, Краснобогатырская улица, дом 13",район Богородское,Восточный административный округ,37.693674825295,55.8156014917311,1907541.5519080744,6421171.127605209
327,6042,6042,Дом быта,комплексное предприятие бытового обслуживания,,нет,бытовые услуги,"город Москва, 11-я Парковая улица, дом 14",район Восточное Измайлово,Восточный административный округ,37.8062656727992,55.79244905762771,1915238.0688745752,6421046.622822328
328,6049,6049,Дом Быта,комплексное предприятие бытового обслуживания,,нет,бытовые услуги,"город Москва, Щёлковское шоссе, дом 30, строение 1",район Северное Измайлово,Восточный административный округ,37.78380329814368,55.809243494361695,1913246.4075892498,6422381.837824549
329,6083,6083,МУЛЬТИСЕРВИС,комплексное предприятие бытового обслуживания,,нет,бытовые услуги,"город Москва, Университетский проспект, дом 19",район Раменки,Западный административный округ,37.5220402704309,55.7135088501578,1900900.2656009109,6406575.894591828
330,6088,6088,Дом быта,комплексное предприятие бытового обслуживания,,нет,бытовые услуги,"город Москва, город Зеленоград, корпус 124, строение 1",район Матушкино,Зеленоградский административный округ,37.20580343300003,56.005803586000006,1870984.162722541,6431565.971097059
331,6116,6116,Мультисервис,комплексное предприятие бытового обслуживания,,нет,бытовые услуги,"город Москва, улица 26-ти Бакинских Комиссаров, дом 4, корпус 2",район Тропарёво-Никулино,Западный административный округ,37.46,55.6,1901302.8126608569,6393040.356387224
332,6138,6138,АЛИСА,комплексное предприятие бытового обслуживания,,нет,бытовые услуги,"город Москва, Малый Палашёвский переулок, дом 6",Тверской район,Центральный административный округ,37.60263976716078,55.76519063345624,1903888.8991815243,6413831.120452606
333,6155,6155,Комбинат Питания Воронцово,комплексное предприятие бытового обслуживания,,нет,бытовые услуги,"город Москва, улица Академика Пилюгина, дом 12А",Ломоносовский район,Юго-Западный административный округ,37.53828009797745,55.669987538827336,1903497.6350586624,6402221.94477391
334,6167,6167,"Ремонт обуви, изготовление ключей",комплексное предприятие бытового обслуживания,,нет,бытовые услуги,"город Москва, улица Римского-Корсакова, дом 20",район Отрадное,Северо-Восточный административный округ,37.59896409452129,55.872134971152306,1899696.2932127826,6425280.162898185
335,6175,6175,МУЛЬТИСЕРВИС,комплексное предприятие бытового обслуживания,,нет,бытовые услуги,"город Москва, улица Раменки, дом 3",район Раменки,Западный административный округ,37.49592499999991,55.693524,1900047.9060100468,6403876.374616596
336,6181,6181,ДОМ БЫТА ЛЕБЕДЬ,комплексное предприятие бытового обслуживания,,нет,бытовые услуги,"город Москва, город Зеленоград, корпус 1543",район Крюково,Зеленоградский административный округ,37.1557363496848,55.978490881657905,1868952.8877735985,6427596.476991843
337,6210,6210,АЗ-СТИЛЬ,комплексное предприятие бытового обслуживания,,нет,бытовые услуги,"город Москва, Подкопаевский переулок, дом 4, строение 7",Басманный район,Центральный административный округ,37.6419350133978,55.754199274708604,1906685.2042923518,6413469.237849115
338,6222,6222,Комплексное предприятие бытового обслуживания «Немтинов»,комплексное предприятие бытового обслуживания,Немтинов,да,бытовые услуги,"город Москва, Вешняковская улица, дом 17Б, строение 1",район Вешняки,Восточный административный округ,37.832777458921804,55.734588035814845,1919016.3284930184,6415374.332682308
339,6238,6238,Центр бытовых услуг «У Дома»,комплексное предприятие бытового обслуживания,,нет,бытовые услуги,"город Москва, Вешняковская улица, дом 12Г",район Вешняки,Восточный административный округ,37.82439347862207,55.73478547371168,1918499.3714234428,6415218.312140625
340,6244,6244,Дом быта,комплексное предприятие бытового обслуживания,,нет,бытовые услуги,"город Москва, улица Старый Гай, дом 8А",район Вешняки,Восточный административный округ,37.827740305232844,55.74028604266579,1918496.6373955854,6415881.583270824
341,6246,6246,Дом быта,комплексное предприятие бытового обслуживания,,нет,бытовые услуги,"город Москва, Вешняковская улица, дом 39Г",район Вешняки,Восточный административный округ,37.82617848966367,55.7181634911317,1919230.6995175572,6413465.518400163
342,6281,6281,Дом быта,комплексное предприятие бытового обслуживания,,нет,бытовые услуги,"город Москва, Кетчерская улица, дом 4А",район Вешняки,Восточный административный округ,37.82095158113152,55.74241911262015,1918004.1749977483,6415967.841046534
343,6297,6297,Дом быта «Азимут»,комплексное предприятие бытового обслуживания,,нет,бытовые услуги,"город Москва, Братеевская улица, дом 25, корпус 2",район Братеево,Южный административный округ,37.752973304223545,55.63375718729324,1917929.5425958715,6402824.3227288565
344,6308,6308,Дом быта,комплексное предприятие бытового обслуживания,,нет,бытовые услуги,"город Москва, Шипиловская улица, дом 53, корпус 2",район Зябликово,Южный административный округ,37.74605308382979,55.622488966541376,1917927.9413344385,6401463.85986816
345,6318,6318,Дом бытового обслуживания,комплексное предприятие бытового обслуживания,,нет,бытовые услуги,"город Москва, Ореховый бульвар, дом 7, корпус 1, строение 2",район Орехово-Борисово Северное,Южный административный округ,37.708243837132414,55.61005817264164,1916084.798384205,6399326.689643436
346,6328,6328,Дом быта,комплексное предприятие бытового обслуживания,,нет,бытовые услуги,"город Москва, Ореховый бульвар, дом 53, корпус 2",район Зябликово,Южный административный округ,37.74864603152819,55.61468740592783,1918377.0698003653,6400677.771529314
347,6329,6329,Комплекс бытового обслуживания,комплексное предприятие бытового обслуживания,,нет,бытовые услуги,"город Москва, Борисовский проезд, дом 14, корпус 1",район Орехово-Борисово Северное,Южный административный округ,37.72189032227043,55.62571258792481,1916334.2141265087,6401301.645956603
348,6336,6336,Мультисервис,комплексное предприятие бытового обслуживания,,нет,бытовые услуги,"город Москва, улица Мусы Джалиля, дом 2",район Зябликово,Южный административный округ,37.740992328242186,55.62990195257073,1917342.8806309798,6402156.007550141
349,6346,6346,Центр бытового обслужинвания «Немтинов»,комплексное предприятие бытового обслуживания,Немтинов,да,бытовые услуги,"город Москва, Луганская улица, дом 10",район Царицыно,Южный административный округ,37.667667530369606,55.62239096615193,1913150.6338252872,6399801.962997718
350,6353,6353,Дом быта,комплексное предприятие бытового обслуживания,,нет,бытовые услуги,"город Москва, улица Мусы Джалиля, дом 27, корпус 3",район Зябликово,Южный административный округ,37.745073964315615,55.61786857705796,1918040.5440202341,6400945.229129624
351,6374,6374,Ремонт ювелирных изделий и обуви,комплексное предприятие бытового обслуживания,,нет,бытовые услуги,"город Москва, Михневская улица, дом 7, корпус 2",район Бирюлёво Восточное,Южный административный округ,37.66268045471384,55.583513166984886,1914290.6322135276,6395505.751531451
352,6376,6376,Дом быта,комплексное предприятие бытового обслуживания,,нет,бытовые услуги,"город Москва, Шипиловская улица, дом 50, корпус 1",район Зябликово,Южный административный округ,37.73812909182164,55.621235854962634,1917491.4088137955,6401161.599131176
353,6380,6380,Мастер минутка,комплексное предприятие бытового обслуживания,,нет,бытовые услуги,"город Москва, Кустанайская улица, дом 6",район Зябликово,Южный административный округ,37.75218161805433,55.61957758666951,1918410.3021084613,6401279.449486023
354,6385,6385,Салон красоты - Ремонт обуви,комплексное предприятие бытового обслуживания,,нет,бытовые услуги,"город Москва, Пролетарский проспект, дом 10",район Москворечье-Сабурово,Южный административный округ,37.655522225478045,55.645092178756016,1911566.4863945928,6401993.88704662
355,6397,6397,Дом быта,комплексное предприятие бытового обслуживания,,нет,бытовые услуги,"город Москва, Затонная улица, дом 4, строение 2",район Нагатинский Затон,Южный административный округ,37.683526211551694,55.6799910342662,1911975.2581627446,6406344.225110892
356,6445,6445,Люкс-Сервис,комплексное предприятие бытового обслуживания,,нет,бытовые услуги,"город Москва, Неглинная улица, дом 6/2, строение 2",Мещанский район,Центральный административный округ,37.62184861732475,55.76038491103103,1905234.6228882696,6413715.138100242
357,6446,6446,Бутик-ателье Баден,комплексное предприятие бытового обслуживания,,нет,бытовые услуги,"город Москва, Пушечная улица, дом 4, строение 1",Мещанский район,Центральный административный округ,37.62233740324909,55.760625186097535,1905255.4056052384,6413751.269668529
358,6454,6454,Дом быты,комплексное предприятие бытового обслуживания,,нет,бытовые услуги,"город Москва, улица Щепкина, дом 47, строение 1",Мещанский район,Центральный административный округ,37.628694555368305,55.7813394110203,1904872.2322915,6416116.913389305
359,6481,6481,ДОМ БЫТА,комплексное предприятие бытового обслуживания,,нет,бытовые услуги,"город Москва, Беловежская улица, дом 1, корпус 2",Можайский район,Западный административный округ,37.400506,55.71488,1893450.382142437,6404195.995500888
360,6564,6564,Предприятие мультисервиса,комплексное предприятие бытового обслуживания,,нет,бытовые услуги,"город Москва, Ферганский проезд, дом 10Б, строение 2",район Выхино-Жулебино,Юго-Восточный административный округ,37.82108716768274,55.69595664710246,1919752.8742646961,6410965.561938484
361,6586,6586,Дом быта,комплексное предприятие бытового обслуживания,,нет,бытовые услуги,"город Москва, Шоссейная улица, дом 49",район Печатники,Юго-Восточный административный округ,37.723686,55.675071,1914604.2038881315,6406659.128444641
362,6604,6604,ОГАНЕСЯН Д.Б.,комплексное предприятие бытового обслуживания,,нет,бытовые услуги,"город Москва, Волгоградский проспект, дом 73, строение 1",район Текстильщики,Юго-Восточный административный округ,37.744206,55.709928,1914553.0105147746,6410847.699001384
363,6614,6614,"Ремонт обуви, ателье",комплексное предприятие бытового обслуживания,,нет,бытовые услуги,"город Москва, улица Александра Солженицына, дом 18",Таганский район,Центральный административный округ,37.66073575775849,55.74292613888769,1908247.1964991319,6412648.535139888
364,6659,6659,Дом быта,комплексное предприятие бытового обслуживания,,нет,бытовые услуги,"город Москва, 1-я Мелитопольская улица, дом 2А",район Южное Бутово,Юго-Западный административный округ,37.576295994385404,55.5393633280246,1910647.513099048,6388930.599321263
365,6668,6668,"Ремонт обуви, металлоремонт",комплексное предприятие бытового обслуживания,,нет,бытовые услуги,"город Москва, Новокосинская улица, дом 31",район Новокосино,Восточный административный округ,37.86392295550576,55.74309428168787,1920589.8381953954,6416949.694365815
366,6689,6689,Дом быта «Теплый Стан»,комплексное предприятие бытового обслуживания,,нет,бытовые услуги,"город Москва, Профсоюзная улица, дом 154, корпус 1",район Тёплый Стан,Юго-Западный административный округ,37.5035544859006,55.6217124703679,1903162.129349241,6396290.668158301
367,6703,6703,Ваш стиль,комплексное предприятие бытового обслуживания,,нет,бытовые услуги,"город Москва, Старый Петровско-Разумовский проезд, дом 1/23, строение 1",Савёловский район,Северный административный округ,37.56517642369925,55.80050255607267,1900304.039295508,6416854.612527576
368,6719,6719,КУЗОВКОВ М.Н.,комплексное предприятие бытового обслуживания,,нет,бытовые услуги,"город Москва, улица Знаменские Садки, дом 1Б",район Северное Бутово,Юго-Западный административный округ,37.57395146590272,55.571367751545765,1909320.625230867,6392333.126561668
369,6725,6725,БУТОВСКИЕ УМЕЛЬЦЫ,комплексное предприятие бытового обслуживания,,нет,бытовые услуги,"город Москва, Старокачаловская улица, дом 1А",район Северное Бутово,Юго-Западный административный округ,37.58658461706458,55.56750931094476,1910235.347797801,6392181.834188705
