,index,Unnamed: 0,Name,TypeObject,OperatingCompany,IsNetObject,TypeService,Address,District,AdmArea,Longitude_WGS84,Latitude_WGS84,Xs,Ys
0,4,4,Продукты,Магазин «Продукты»,,нет,реализация продовольственных товаров,"город Москва, 4-й Рощинский проезд, дом 7/17",Даниловский район,Южный административный округ,37.61142564302264,55.70928541862597,1906497.3065076785,6407988.837311693
1,5,5,Магазин «Радуга»,Магазин «Продукты»,,нет,реализация продовольственных товаров,"город Москва, Марьинский бульвар, дом 4",район Марьино,Юго-Восточный административный округ,37.749818553954185,55.647955415176575,1917207.47972417,6404287.868445506
2,7,7,ПРОДУКТЫ,Магазин «Продукты»,,нет,реализация продовольственных товаров,"город Москва, Волочаевская улица, дом 40Б",район Лефортово,Юго-Восточный административный округ,37.678139532503344,55.75248197832822,1908949.5259027856,6414043.631170081
3,8,8,Магазин «Монастырский мед»,Магазин «Продукты»,,нет,реализация продовольственных товаров,"город Москва, улица Даниловский Вал, дом 10",Даниловский район,Южный административный округ,37.625177258866074,55.711200599389585,1907263.1552599187,6408483.40386421
4,13,13,ТД ЭЛЬЙОН,Магазин «Продукты»,,нет,реализация продовольственных товаров,"город Москва, Октябрьская улица, дом 18",район Внуково,Западный административный округ,37.21248601142178,55.61088473655803,1885783.3952086032,6389087.860098123
5,19,19,Продукты,Магазин «Продукты»,,нет,реализация продовольственных товаров,"город Москва, Флотская улица, дом 50",Головинский район,Северный административный округ,37.50169273318029,55.85389198538373,1894476.3553834343,6421287.358116533
6,23,23,Магазин «Продукты»,Магазин «Продукты»,,нет,реализация продовольственных товаров,"город Москва, Лебедянская улица, дом 34",район Бирюлёво Восточное,Южный административный округ,37.69379704311749,55.58541878538674,1916119.882082388,6396366.257534611
7,25,25,Магазин «Октава плюс»,Магазин «Продукты»,,нет,реализация продовольственных товаров,"город Москва, Ленинский проспект, дом 20",Донской район,Южный административный округ,37.593064747723,55.71676219058279,1905102.6332172363,6408410.450482995
8,30,30,Продукты,Магазин «Продукты»,,нет,реализация продовольственных товаров,"город Москва, Кировоградская улица, дом 36",район Чертаново Центральное,Южный административный округ,37.599515999999994,55.604834,1909643.2901587316,6396477.9391322415
9,33,33,Универсам «Свой»,Магазин «Продукты»,,нет,реализация продовольственных товаров,"город Москва, Бойцовая улица, дом 12, строение 1",район Богородское,Восточный административный округ,37.71934799999999,55.81191077368546,1909236.6926346247,6421312.660653357
10,34,34,Минимаркет,Магазин «Продукты»,,нет,реализация продовольственных товаров,"город Москва, Октябрьская улица, дом 69",район Марьина Роща,Северо-Восточный административный округ,37.61213602148013,55.794759777470205,1903368.246943577,6417216.776085279
11,41,41,Продукты на Заводской,Магазин «Продукты»,,нет,реализация продовольственных товаров,"город Москва, город Зеленоград, Заводская улица, дом 38, строение 3",район Крюково,Зеленоградский административный округ,37.183854,55.972838,1870859.7484031075,6427561.11282122
12,42,42,Магазин «Манго»,Магазин «Продукты»,,нет,реализация продовольственных товаров,"город Москва, город Троицк, Октябрьский проспект, дом 14",поселение Троицк,Троицкий административный округ,37.29761,55.476016,1895907.5037114213,6376285.952176427
13,53,53,ПРОДУКТЫ,Магазин «Продукты»,,нет,реализация продовольственных товаров,"город Москва, проезд Кадомцева, дом 13",район Ростокино,Северо-Восточный административный округ,37.663839158698025,55.828769173759916,1905241.2821548718,6421964.199912448
14,54,54,Хлеб,Магазин «Продукты»,,нет,реализация продовольственных товаров,"город Москва, улица Красного Маяка, дом 4, корпус 1",район Чертаново Центральное,Южный административный округ,37.5993157686159,55.612162113320615,1909359.6243724404,6397263.918131542
15,59,59,Продукты,Магазин «Продукты»,,нет,реализация продовольственных товаров,"город Москва, Кировоградская улица, дом 24",район Чертаново Центральное,Южный административный округ,37.60260544215128,55.61405662169526,1909490.206298526,6397537.172995472
16,65,65,Продукты,Магазин «Продукты»,,нет,реализация продовольственных товаров,"город Москва, Городецкая улица, дом 8, корпус 1",район Новокосино,Восточный административный округ,37.86641685261311,55.73990730681215,1920861.0122572046,6416659.264220129
17,67,67,Продукты,Магазин «Продукты»,,нет,реализация продовольственных товаров,"город Москва, Городецкая улица, дом 13/19, корпус 1",район Новокосино,Восточный административный округ,37.86854080239587,55.73890845456307,1921027.570378501,6416596.6739850575
18,73,73,Магазин «Домашняя лавка»,Магазин «Продукты»,,нет,реализация продовольственных товаров,"город Москва, 6-я Радиальная улица, дом 5, корпус 4",район Бирюлёво Восточное,Южный административный округ,37.662479424022116,55.603456329147605,1913537.590308403,6397651.611093488
19,80,80,Торты,Магазин «Продукты»,,нет,реализация продовольственных товаров,"город Москва, Мичуринский проспект, дом 9, корпус 1",район Раменки,Западный административный округ,37.506239884922024,55.70073312970477,1900410.0765878297,6404868.791513157
20,82,82,Продукты,Магазин «Продукты»,,нет,реализация продовольственных товаров,"город Москва, Строгинский бульвар, владение 21, строение 1",район Строгино,Северо-Западный административный округ,37.406882,55.80344,1890582.634868768,6413879.886858557
21,83,83,Магазин «Продукты. Овощи»,Магазин «Продукты»,,нет,реализация продовольственных товаров,"город Москва, Бирюлёвская улица, дом 37Б",район Бирюлёво Восточное,Южный административный округ,37.66531347589354,55.589278827014,1914237.2521653343,6396182.751888775
22,85,85,Продукты,Магазин «Продукты»,,нет,реализация продовольственных товаров,"город Москва, Совхозная улица, дом 16",район Люблино,Юго-Восточный административный округ,37.76376208031774,55.67892364878875,1916900.7868335075,6407919.2566312775
23,87,87,ПРОДУКТЫ,Магазин «Продукты»,,нет,реализация продовольственных товаров,"город Москва, Большая Черёмушкинская улица, дом 20, корпус 4, строение 1",Академический район,Юго-Западный административный округ,37.588392570395,55.68207433363499,1906103.6664916258,6404573.038807341
24,96,96,Кондитерская,Магазин «Продукты»,,нет,реализация продовольственных товаров,"город Москва, улица Академика Волгина, дом 8А",Обручевский район,Юго-Западный административный округ,37.517178674020684,55.6515525766795,1902892.203351527,6399793.319622631
25,163,163,Магазин « Продукты»,Магазин «Продукты»,,нет,реализация продовольственных товаров,"город Москва, поселение Новофедоровское, деревня Яковлевское, Торговая площадь, дом 14",поселение Новофедоровское,Троицкий административный округ,36.937682,55.465585,1874198.948652049,6367763.585918818
26,173,173,Продукты,Магазин «Продукты»,,нет,реализация продовольственных товаров,"город Москва, Беловежская улица, дом 17, строение 2",Можайский район,Западный административный округ,37.39539840440245,55.714099542663824,1893168.0281117782,6404005.888216414
27,218,218,Магазин «Продукты»,Магазин «Продукты»,,нет,реализация продовольственных товаров,"город Москва, Ягодная улица, дом 6",район Бирюлёво Восточное,Южный административный округ,37.67396885039077,55.575564688697796,1915275.330441396,6394886.360274522
28,246,246,Магазин «Продукты»,Магазин «Продукты»,,нет,реализация продовольственных товаров,"город Москва, Бирюлёвская улица, владение 29Б",район Бирюлёво Восточное,Южный административный округ,37.665368418018254,55.591620557352975,1914153.6169302643,6396436.371163103
29,247,247,Кулинария,Магазин «Продукты»,,нет,реализация продовольственных товаров,"город Москва, улица 10-летия Октября, дом 9",район Хамовники,Центральный административный округ,37.56311017972957,55.725537896071465,1902954.8362996785,6408730.208119549
30,256,256,Магазин «Продукты. Хозтовыры»,Магазин «Продукты»,,нет,реализация продовольственных товаров,"город Москва, улица Бехтерева, дом 31, корпус 4",район Царицыно,Южный административный округ,37.64721341750185,55.62198956805371,1911917.787668401,6399328.7625027
31,274,274,Продукты,Магазин «Продукты»,,нет,реализация продовольственных товаров,"город Москва, улица Радио, дом 14А, строение 2",Басманный район,Центральный административный округ,37.679511,55.762662,1908653.8650200532,6415169.456062202
32,276,276,Продукты,Магазин «Продукты»,,нет,реализация продовольственных товаров,"город Москва, 3-й Лихачёвский переулок, дом 3, корпус 1",Головинский район,Северный административный округ,37.515703,55.84815,1895538.2355910828,6420959.775517064
33,278,278,Белорусское поддворье,Магазин «Продукты»,,нет,реализация продовольственных товаров,"город Москва, Жулебинский бульвар, дом 9",район Выхино-Жулебино,Юго-Восточный административный округ,37.847832430198466,55.69819589796383,1921296.1596826296,6411772.840562778
34,280,280,Продукты,Магазин «Продукты»,,нет,реализация продовольственных товаров,"город Москва, Криворожская улица, дом 25",Нагорный район,Южный административный округ,37.6099559135498,55.66882861374809,1907908.3173724904,6403596.64270068
35,283,283,ВАШ МАГАЗИН ПРОДУКТЫ,Магазин «Продукты»,,нет,реализация продовольственных товаров,"город Москва, Чукотский проезд, дом 2",Бабушкинский район,Северо-Восточный административный округ,37.65166632747032,55.86628281634971,1903106.924541041,6425751.269656
36,284,284,Продукты,Магазин «Продукты»,,нет,реализация продовольственных товаров,"город Москва, улица Академика Анохина, дом 4, корпус 2",район Тропарёво-Никулино,Западный административный округ,37.47185523502603,55.66969729627517,1899459.7262544641,6400805.288430364
37,296,296,Магазин «Продукты»,Магазин «Продукты»,,нет,реализация продовольственных товаров,"город Москва, Абельмановская улица, дом 6",Таганский район,Центральный административный округ,37.66959304732771,55.73557638604815,1909059.1423530718,6412042.319979602
38,306,306,ПРОДУКТЫ,Магазин «Продукты»,,нет,реализация продовольственных товаров,"город Москва, Абрамцевская улица, дом 3",район Лианозово,Северо-Восточный административный округ,37.573391100449705,55.895593666049,1897276.659866794,6427274.646851483
39,308,308,ПРОДУКТЫ,Магазин «Продукты»,,нет,реализация продовольственных товаров,"город Москва, Абрамцевская улица, дом 9, корпус 1",район Лианозово,Северо-Восточный административный округ,37.57238263056507,55.90449793832045,1896885.26287182,6428213.180727097
40,333,333,Молочная продукция,Магазин «Продукты»,,нет,реализация продовольственных товаров,"город Москва, Авиамоторная улица, дом 47",район Лефортово,Юго-Восточный административный округ,37.718474071807925,55.750211166145725,1911485.4387346925,6414646.551332697
41,335,335,Продукты,Магазин «Продукты»,,нет,реализация продовольственных товаров,"город Москва, Авиамоторная улица, дом 47",район Лефортово,Юго-Восточный административный округ,37.718474071807925,55.750211166145725,1911485.4387346925,6414646.551332697
42,341,341,Продукты,Магазин «Продукты»,,нет,реализация продовольственных товаров,"город Москва, Авиамоторная улица, дом 47",район Лефортово,Юго-Восточный административный округ,37.718927,55.749976000000004,1911521.7349009672,6414630.739063531
43,347,347,Продукты,Магазин «Продукты»,,нет,реализация продовольственных товаров,"город Москва, улица Авиаторов, дом 14",район Солнцево,Западный административный округ,37.3981309999999,55.6451229999999,1895867.463666254,6396621.52168084
44,352,352,КНТ Люкс «Продукты»,Магазин «Продукты»,,нет,реализация продовольственных товаров,"город Москва, улица Авиаторов, дом 16",район Солнцево,Западный административный округ,37.399246999999995,55.645352998999996,1895927.1098514316,6396669.5053034015
45,353,353,Торовый Дом Галина,Магазин «Продукты»,,нет,реализация продовольственных товаров,"город Москва, улица Авиаторов, дом 18",район Солнцево,Западный административный округ,37.399803999999996,55.64459,1895989.1061533752,6396598.753171752
46,363,363,Продукты,Магазин «Продукты»,,нет,реализация продовольственных товаров,"город Москва, Автозаводская улица, дом 7",Даниловский район,Южный административный округ,37.66041340114752,55.70784404459576,1909532.1987021838,6408860.7013889225
47,374,374,Продукты,Магазин «Продукты»,,нет,реализация продовольственных товаров,"город Москва, 2-й Автозаводский проезд, дом 5",Даниловский район,Южный административный округ,37.66007606534561,55.70594472740336,1909582.2863508242,6408648.906371296
48,381,381,Продукты,Магазин «Продукты»,,нет,реализация продовольственных товаров,"город Москва, Азовская улица, дом 29, корпус 1",район Зюзино,Юго-Западный административный округ,37.59980035373393,55.650319418930756,1907975.4629100596,6401388.2865984375
49,382,382,ДЕРЖАВА,Магазин «Продукты»,,нет,реализация продовольственных товаров,"город Москва, улица Айвазовского, дом 2",район Ясенево,Юго-Западный административный округ,37.5412341581413,55.6192587891041,1905552.3451511168,6396813.136145528
50,389,389,Продукты,Магазин «Продукты»,,нет,реализация продовольственных товаров,"город Москва, Большая Академическая улица, дом 12/18, корпус 1",район Коптево,Северный административный округ,37.5258422843092,55.8206980982568,1897168.7107988272,6418211.580658936
51,392,392,Продукты,Магазин «Продукты»,,нет,реализация продовольственных товаров,"город Москва, Большая Академическая улица, дом 12/18, корпус 1",район Коптево,Северный административный округ,37.525842284309256,55.82069809825694,1897168.7107988258,6418211.580658953
52,402,402,Продукты,Магазин «Продукты»,,нет,реализация продовольственных товаров,"город Москва, улица Алабяна, дом 10, корпус 1",район Сокол,Северный административный округ,37.50408232868874,55.8006589255604,1896588.528884168,6415598.248138675
53,403,403,Продукты,Магазин «Продукты»,,нет,реализация продовольственных товаров,"город Москва, улица Алабяна, дом 10, корпус 2",район Сокол,Северный административный округ,37.50354097741168,55.800122880565006,1896575.4585864441,6415529.190173922
54,408,408,Продукты,Магазин «Продукты»,,нет,реализация продовольственных товаров,"город Москва, Алтуфьевское шоссе, дом 12",район Отрадное,Северо-Восточный административный округ,37.58570570889055,55.85451132794646,1899546.970910379,6423104.173295585
55,409,409,Продукты,Магазин «Продукты»,,нет,реализация продовольственных товаров,"город Москва, Алтуфьевское шоссе, дом 24",район Отрадное,Северо-Восточный административный округ,37.586187585593976,55.86201286255104,1899297.821879426,6423922.665827496
56,422,422,продукты,Магазин «Продукты»,,нет,реализация продовольственных товаров,"город Москва, Алтуфьевское шоссе, дом 74",район Бибирево,Северо-Восточный административный округ,37.58878335225451,55.8906516385136,1898392.131189924,6427063.064535557
57,431,431,Продукты,Магазин «Продукты»,,нет,реализация продовольственных товаров,"город Москва, Алтуфьевское шоссе, дом 86",район Бибирево,Северо-Восточный административный округ,37.589120964425256,55.897515479664705,1898157.7579958285,6427809.7499983
58,432,432,Продукты,Магазин «Продукты»,,нет,реализация продовольственных товаров,"город Москва, Алтуфьевское шоссе, дом 88",район Бибирево,Северо-Восточный административный округ,37.589307734485004,55.89881949838313,1898120.652473861,6427954.164599769
59,438,438,ПРОДУКТЫ,Магазин «Продукты»,,нет,реализация продовольственных товаров,"город Москва, Алтуфьевское шоссе, дом 89А",район Лианозово,Северо-Восточный административный округ,37.58340062697231,55.894474924998605,1897924.2666552986,6427362.789081981
60,440,440,продукты,Магазин «Продукты»,,нет,реализация продовольственных товаров,"город Москва, Алтуфьевское шоссе, дом 92",район Бибирево,Северо-Восточный административный округ,37.589098412728184,55.90074993470653,1898036.308814772,6428157.817861129
61,446,446,ПРОДУКТЫ,Магазин «Продукты»,,нет,реализация продовольственных товаров,"город Москва, Алтуфьевское шоссе, дом 97",район Лианозово,Северо-Восточный административный округ,37.58589336333058,55.903821940146216,1897728.2353254848,6428422.004136237
62,449,449,Актив,Магазин «Продукты»,,нет,реализация продовольственных товаров,"город Москва, улица Амундсена, дом 14",район Свиблово,Северо-Восточный административный округ,37.65655352342856,55.85429178054271,1903849.4248439975,6424561.602001058
63,452,452,Продукты,Магазин «Продукты»,,нет,реализация продовольственных товаров,"город Москва, улица Амундсена, дом 15, корпус 2",район Свиблово,Северо-Восточный административный округ,37.65440276586865,55.85360577781658,1903744.6094483281,6424442.654136622
64,454,454,Продукты,Магазин «Продукты»,,нет,реализация продовольственных товаров,"город Москва, улица Амундсена, дом 19",район Свиблово,Северо-Восточный административный округ,37.65525171566081,55.85468013403183,1903756.070925604,6424576.187667406
65,456,456,МАГАЗИН «ПРОДУКТЫ»,Магазин «Продукты»,,нет,реализация продовольственных товаров,"город Москва, Анадырский проезд, дом 9",Бабушкинский район,Северо-Восточный административный округ,37.67978519837753,55.8615068312113,1904988.4756541816,6425825.646386199
66,463,463,ЗЕЛЕНЫЕ СТУПЕНЬКИ,Магазин «Продукты»,,нет,реализация продовольственных товаров,"город Москва, Анадырский проезд, дом 63",Лосиноостровский район,Северо-Восточный административный округ,37.7079629999999,55.88009,1906002.1591675063,6428418.470264628
67,464,464,Продукты,Магазин «Продукты»,,нет,реализация продовольственных товаров,"город Москва, Анадырский проезд, дом 69",Лосиноостровский район,Северо-Восточный административный округ,37.710472999000004,55.8815529999999,1906099.5344952918,6428628.728356845
68,470,470,Рыба,Магазин «Продукты»,,нет,реализация продовольственных товаров,"город Москва, Ангарская улица, дом 1",район Западное Дегунино,Северный административный округ,37.5020840161791,55.87372327344141,1893767.0112606918,6423433.238015898
69,471,471,Продукты,Магазин «Продукты»,,нет,реализация продовольственных товаров,"город Москва, Ангарская улица, дом 1",район Западное Дегунино,Северный административный округ,37.5020840161791,55.87372327344141,1893767.0112606918,6423433.238015898
70,488,488,ОЛЬГА И К-97,Магазин «Продукты»,,нет,реализация продовольственных товаров,"город Москва, Анненская улица, дом 5",район Марьина Роща,Северо-Восточный административный округ,37.60876968322951,55.8027149991569,1902868.5177934659,6418003.755577795
71,496,496,Кондитерские изделия,Магазин «Продукты»,,нет,реализация продовольственных товаров,"город Москва, проспект Андропова, дом 21",район Нагатинский Затон,Южный административный округ,37.665462272875146,55.679149331580675,1910906.4453702013,6405873.867452342
72,508,508,Табак,Магазин «Продукты»,,нет,реализация продовольственных товаров,"город Москва, проспект Андропова, дом 28",район Нагатино-Садовники,Южный административный округ,37.662628386825034,55.679984020740875,1910702.8206619755,6405904.308264219
73,514,514,Магазин «Продукты»,Магазин «Продукты»,,нет,реализация продовольственных товаров,"город Москва, проспект Андропова, дом 38",район Нагатино-Садовники,Южный административный округ,37.661558054549495,55.6736623403271,1910872.6225170398,6405200.414235929
74,516,516,Магазин «Продукты»,Магазин «Продукты»,,нет,реализация продовольственных товаров,"город Москва, улица Академика Анохина, дом 6, корпус 1",район Тропарёво-Никулино,Западный административный округ,37.4717823960395,55.668779094968606,1899489.11745972,6400704.738406017
75,560,560,Магазин «ПРОДУКТЫ»,Магазин «Продукты»,,нет,реализация продовольственных товаров,"город Москва, Аргуновская улица, дом 10, корпус 2",Останкинский район,Северо-Восточный административный округ,37.622625047934186,55.81614022340435,1903210.7943264626,6419740.403049569
76,563,563,Продукты,Магазин «Продукты»,,нет,реализация продовольственных товаров,"город Москва, Армавирская улица, дом 27/23",район Люблино,Юго-Восточный административный округ,37.75279460413383,55.671779182721004,1916499.6990965381,6406917.9909021575
77,567,567,Продукты,Магазин «Продукты»,,нет,реализация продовольственных товаров,"город Москва, улица Артамонова, дом 7, корпус 1",район Фили-Давыдково,Западный административный округ,37.45874794548814,55.71870655589554,1896855.6364579976,6405818.259260361
78,569,569,БИЛЕТ-КЛИЕНТ,Магазин «Продукты»,,нет,реализация продовольственных товаров,"город Москва, Артековская улица, дом 7, корпус 2",Нагорный район,Южный административный округ,37.61450000000001,55.64950072663817,1908901.9748557732,6401608.141470224
79,570,570,Продуктовая Аптека,Магазин «Продукты»,,нет,реализация продовольственных товаров,"город Москва, улица Артюхиной, дом 8/10",район Текстильщики,Юго-Восточный административный округ,37.737198226306326,55.70091061377161,1914463.1292546075,6409728.3628399
80,574,574,Продукты,Магазин «Продукты»,,нет,реализация продовольственных товаров,"город Москва, улица Артюхиной, дом 26А",район Текстильщики,Юго-Восточный административный округ,37.738182873197225,55.69470497264168,1914754.5814337987,6409080.3995169075
81,580,580,Продукты,Магазин «Продукты»,,нет,реализация продовольственных товаров,"город Москва, Астраханский переулок, дом 1/15",Мещанский район,Центральный административный округ,37.63991142119727,55.77744814409546,1905698.134463871,6415932.460489758
82,584,584,Магазин Продукты,Магазин «Продукты»,,нет,реализация продовольственных товаров,"город Москва, проезд Аэропорта, дом 11",Хорошёвский район,Северный административный округ,37.52218763808832,55.79682237337124,1897829.845808719,6415561.590133955
83,585,585,Мёд,Магазин «Продукты»,,нет,реализация продовольственных товаров,"город Москва, 1-я Аэропортовская улица, дом 6",район Аэропорт,Северный административный округ,37.5367173181601,55.8013213556637,1898545.7471924468,6416349.3348661885
84,589,589,Продукты,Магазин «Продукты»,,нет,реализация продовольственных товаров,"город Москва, Аэрофлотская улица, дом 10/13",район Внуково,Западный административный округ,37.293132980524014,55.6121085530401,1890666.098343919,6390883.8730771635
85,590,590,ПРОДУКТЫ,Магазин «Продукты»,,нет,реализация продовольственных товаров,"город Москва, улица Ивана Бабушкина, дом 11/2",Академический район,Юго-Западный административный округ,37.563680999,55.686374,1904439.217788268,6404519.659163278
86,611,611,МАГАЗИН «ПРОДУКТЫ»,Магазин «Продукты»,,нет,реализация продовольственных товаров,"город Москва, улица Лётчика Бабушкина, дом 31",Бабушкинский район,Северо-Восточный административный округ,37.675002,55.870435,1904365.9838268168,6426687.298923733
87,614,614,ПРОДУКТЫ,Магазин «Продукты»,,нет,реализация продовольственных товаров,"город Москва, улица Лётчика Бабушкина, дом 33",Бабушкинский район,Северо-Восточный административный округ,37.672179,55.87198479125986,1904137.2363100448,6426795.1258805925
88,624,624,Продукты,Магазин «Продукты»,,нет,реализация продовольственных товаров,"город Москва, улица Багрицкого, дом 3, корпус 1",Можайский район,Западный административный округ,37.43715464027607,55.72396596540287,1895347.5143774615,6405936.702512521
89,625,625,БИМ,Магазин «Продукты»,,нет,реализация продовольственных товаров,"город Москва, улица Багрицкого, дом 8",Можайский район,Западный административный округ,37.436308999,55.72289299999989,1895335.528482227,6405803.413312199
90,626,626,Продукты,Магазин «Продукты»,,нет,реализация продовольственных товаров,"город Москва, улица Багрицкого, дом 8",Можайский район,Западный административный округ,37.436244,55.723110999999996,1895323.548660551,6405825.575358652
91,650,650,Магазин «Продукты»,Магазин «Продукты»,,нет,реализация продовольственных товаров,"город Москва, Бакинская улица, дом 20",район Царицыно,Южный административный округ,37.6564511285846,55.6221667432123,1912474.7451778909,6399541.982200445
92,661,661,Продукты,Магазин «Продукты»,,нет,реализация продовольственных товаров,"город Москва, Бакунинская улица, дом 44-48, строение 1",Басманный район,Центральный административный округ,37.68761019506843,55.77638550591888,1908634.764716308,6416818.318876341
93,663,663,Магазин «Продукты»,Магазин «Продукты»,,нет,реализация продовольственных товаров,"город Москва, Балаклавский проспект, дом 3",район Чертаново Северное,Южный административный округ,37.61222152999817,55.639782304299146,1909123.3909354375,6400512.5792361675
94,669,669,Анфиса,Магазин «Продукты»,,нет,реализация продовольственных товаров,"город Москва, 2-й Балтийский переулок, дом 1/18, корпус А",район Аэропорт,Северный административный округ,37.5229522214951,55.8074372185009,1897483.749433129,6416721.849749805
95,670,670,Балтийский берег,Магазин «Продукты»,,нет,реализация продовольственных товаров,"город Москва, 3-й Балтийский переулок, дом 4, корпус 5",район Аэропорт,Северный административный округ,37.527712859142646,55.810754679160034,1897650.0626641498,6417178.63701763
96,671,671,Продукты,Магазин «Продукты»,,нет,реализация продовольственных товаров,"город Москва, улица Барболина, дом 4",район Сокольники,Восточный административный округ,37.6866754603894,55.7872018083492,1908175.0672482853,6417964.198002477
97,704,704,Продукты,Магазин «Продукты»,,нет,реализация продовольственных товаров,"город Москва, Беговая улица, дом 4",район Беговой,Северный административный округ,37.555159,55.7757009999999,1900614.200393283,6413972.051214885
98,707,707,Продукты,Магазин «Продукты»,,нет,реализация продовольственных товаров,"город Москва, Беговая улица, дом 11",район Беговой,Северный административный округ,37.5572909264996,55.77969409432671,1900595.874213919,6414446.99720917
99,708,708,Продукты питания,Магазин «Продукты»,,нет,реализация продовольственных товаров,"город Москва, Беговая улица, дом 11",район Беговой,Северный административный округ,37.5572952257228,55.779708810363296,1900595.59046794,6414448.67330479
100,722,722,ПРОДУКТЫ,Магазин «Продукты»,,нет,реализация продовольственных товаров,"город Москва, улица Демьяна Бедного, дом 1, корпус 3",район Хорошёво-Мнёвники,Северо-Западный административный округ,37.484700999,55.771138,1896501.0857518308,6412012.079533021
101,736,736,Продукты,Магазин «Продукты»,,нет,реализация продовольственных товаров,"город Москва, Беломорская улица, дом 26",район Левобережный,Северный административный округ,37.47577480841369,55.86478544999321,1892502.539154228,6421923.2204131475
102,747,747,Продукты 24 часа,Магазин «Продукты»,,нет,реализация продовольственных товаров,"город Москва, Бескудниковский бульвар, дом 40, корпус 2",Бескудниковский район,Северный административный округ,37.550321156543866,55.87404358492298,1896678.2249697559,6424471.447895101
103,748,748,Продукты,Магазин «Продукты»,,нет,реализация продовольственных товаров,"город Москва, Бескудниковский бульвар, дом 46, корпус 1",Бескудниковский район,Северный административный округ,37.54382914202549,55.873809721613476,1896293.5127463846,6424311.031016036
104,749,749,Продукты,Магазин «Продукты»,,нет,реализация продовольственных товаров,"город Москва, Бескудниковский бульвар, дом 48, корпус 1",Бескудниковский район,Северный административный округ,37.54091018964748,55.87361106769376,1896123.9962723854,6424228.838990823
105,750,750,Продукты,Магазин «Продукты»,,нет,реализация продовольственных товаров,"город Москва, Бескудниковский бульвар, дом 49",Бескудниковский район,Северный административный округ,37.54454117869601,55.87254898225485,1896383.357553476,6424189.97672447
106,761,761,ПРОДУКТЫ,Магазин «Продукты»,,нет,реализация продовольственных товаров,"город Москва, улица Маршала Бирюзова, дом 4, корпус 1",район Щукино,Северо-Западный административный округ,37.49945574854338,55.79082666200954,1896670.7412964844,6414441.913855127
107,762,762,"Продукты,Цветы,Пивной грот",Магазин «Продукты»,,нет,реализация продовольственных товаров,"город Москва, улица Маршала Бирюзова, дом 10, корпус 1",район Щукино,Северо-Западный административный округ,37.49549151395173,55.79283824022336,1896355.6477190037,6414576.308615059
108,767,767,КУЛИНАРИЯ ЛЯ ФАНТАЗИ,Магазин «Продукты»,,нет,реализация продовольственных товаров,"город Москва, улица Маршала Бирюзова, дом 13",район Щукино,Северо-Западный административный округ,37.494908652075424,55.79219059749176,1896344.1595526696,6414494.355322298
109,775,775,Алкомаркет,Магазин «Продукты»,,нет,реализация продовольственных товаров,"город Москва, улица Маршала Бирюзова, дом 16",район Щукино,Северо-Западный административный округ,37.491940782413344,55.79490967992716,1896063.4826040168,6414725.778257848
110,795,795,ПРОДУКТЫ,Магазин «Продукты»,,нет,реализация продовольственных товаров,"город Москва, улица Маршала Бирюзова, дом 19",район Щукино,Северо-Западный административный округ,37.49093159396975,55.79427723748157,1896025.536099628,6414636.59792212
111,796,796,ОРГАНИКМАРКЕТ,Магазин «Продукты»,,нет,реализация продовольственных товаров,"город Москва, улица Маршала Бирюзова, дом 19",район Щукино,Северо-Западный административный округ,37.49093159396975,55.79427723748157,1896025.536099628,6414636.59792212
112,797,797,ФЕРМЕРСКИЙ ДВОРИК,Магазин «Продукты»,,нет,реализация продовольственных товаров,"город Москва, улица Маршала Бирюзова, дом 19",район Щукино,Северо-Западный административный округ,37.49112002224252,55.79437883066589,1896033.230299131,6414651.470874867
113,809,809,Магазин «Продукты»,Магазин «Продукты»,,нет,реализация продовольственных товаров,"город Москва, Бирюлёвская улица, дом 52, корпус 1",район Бирюлёво Восточное,Южный административный округ,37.667301949672606,55.58445497670611,1914537.867483296,6395704.523409298
114,814,814,Продукты Арк и Г,Магазин «Продукты»,,нет,реализация продовольственных товаров,"город Москва, улица Богданова, дом 58",район Солнцево,Западный административный округ,37.39208,55.6481009999999,1895388.9759778504,6396817.204398484
115,819,819,Продукты,Магазин «Продукты»,,нет,реализация продовольственных товаров,"город Москва, улица Боженко, дом 14, корпус 1",район Кунцево,Западный административный округ,37.40632105356107,55.732594974313095,1893153.4050413768,6406227.423776895
116,824,824,Минимаркет,Магазин «Продукты»,,нет,реализация продовольственных товаров,"город Москва, Бойцовая улица, дом 17, корпус 1",район Богородское,Восточный административный округ,37.71822727443686,55.811769505527884,1909173.97349375,6421273.890401714
117,825,825,Магазин «Продукты у дома»,Магазин «Продукты»,,нет,реализация продовольственных товаров,"город Москва, Болотниковская улица, дом 1, корпус 2",Нагорный район,Южный административный округ,37.617833365045705,55.655442191685104,1908884.829802724,6402318.596454115
118,826,826,Продукты,Магазин «Продукты»,,нет,реализация продовольственных товаров,"город Москва, Болотниковская улица, дом 35/2",район Зюзино,Юго-Западный административный округ,37.58063671751162,55.65192003668459,1906747.8417673674,6401159.494212314
119,827,827,Продукты,Магазин «Продукты»,,нет,реализация продовольственных товаров,"город Москва, Болотниковская улица, дом 35/2",район Зюзино,Юго-Западный административный округ,37.58063671751162,55.65192003668459,1906747.8417673674,6401159.494212314
120,828,828,Продукты,Магазин «Продукты»,,нет,реализация продовольственных товаров,"город Москва, Болотниковская улица, дом 45, корпус 3",район Зюзино,Юго-Западный административный округ,37.5837787548145,55.66037874711773,1906626.1599107946,6402137.306970018
121,833,833,Магазин «Продукты»,Магазин «Продукты»,,нет,реализация продовольственных товаров,"город Москва, улица Борисовские Пруды, дом 13, корпус 2",район Москворечье-Сабурово,Южный административный округ,37.71926625544104,55.63688700909354,1915757.8917372148,6402450.733851913
122,835,835,Магазин «Продукты»,Магазин «Продукты»,,нет,реализация продовольственных товаров,"город Москва, улица Борисовские Пруды, дом 20, корпус 1",район Братеево,Южный административный округ,37.75176253235057,55.63846441186511,1917680.094664359,6403306.062924008
123,838,838,Магазин «Продукты»,Магазин «Продукты»,,нет,реализация продовольственных товаров,"город Москва, улица Борисовские Пруды, дом 32",район Братеево,Южный административный округ,37.762788156537695,55.641156465428296,1918251.6713024012,6403828.923902625
124,839,839,Магазин «Продукты»,Магазин «Продукты»,,нет,реализация продовольственных товаров,"город Москва, улица Борисовские Пруды, дом 34, корпус 1",район Братеево,Южный административный округ,37.763481068484715,55.6417702806143,1918270.9885022573,6403909.70197823
125,841,841,Магазин «Продукты»,Магазин «Продукты»,,нет,реализация продовольственных товаров,"город Москва, улица Борисовские Пруды, дом 38",район Братеево,Южный административный округ,37.76588813050365,55.64220683282854,1918401.3959316527,6404007.574135828
126,842,842,Магазин «АМИКРОН»,Магазин «Продукты»,,нет,реализация продовольственных товаров,"город Москва, улица Борисовские Пруды, дом 46, корпус 2",район Братеево,Южный административный округ,37.77314253609458,55.642213631501924,1918843.276394072,6404161.524550095
127,843,843,Магазин «Продукты»,Магазин «Продукты»,,нет,реализация продовольственных товаров,"город Москва, улица Борисовские Пруды, дом 48, корпус 2",район Братеево,Южный административный округ,37.77480561320547,55.64180217357804,1918960.0037070927,6404152.318166821
128,849,849,Магазин «Продукты»,Магазин «Продукты»,,нет,реализация продовольственных товаров,"город Москва, Борисовский проезд, дом 38, корпус 1",район Орехово-Борисово Северное,Южный административный округ,37.72750309697218,55.61725559097847,1916991.6511292437,6400508.470692049
129,854,854,Продукты,Магазин «Продукты»,,нет,реализация продовольственных товаров,"город Москва, Боровское шоссе, дом 19",район Ново-Переделкино,Западный административный округ,37.37153146804575,55.64653581901069,1894192.684184905,6396222.0639747325
130,855,855,Продукты,Магазин «Продукты»,,нет,реализация продовольственных товаров,"город Москва, Боровское шоссе, дом 21",район Ново-Переделкино,Западный административный округ,37.370040649394795,55.6465060945222,1894102.8109601212,6396187.945856736
131,868,868,Продукты,Магазин «Продукты»,,нет,реализация продовольственных товаров,"город Москва, 2-й Ботанический проезд, дом 6",район Свиблово,Северо-Восточный административный округ,37.63876106355196,55.851037040028274,1902892.11912968,6423838.485654647
132,872,872,ПРОДУКТЫ,Магазин «Продукты»,,нет,реализация продовольственных товаров,"город Москва, улица Академика Бочвара, дом 15",район Щукино,Северо-Западный административный округ,37.4560284208626,55.80285323884893,1893589.236519296,6414835.92075477
133,875,875,Магазин «Продукты»,Магазин «Продукты»,,нет,реализация продовольственных товаров,"город Москва, Братеевская улица, дом 21, корпус 1",район Братеево,Южный административный округ,37.751973180677794,55.63340221915958,1917881.81452373,6402764.958070378
134,893,893,Продукты,Магазин «Продукты»,,нет,реализация продовольственных товаров,"город Москва, Бронницкий переулок, дом 2",Нижегородский район,Юго-Восточный административный округ,37.751223502571726,55.73014479875565,1914225.0212022213,6413173.926938401
135,894,894,Гастроном 24 часа,Магазин «Продукты»,,нет,реализация продовольственных товаров,"город Москва, Брянская улица, дом 12",район Дорогомилово,Западный административный округ,37.55842992875615,55.7448055022501,1901956.8521069684,6410709.671788086
136,895,895,Магазин Продукты,Магазин «Продукты»,,нет,реализация продовольственных товаров,"город Москва, Брянская улица, дом 12",район Дорогомилово,Западный административный округ,37.55842992875615,55.7448055022501,1901956.8521069684,6410709.671788086
137,901,901,Продукты,Магазин «Продукты»,,нет,реализация продовольственных товаров,"город Москва, проспект Будённого, дом 11",район Соколиная Гора,Восточный административный округ,37.72275087955372,55.776749925866774,1910755.2647666256,6417595.986170545
138,902,902,Соседи,Магазин «Продукты»,,нет,реализация продовольственных товаров,"город Москва, проспект Будённого, дом 15/2",район Соколиная Гора,Восточный административный округ,37.723872107923654,55.77567164521404,1910863.5868749272,6417503.388433505
139,903,903,Продукты,Магазин «Продукты»,,нет,реализация продовольственных товаров,"город Москва, проспект Будённого, дом 23",район Соколиная Гора,Восточный административный округ,37.72849531636921,55.771154617675506,1911312.9189978347,6417113.954907497
140,907,907,Продукты,Магазин «Продукты»,,нет,реализация продовольственных товаров,"город Москва, проспект Будённого, дом 28, корпус 2",район Соколиная Гора,Восточный административный округ,37.73332950478459,55.76291014836447,1911914.255446836,6416327.385698725
141,912,912,Молоко,Магазин «Продукты»,,нет,реализация продовольственных товаров,"город Москва, Буженинова улица, дом 22",район Преображенское,Восточный административный округ,37.708861492734606,55.790139582087,1909412.4925133844,6418746.678252492
142,913,913,Магазин «Продукты»,Магазин «Продукты»,,нет,реализация продовольственных товаров,"город Москва, Булатниковская улица, дом 1, корпус 1",район Бирюлёво Западное,Южный административный округ,37.65828514001092,55.57874569400664,1914199.2455142147,6394899.288577635
143,914,914,Магазин «КОНТРАКТ»,Магазин «Продукты»,,нет,реализация продовольственных товаров,"город Москва, Булатниковская улица, дом 1, корпус 1А",район Бирюлёво Западное,Южный административный округ,37.658095,55.579181999999996,1914171.431823363,6394942.329850722
144,915,915,Магазин «Продукты»,Магазин «Продукты»,,нет,реализация продовольственных товаров,"город Москва, Булатниковский проезд, дом 2В, корпус 4",район Бирюлёво Западное,Южный административный округ,37.64901075459355,55.59576465278346,1913001.0679420219,6396539.179485
145,916,916,Магазин «Продукты»,Магазин «Продукты»,,нет,реализация продовольственных товаров,"город Москва, Булатниковский проезд, дом 2В, корпус 4",район Бирюлёво Западное,Южный административный округ,37.6491447912291,55.59572065816771,1913010.883963971,6396537.253662061
146,917,917,Магазин «Продукты»,Магазин «Продукты»,,нет,реализация продовольственных товаров,"город Москва, Булатниковский проезд, дом 2В, корпус 5",район Бирюлёво Западное,Южный административный округ,37.648608349425395,55.59633898744679,1912955.181406597,6396592.642846611
147,918,918,Продукты,Магазин «Продукты»,,нет,реализация продовольственных товаров,"город Москва, Буракова улица, дом 13",район Соколиная Гора,Восточный административный округ,37.730006,55.762682,1911720.87343174,6416232.867748784
148,926,926,Продукты,Магазин «Продукты»,,нет,реализация продовольственных товаров,"город Москва, Бутырская улица, дом 2/18",Бутырский район,Северо-Восточный административный округ,37.58652149442232,55.794355284041,1901827.9577783968,6416637.716861966
149,940,940,Продукты,Магазин «Продукты»,,нет,реализация продовольственных товаров,"город Москва, Бутырская улица, дом 91",Савёловский район,Северный административный округ,37.58097897267882,55.806266172885415,1901049.7711468048,6417805.759198776
150,961,961,Гастроном-21,Магазин «Продукты»,,нет,реализация продовольственных товаров,"город Москва, улица Вавилова, дом 60, корпус 4",Гагаринский район,Юго-Западный административный округ,37.55302719437019,55.68856969501752,1903709.0538025748,6404533.723462243
151,963,963,Айс фуд,Магазин «Продукты»,,нет,реализация продовольственных товаров,"город Москва, улица Вавилова, дом 91, корпус 1",Ломоносовский район,Юго-Западный административный округ,37.54644685237164,55.67786897003466,1903703.9319900826,6403242.414054995
152,972,972,Магазин «ПРОДУКТЫ»,Магазин «Продукты»,,нет,реализация продовольственных товаров,"город Москва, Варшавское шоссе, дом 2",Донской район,Южный административный округ,37.620280998009996,55.70044399262797,1907364.37668878,6407221.2767985575
153,975,975,Магазин «Полтекс»,Магазин «Продукты»,,нет,реализация продовольственных товаров,"город Москва, Варшавское шоссе, дом 10, корпус 4",Донской район,Южный административный округ,37.617345021311664,55.69803704115658,1907274.952981277,6406900.285184268
154,980,980,Магазин «Алёнка - 2000»,Магазин «Продукты»,,нет,реализация продовольственных товаров,"город Москва, Варшавское шоссе, дом 18, корпус 2",Донской район,Южный административный округ,37.62019167560202,55.691280762756655,1907698.9674109812,6406231.618227816
155,986,986,Продукты,Магазин «Продукты»,,нет,реализация продовольственных товаров,"город Москва, Варшавское шоссе, дом 64, корпус 1",Нагорный район,Южный административный округ,37.61869265103251,55.660620017112045,1908745.1505205345,6402894.8324606735
156,1006,1006,Продукты,Магазин «Продукты»,,нет,реализация продовольственных товаров,"город Москва, Варшавское шоссе, дом 100",Нагорный район,Южный административный округ,37.61892131860788,55.6460467567175,1909299.6187598584,6401328.480874523
157,1011,1011,Магазин «ПРОДУКТЫ»,Магазин «Продукты»,,нет,реализация продовольственных товаров,"город Москва, Варшавское шоссе, дом 122",район Чертаново Северное,Южный административный округ,37.61582698256619,55.62917079117672,1909736.7161921929,6399444.098412823
158,1012,1012,Магазин «Продукты»,Магазин «Продукты»,,нет,реализация продовольственных товаров,"город Москва, Варшавское шоссе, дом 145, корпус 1",район Чертаново Южное,Южный административный округ,37.597959,55.580692000000006,1910442.3062143968,6393841.994235705
159,1013,1013,Магазин «Продукты»,Магазин «Продукты»,,нет,реализация продовольственных товаров,"город Москва, Варшавское шоссе, дом 158, корпус 1",район Чертаново Южное,Южный административный округ,37.5964529999999,55.585287,1910180.171332721,6394305.911140372
160,1017,1017,Продукты от производителей,Магазин «Продукты»,,нет,реализация продовольственных товаров,"город Москва, улица Маршала Василевского, дом 13, корпус 1",район Щукино,Северо-Западный административный округ,37.466266393865524,55.80672920123419,1894068.0464986654,6415466.471845395
161,1027,1027,Стимул,Магазин «Продукты»,,нет,реализация продовольственных товаров,"город Москва, улица Ватутина, дом 7, корпус 1",район Фили-Давыдково,Западный административный округ,37.4557990347282,55.72158206309239,1896570.1969003638,6406067.059567948
162,1028,1028,МЕГ,Магазин «Продукты»,,нет,реализация продовольственных товаров,"город Москва, улица Ватутина, дом 7, корпус 1",район Фили-Давыдково,Западный административный округ,37.45579903472825,55.72158206309244,1896570.1969003645,6406067.0595679525
163,1030,1030,Продукты,Магазин «Продукты»,,нет,реализация продовольственных товаров,"город Москва, улица Ватутина, дом 18",район Фили-Давыдково,Западный административный округ,37.4527878304326,55.7215244678269,1896389.021134888,6405998.246082674
164,1031,1031,Дерби,Магазин «Продукты»,,нет,реализация продовольственных товаров,"город Москва, улица Ватутина, дом 18",район Фили-Давыдково,Западный административный округ,37.4527878304326,55.7215244678269,1896389.021134888,6405998.246082674
165,1033,1033,Аромат-С,Магазин «Продукты»,,нет,реализация продовольственных товаров,"город Москва, Веерная улица, дом 3, корпус 5",район Очаково-Матвеевское,Западный административный округ,37.477449271920655,55.706361215240065,1898449.2340236304,6404875.962847252
166,1056,1056,40 градусов алко маркет,Магазин «Продукты»,,нет,реализация продовольственных товаров,"город Москва, проспект Вернадского, дом 11/19",Ломоносовский район,Юго-Западный административный округ,37.52916678031804,55.68886806281347,1902244.6543573625,6404067.585773261
167,1062,1062,Магазин «ГАЛИНА»,Магазин «Продукты»,,нет,реализация продовольственных товаров,"город Москва, проспект Вернадского, дом 24А",район Проспект Вернадского,Западный административный округ,37.50060671420013,55.674549503938714,1901033.225294924,6401927.6952883415
168,1064,1064,Русмаркет,Магазин «Продукты»,,нет,реализация продовольственных товаров,"город Москва, проспект Вернадского, дом 59",район Проспект Вернадского,Западный административный округ,37.500575981985506,55.67280650096028,1901095.6619309997,6401739.080520779
169,1068,1068,Магазин «ПРОДУКТЫ»,Магазин «Продукты»,,нет,реализация продовольственных товаров,"город Москва, проспект Вернадского, дом 113",район Тропарёво-Никулино,Западный административный округ,37.482366999999996,55.659758999999994,1900466.8219580064,6399952.360823573
170,1072,1072,Продукты,Магазин «Продукты»,,нет,реализация продовольственных товаров,"город Москва, Весенняя улица, дом 14",район Западное Дегунино,Северный административный округ,37.51384317853222,55.87428385998949,1894458.900338408,6423738.13472522
171,1073,1073,Продукты,Магазин «Продукты»,,нет,реализация продовольственных товаров,"город Москва, Весенняя улица, дом 19",район Западное Дегунино,Северный административный округ,37.51262897968567,55.874037007344675,1894394.4506108088,6423686.277469749
172,1078,1078,ПРОДУКТЫ,Магазин «Продукты»,,нет,реализация продовольственных товаров,"город Москва, улица Вешних Вод, дом 2, корпус 3",Ярославский район,Северо-Восточный административный округ,37.69868180702996,55.8565297601074,1906319.0199500285,6425685.692284063
173,1080,1080,ПЛЮС 449,Магазин «Продукты»,,нет,реализация продовольственных товаров,"город Москва, улица Вешних Вод, дом 8, корпус 2",Ярославский район,Северо-Восточный административный округ,37.699373447680344,55.859329597516854,1906256.4941697402,6426001.830575375
174,1086,1086,Продукты,Магазин «Продукты»,,нет,реализация продовольственных товаров,"город Москва, Вильнюсская улица, дом 7, корпус 2",район Ясенево,Юго-Западный административный округ,37.52536836702832,55.60210853360545,1905217.1513749876,6394631.840120598
175,1087,1087,Продукты,Магазин «Продукты»,,нет,реализация продовольственных товаров,"город Москва, Вильнюсская улица, дом 8, корпус 2",район Ясенево,Юго-Западный административный округ,37.5192400442194,55.6036733266831,1904785.1944503156,6394672.560048686
176,1088,1088,ПРОДУКТЫ,Магазин «Продукты»,,нет,реализация продовольственных товаров,"город Москва, улица Винокурова, дом 5/6, корпус 3",Академический район,Юго-Западный административный округ,37.586139701468205,55.6891262414361,1905705.1897091062,6405286.171597217
177,1089,1089,ПРОДУКТЫ,Магазин «Продукты»,,нет,реализация продовольственных товаров,"город Москва, улица Винокурова, дом 7/5, корпус 1",Академический район,Юго-Западный административный округ,37.5873788820323,55.68843377817161,1905806.313483705,6405237.449768914
178,1090,1090,ПРОДУКТЫ,Магазин «Продукты»,,нет,реализация продовольственных товаров,"город Москва, улица Винокурова, дом 10, корпус 1",Академический район,Юго-Западный административный округ,37.5882069999999,55.687546999999995,1905889.603833006,6405159.176743607
179,1097,1097,ПРОДУКТЫ,Магазин «Продукты»,,нет,реализация продовольственных товаров,"город Москва, Вишнёвая улица, дом 14",район Покровское-Стрешнево,Северо-Западный административный округ,37.4477216230461,55.8318287232716,1892016.8108464358,6417787.801238831
180,1102,1102,Продукты,Магазин «Продукты»,,нет,реализация продовольственных товаров,"город Москва, 1-я Владимирская улица, дом 4",район Перово,Восточный административный округ,37.77279243205242,55.760144249048146,1914414.8093679496,6416860.643839463
181,1113,1113,Продукты,Магазин «Продукты»,,нет,реализация продовольственных товаров,"город Москва, 1-я Владимирская улица, дом 31",район Перово,Восточный административный округ,37.77890599999998,55.752316756343234,1915078.9254333128,6416146.306385069
182,1122,1122,Продукты,Магазин «Продукты»,,нет,реализация продовольственных товаров,"город Москва, 2-я Владимирская улица, дом 6, корпус 1",район Перово,Восточный административный округ,37.77775706655866,55.76176399152548,1914655.8039899988,6417139.820128351
183,1135,1135,Белорусский,Магазин «Продукты»,,нет,реализация продовольственных товаров,"город Москва, 2-я Владимирская улица, дом 36",район Перово,Восточный административный округ,37.78354765696985,55.75099284776306,1915410.4597166856,6416101.5956974635
184,1148,1148,Сладкий рай,Магазин «Продукты»,,нет,реализация продовольственных товаров,"город Москва, 2-я Владимирская улица, дом 38/18",район Перово,Восточный административный округ,37.784254332084934,55.75041794530924,1915474.9018694027,6416054.571026644
185,1154,1154,Продукты,Магазин «Продукты»,,нет,реализация продовольственных товаров,"город Москва, 2-я Владимирская улица, дом 38/18",район Перово,Восточный административный округ,37.784254332084934,55.75041794530924,1915474.9018694027,6416054.571026644
186,1171,1171,Продукты,Магазин «Продукты»,,нет,реализация продовольственных товаров,"город Москва, 3-я Владимирская улица, дом 25, корпус 1",район Перово,Восточный административный округ,37.7909149999999,55.75439099999989,1915730.9240414146,6416623.12073472
187,1184,1184,Продукты,Магазин «Продукты»,,нет,реализация продовольственных товаров,"город Москва, Большой Власьевский переулок, дом 14, строение 1",район Хамовники,Центральный административный округ,37.59112723635739,55.74624134890357,1903891.9105666592,6411547.755605493
188,1187,1187,Продукты,Магазин «Продукты»,,нет,реализация продовольственных товаров,"город Москва, 2-я Рейсовая улица, дом 8/29",район Внуково,Западный административный округ,37.29889438638607,55.608930808883535,1891134.1338528509,6390660.014513983
189,1212,1212,Магазин «Продукты»,Магазин «Продукты»,,нет,реализация продовольственных товаров,"город Москва, Волгоградский проспект, дом 17",Таганский район,Центральный административный округ,37.67865335744428,55.72874106616099,1909864.4768549525,6411495.915976939
190,1215,1215,Продукты,Магазин «Продукты»,,нет,реализация продовольственных товаров,"город Москва, Волгоградский проспект, дом 57",район Текстильщики,Юго-Восточный административный округ,37.73363787713243,55.709960366598615,1913908.8682178461,6410628.537243413
191,1218,1218,Продукты,Магазин «Продукты»,,нет,реализация продовольственных товаров,"город Москва, Волгоградский проспект, дом 63",район Текстильщики,Юго-Восточный административный округ,37.735388618438286,55.70997401921914,1914014.870398877,6410666.885592726
192,1221,1221,Продукты,Магазин «Продукты»,,нет,реализация продовольственных товаров,"город Москва, Волгоградский проспект, дом 72, корпус 1",район Кузьминки,Юго-Восточный административный округ,37.76005376326874,55.70557997581288,1915679.5068652616,6410713.289681252
193,1225,1225,Овощи-фрукты,Магазин «Продукты»,,нет,реализация продовольственных товаров,"город Москва, Волгоградский проспект, дом 88, корпус 2",район Кузьминки,Юго-Восточный административный округ,37.769842415808604,55.70432896464204,1916321.7908302315,6410784.986556242
194,1226,1226,Белорусские продукты,Магазин «Продукты»,,нет,реализация продовольственных товаров,"город Москва, Волгоградский проспект, дом 88, корпус 2",район Кузьминки,Юго-Восточный административный округ,37.769842415808604,55.70432896464204,1916321.7908302315,6410784.986556242
195,1227,1227,Продукты,Магазин «Продукты»,,нет,реализация продовольственных товаров,"город Москва, Волгоградский проспект, дом 88, корпус 2",район Кузьминки,Юго-Восточный административный округ,37.76984241581719,55.70432896463729,1916321.790830931,6410784.986555913
196,1228,1228,Продукты,Магазин «Продукты»,,нет,реализация продовольственных товаров,"город Москва, Волгоградский проспект, дом 113, корпус 1",район Кузьминки,Юго-Восточный административный округ,37.76091233069641,55.70691710351793,1915681.7980667057,6410875.470554007
197,1231,1231,Продукты,Магазин «Продукты»,,нет,реализация продовольственных товаров,"город Москва, Волгоградский проспект, дом 130, корпус 3",район Кузьминки,Юго-Восточный административный округ,37.784307,55.70093574146446,1917328.68241983,6410724.696534311
198,1236,1236,Продукты,Магазин «Продукты»,,нет,реализация продовольственных товаров,"город Москва, Волгоградский проспект, дом 145/8",район Кузьминки,Юго-Восточный административный округ,37.77867986210394,55.704646070240365,1916847.60650966,6411005.658247246
199,1238,1238,Продукты,Магазин «Продукты»,,нет,реализация продовольственных товаров,"город Москва, Волгоградский проспект, дом 161, корпус 1",район Кузьминки,Юго-Восточный административный округ,37.7861704525026,55.70359006491586,1917342.8063980187,6411050.023820636
200,1244,1244,Продукты,Магазин «Продукты»,,нет,реализация продовольственных товаров,"город Москва, Волжский бульвар, дом 26, корпус 3",район Текстильщики,Юго-Восточный административный округ,37.744100759094536,55.70590100585343,1914696.9111285063,6410411.557551915
201,1246,1246,Продукты,Магазин «Продукты»,,нет,реализация продовольственных товаров,"город Москва, Волжский бульвар, дом 49",район Кузьминки,Юго-Восточный административный округ,37.75697595408348,55.69509117045389,1915883.9359624747,6409518.201130132
202,1247,1247,Продукты,Магазин «Продукты»,,нет,реализация продовольственных товаров,"город Москва, Волжский бульвар, дом 50, корпус 2",район Текстильщики,Юго-Восточный административный округ,37.75222390248633,55.696526685464754,1915541.135637601,6409572.671432423
203,1248,1248,Белорусские товары,Магазин «Продукты»,,нет,реализация продовольственных товаров,"город Москва, улица Космонавта Волкова, дом 3",Войковский район,Северный административный округ,37.50673740410159,55.815940132366684,1896185.0650123132,6417300.956794716
204,1251,1251,Продукты,Магазин «Продукты»,,нет,реализация продовольственных товаров,"город Москва, улица Космонавта Волкова, дом 25/2",район Коптево,Северный административный округ,37.52218100523624,55.81651166312069,1897101.3410725037,6417684.038433762
205,1254,1254,Продукты,Магазин «Продукты»,,нет,реализация продовольственных товаров,"город Москва, улица Космонавта Волкова, дом 25/2",район Коптево,Северный административный округ,37.522068,55.81682899999989,1897082.7459864775,6417715.8947716225
206,1259,1259,ПРОДУКТЫ,Магазин «Продукты»,,нет,реализация продовольственных товаров,"город Москва, 1-й Волоколамский проезд, дом 11, корпус 1",поселение Щаповское,Троицкий административный округ,37.361028399999995,55.4427382,1901013.3047040624,6374009.74165362
207,1269,1269,Продукты ТЭГ АСТЭКО,Магазин «Продукты»,,нет,реализация продовольственных товаров,"город Москва, Волоколамское шоссе, дом 14",район Сокол,Северный административный округ,37.493617291049695,55.80964262623546,1895621.2354943368,6416349.084077627
208,1270,1270,Продукты,Магазин «Продукты»,,нет,реализация продовольственных товаров,"город Москва, Волоколамское шоссе, дом 15/22",район Сокол,Северный административный округ,37.49291349017051,55.808883772684034,1895606.5298394891,6416252.632233216
209,1281,1281,ПРОДУКТЫ,Магазин «Продукты»,,нет,реализация продовольственных товаров,"город Москва, улица Волхонка, дом 7/6",район Хамовники,Центральный административный округ,37.60802,55.747420999,1904875.2515995668,6412028.328839557
210,1292,1292,Продукты,Магазин «Продукты»,,нет,реализация продовольственных товаров,"город Москва, Воронежская улица, дом 44, корпус 1",район Орехово-Борисово Южное,Южный административный округ,37.7482224133755,55.61015628357862,1918520.2272045012,6400180.478538125
211,1302,1302,Продукты,Магазин «Продукты»,,нет,реализация продовольственных товаров,"город Москва, улица 800-летия Москвы, дом 11, корпус 3",район Восточное Дегунино,Северный административный округ,37.56411986563707,55.88260731551401,1897196.7990631696,6425681.9006335335
212,1304,1304,Продукты,Магазин «Продукты»,,нет,реализация продовольственных товаров,"город Москва, улица 800-летия Москвы, дом 12",Бескудниковский район,Северный административный округ,37.543824775397866,55.877146322577296,1896169.6579474562,6424670.55698512
213,1305,1305,Продукты,Магазин «Продукты»,,нет,реализация продовольственных товаров,"город Москва, улица 800-летия Москвы, дом 22, корпус 1",район Восточное Дегунино,Северный административный округ,37.55585870364831,55.87945875590658,1896813.0627474869,6425170.4320316985
214,1317,1317,Фермер,Магазин «Продукты»,,нет,реализация продовольственных товаров,"город Москва, Восточная улица, дом 7",поселение Первомайское,Троицкий административный округ,37.213071360617626,55.52582841321598,1888912.5297576752,6379916.6840778785
215,1319,1319,Магазин «Продукты»,Магазин «Продукты»,,нет,реализация продовольственных товаров,"город Москва, Востряковский проезд, дом 3, корпус 1",район Бирюлёво Западное,Южный административный округ,37.643069595286704,55.5858003476221,1913008.1327851291,6395339.982035368
216,1320,1320,Магазин «Продукты»,Магазин «Продукты»,,нет,реализация продовольственных товаров,"город Москва, Востряковский проезд, дом 7, корпус 2",район Бирюлёво Западное,Южный административный округ,37.643061541183705,55.58131143369351,1913174.2117315545,6394855.81850277
217,1321,1321,Магазин «Продукты»,Магазин «Продукты»,,нет,реализация продовольственных товаров,"город Москва, Востряковский проезд, дом 11, корпус 2",район Бирюлёво Западное,Южный административный округ,37.643437050444604,55.5792252502876,1913274.557256269,6394638.777825159
218,1322,1322,Магазин «Продукты»,Магазин «Продукты»,,нет,реализация продовольственных товаров,"город Москва, Востряковский проезд, дом 21, корпус 4",район Бирюлёво Западное,Южный административный округ,37.6530286298822,55.5774816253382,1913925.117481836,6394652.444089326
219,1324,1324,Магазин «Продукты»,Магазин «Продукты»,,нет,реализация продовольственных товаров,"город Москва, Востряковский проезд, дом 25, корпус 2",район Бирюлёво Западное,Южный административный округ,37.655981793870396,55.5766082675629,1914137.920641419,6394620.390156668
220,1331,1331,Продукты,Магазин «Продукты»,,нет,реализация продовольственных товаров,"город Москва, улица Вучетича, дом 5",Тимирязевский район,Северный административный округ,37.559738977387404,55.80747816078128,1899715.501627224,6417493.063251987
221,1334,1334,МосКомпания,Магазин «Продукты»,,нет,реализация продовольственных товаров,"город Москва, улица Вучетича, дом 18, корпус 1",Тимирязевский район,Северный административный округ,37.558655943190686,55.81109776343374,1899515.6757154546,6417860.630231152
222,1343,1343,Магазин «Продукты»,Магазин «Продукты»,,нет,реализация продовольственных товаров,"город Москва, Гаврикова улица, дом 2/38",Красносельский район,Центральный административный округ,37.670009203521815,55.78068547337318,1907405.7108563296,6416912.288785721
223,1362,1362,Магазин «ПРОДУКТЫ»,Магазин «Продукты»,,нет,реализация продовольственных товаров,"город Москва, улица Бориса Галушкина, дом 23",Алексеевский район,Северо-Восточный административный округ,37.665437952417534,55.82136961925602,1905613.738190175,6421200.397331513
224,1368,1368,Продукты,Магазин «Продукты»,,нет,реализация продовольственных товаров,"город Москва, Гвардейская улица, дом 3, корпус 1",Можайский район,Западный административный округ,37.423497999999995,55.721274,1894615.219926686,6405362.760595762
225,1370,1370,Продукты,Магазин «Продукты»,,нет,реализация продовольственных товаров,"город Москва, Гвардейская улица, дом 5, корпус 2",Можайский район,Западный административный округ,37.422668325517506,55.722181396551406,1894531.3370351526,6405443.407678273
226,1377,1377,ПРОДУКТЫ,Магазин «Продукты»,,нет,реализация продовольственных товаров,"город Москва, улица Героев Панфиловцев, дом 2",район Северное Тушино,Северо-Западный административный округ,37.440147051490825,55.85226317800856,1890804.0960161404,6419833.990276986
227,1379,1379,ПРОДУКТЫ,Магазин «Продукты»,,нет,реализация продовольственных товаров,"город Москва, улица Героев Панфиловцев, дом 8, корпус 1",район Северное Тушино,Северо-Западный административный округ,37.43922331629151,55.85481124340789,1890654.1629122845,6420089.5734440815
228,1380,1380,Магазин «Продукты»,Магазин «Продукты»,,нет,реализация продовольственных товаров,"город Москва, улица Героев Панфиловцев, дом 12, корпус 1",район Северное Тушино,Северо-Западный административный округ,37.42962071524384,55.85878432180232,1889925.41979096,6420318.9424904585
229,1384,1384,ПРОДУКТЫ,Магазин «Продукты»,,нет,реализация продовольственных товаров,"город Москва, улица Героев Панфиловцев, дом 16, корпус 1",район Северное Тушино,Северо-Западный административный округ,37.42404762710703,55.85879007027412,1889587.2412347281,6420204.10474262
230,1386,1386,ПОТАПЫЧ,Магазин «Продукты»,,нет,реализация продовольственных товаров,"город Москва, улица Героев Панфиловцев, дом 22, корпус 1",район Северное Тушино,Северо-Западный административный округ,37.41161290876981,55.85732697365336,1888887.0005928918,6419788.838663798
231,1395,1395,Халяль маркет,Магазин «Продукты»,,нет,реализация продовольственных товаров,"город Москва, улица Гиляровского, дом 33",Мещанский район,Центральный административный округ,37.630830668074104,55.7799923905311,1905052.021509005,6416016.466807845
232,1397,1397,Продукты,Магазин «Продукты»,,нет,реализация продовольственных товаров,"город Москва, улица Гиляровского, дом 44",Мещанский район,Центральный административный округ,37.633168961239186,55.78434619970853,1905032.254734968,6416534.654386976
233,1399,1399,ПРОДУКТЫ,Магазин «Продукты»,,нет,реализация продовольственных товаров,"город Москва, улица Генерала Глаголева, дом 2",район Хорошёво-Мнёвники,Северо-Западный административный округ,37.46093667612618,55.77866665429586,1894779.0704317281,6412329.83588781
234,1407,1407,Магазин «ПРОДУКТЫ»,Магазин «Продукты»,,нет,реализация продовольственных товаров,"город Москва, улица Годовикова, дом 2",Останкинский район,Северо-Восточный административный округ,37.6315682882116,55.80288579509789,1904246.0788013441,6418499.152528593
235,1410,1410,Продукты,Магазин «Продукты»,,нет,реализация продовольственных товаров,"город Москва, Головинское шоссе, дом 4",Войковский район,Северный административный округ,37.489426157643216,55.83902323142912,1894281.7524569992,6419429.47206739
236,1411,1411,ДВА ШАГА,Магазин «Продукты»,,нет,реализация продовольственных товаров,"город Москва, Голубинская улица, дом 7, корпус 2",район Ясенево,Юго-Западный административный округ,37.5144896570408,55.606111442975504,1904405.175863459,6394836.296062265
237,1412,1412,Продукты,Магазин «Продукты»,,нет,реализация продовольственных товаров,"город Москва, Голубинская улица, дом 7, корпус 2",район Ясенево,Юго-Западный административный округ,37.5151416288447,55.605927905823705,1904451.7554178224,6394830.117841219
238,1413,1413,Лайм,Магазин «Продукты»,,нет,реализация продовольственных товаров,"город Москва, Голубинская улица, дом 24, корпус 1",район Ясенево,Юго-Западный административный округ,37.53798697889079,55.596000276614106,1906213.253444797,6394236.8412438
239,1421,1421,Магазин «Продукты на Гончарном»,Магазин «Продукты»,,нет,реализация продовольственных товаров,"город Москва, Гончарный проезд, дом 8/40",Таганский район,Центральный административный округ,37.6504951868885,55.740126080383185,1907728.696867843,6412131.942451783
240,1456,1456,ПРОДУКТЫ,Магазин «Продукты»,,нет,реализация продовольственных товаров,"город Москва, Тверская улица, дом 17",Тверской район,Центральный административный округ,37.60649135381465,55.76356000204676,1904183.4652414776,6413735.934855715
241,1462,1462,Продукты,Магазин «Продукты»,,нет,реализация продовольственных товаров,"город Москва, Тверская улица, дом 25/9",Тверской район,Центральный административный округ,37.60009861098235,55.76710034211689,1903663.6280184432,6413983.811615516
242,1468,1468,ПРОДУКТЫ,Магазин «Продукты»,,нет,реализация продовольственных товаров,"город Москва, Тверская улица, дом 27, строение 2",Тверской район,Центральный административный округ,37.59755341981892,55.76865574592907,1903451.268679054,6414098.237149297
243,1482,1482,Продукты,Магазин «Продукты»,,нет,реализация продовольственных товаров,"город Москва, улица Госпитальный Вал, дом 5, корпус 11",Басманный район,Центральный административный округ,37.7070896103234,55.77301750945522,1909943.3542232413,6416864.589517392
244,1509,1509,Продукты,Магазин «Продукты»,,нет,реализация продовольственных товаров,"город Москва, улица Гришина, дом 15",Можайский район,Западный административный округ,37.416866999999996,55.7229529999999,1894149.79659115,6405406.219935366
245,1525,1525,Магазин «Просковея»,Магазин «Продукты»,,нет,реализация продовольственных товаров,"город Москва, Малая Грузинская улица, дом 12",Пресненский район,Центральный административный округ,37.572018,55.763740000000006,1902081.7028149043,6413034.656199861
246,1527,1527,Магазин «Продукты»,Магазин «Продукты»,,нет,реализация продовольственных товаров,"город Москва, Малая Грузинская улица, дом 12",Пресненский район,Центральный административный округ,37.57205054577106,55.76379917163793,1902081.4885686543,6413041.714629307
247,1529,1529,Магазин «Продукты»,Магазин «Продукты»,,нет,реализация продовольственных товаров,"город Москва, Малая Грузинская улица, дом 29",Пресненский район,Центральный административный округ,37.57192424521276,55.7684627299336,1901901.026207481,6413541.796188123
248,1535,1535,Магазин «Тишинский двор-2»,Магазин «Продукты»,,нет,реализация продовольственных товаров,"город Москва, улица Грузинский Вал, дом 26, строение 2",Пресненский район,Центральный административный округ,37.5831489999999,55.774058999999994,1902375.6730398159,6414379.5449455865
249,1542,1542,Продукты,Магазин «Продукты»,,нет,реализация продовольственных товаров,"город Москва, Гурьевский проезд, дом 15, корпус 1",район Орехово-Борисово Южное,Южный административный округ,37.74883667075165,55.605114486893214,1918745.7411072738,6399650.051612
250,1551,1551,Продукты,Магазин «Продукты»,,нет,реализация продовольственных товаров,"город Москва, улица Гурьянова, дом 3",район Печатники,Юго-Восточный административный округ,37.72260070072793,55.691662925583856,1913919.5883529063,6408424.3354846025
251,1563,1563,Минимаркет,Магазин «Продукты»,,нет,реализация продовольственных товаров,"город Москва, улица 26-ти Бакинских Комиссаров, дом 12, корпус 6",район Тропарёво-Никулино,Западный административный округ,37.4888615913839,55.66270698874447,1900754.108762086,6400405.658341585
252,1565,1565,ЭНЕРГИЯ-ПЛЮС,Магазин «Продукты»,,нет,реализация продовольственных товаров,"город Москва, улица Двинцев, дом 4",район Марьина Роща,Северо-Восточный административный округ,37.60040648586628,55.793445146188446,1902704.8406307586,6416829.804869267
253,1569,1569,Продукты,Магазин «Продукты»,,нет,реализация продовольственных товаров,"город Москва, Дегунинская улица, дом 17",район Западное Дегунино,Северный административный округ,37.53096339885076,55.867014641028916,1895765.4354171904,6423310.782635385
254,1572,1572,Продукты,Магазин «Продукты»,,нет,реализация продовольственных товаров,"город Москва, улица Декабристов, дом 4, корпус 1",район Отрадное,Северо-Восточный административный округ,37.5908078092561,55.86709539600296,1899389.186696533,6424566.8204477215
255,1573,1573,Хороший вкус,Магазин «Продукты»,,нет,реализация продовольственных товаров,"город Москва, улица Декабристов, дом 6, корпус 1",район Отрадное,Северо-Восточный административный округ,37.59243871703442,55.86658720898629,1899506.878997934,6424546.09676778
256,1577,1577,Продукты,Магазин «Продукты»,,нет,реализация продовольственных товаров,"город Москва, улица Декабристов, дом 21",район Отрадное,Северо-Восточный административный округ,37.60770378390065,55.863967066594384,1900529.2122394675,6424582.496181701
257,1583,1583,Минимаркет,Магазин «Продукты»,,нет,реализация продовольственных товаров,"город Москва, улица Декабристов, дом 21",район Отрадное,Северо-Восточный административный округ,37.607703562805575,55.86396513201252,1900529.2707030247,6424582.2830917435
258,1587,1587,Продукты,Магазин «Продукты»,,нет,реализация продовольственных товаров,"город Москва, Дербеневская набережная, дом 13/17, корпус 2",Даниловский район,Южный административный округ,37.64959251099452,55.71952770298274,1908439.4565305416,6409892.911649647
259,1589,1589,Продукты,Магазин «Продукты»,,нет,реализация продовольственных товаров,"город Москва, улица Мусы Джалиля, дом 5, корпус 5",район Зябликово,Южный административный округ,37.74830902736888,55.63012161052203,1917780.806459057,6402334.068853122
260,1590,1590,Продукты,Магазин «Продукты»,,нет,реализация продовольственных товаров,"город Москва, улица Мусы Джалиля, дом 30, корпус 1",район Зябликово,Южный административный округ,37.74134862294629,55.61953198581146,1917751.297464564,6401045.889710511
261,1597,1597,Продукты,Магазин «Продукты»,,нет,реализация продовольственных товаров,"город Москва, Дмитровский проезд, дом 4",Тимирязевский район,Северный административный округ,37.57801452999032,55.81009537366352,1900727.8504297847,6418156.586476216
262,1604,1604,АлкоМ,Магазин «Продукты»,,нет,реализация продовольственных товаров,"город Москва, Дмитровское шоссе, дом 25, корпус 1",Тимирязевский район,Северный административный округ,37.57122961977894,55.82492803384807,1899766.2175426148,6419613.681551655
263,1605,1605,Продукты,Магазин «Продукты»,,нет,реализация продовольственных товаров,"город Москва, Дмитровское шоссе, дом 25, корпус 1",Тимирязевский район,Северный административный округ,37.57122961977894,55.82492803384807,1899766.2175426148,6419613.681551655
264,1608,1608,Продукты,Магазин «Продукты»,,нет,реализация продовольственных товаров,"город Москва, Дмитровское шоссе, дом 30, корпус 1",Тимирязевский район,Северный административный округ,37.573796754628,55.83843351560567,1899421.23545009,6421122.878037537
265,1609,1609,Продукты,Магазин «Продукты»,,нет,реализация продовольственных товаров,"город Москва, Дмитровское шоссе, дом 37, корпус 1",Тимирязевский район,Северный административный округ,37.571814139868266,55.83044872245348,1899597.0202836331,6420220.9095677
266,1613,1613,Продукты,Магазин «Продукты»,,нет,реализация продовольственных товаров,"город Москва, Дмитровское шоссе, дом 40, корпус 1",Тимирязевский район,Северный административный округ,37.57147028176182,55.84136131178644,1899171.5864397918,6421389.893331378
267,1631,1631,Продукты,Магазин «Продукты»,,нет,реализация продовольственных товаров,"город Москва, Дмитровское шоссе, дом 52, корпус 1",Тимирязевский район,Северный административный округ,37.56875429465738,55.846849223047826,1898803.4256718552,6421924.716896424
268,1639,1639,Продукты,Магазин «Продукты»,,нет,реализация продовольственных товаров,"город Москва, Дмитровское шоссе, дом 125, корпус 2",Дмитровский район,Северный административный округ,37.54080644078624,55.8866666762592,1895634.165989034,6425633.802757053
269,1640,1640,Продукты,Магазин «Продукты»,,нет,реализация продовольственных товаров,"город Москва, Дмитровское шоссе, дом 129, корпус 2",Дмитровский район,Северный административный округ,37.540765151282045,55.887782985263854,1895590.3172600612,6425753.256228912
270,1641,1641,Продукты,Магазин «Продукты»,,нет,реализация продовольственных товаров,"город Москва, Дмитровское шоссе, дом 131, корпус 2",Дмитровский район,Северный административный округ,37.54043411668962,55.8890659999507,1895522.7438177841,6425884.645155815
271,1647,1647,Продукты,Магазин «Продукты»,,нет,реализация продовольственных товаров,"город Москва, Дмитровское шоссе, дом 151, корпус 5",Дмитровский район,Северный административный округ,37.541058544438954,55.89665354053722,1895279.5062547137,6426715.397925766
272,1653,1653,Продовольственный магазин «МАКС+»,Магазин «Продукты»,,нет,реализация продовольственных товаров,"город Москва, Днепропетровская улица, дом 5, корпус 4",район Чертаново Центральное,Южный административный округ,37.59893636947707,55.620758234339284,1909018.0389218358,6398182.851943888
273,1654,1654,Продукты,Магазин «Продукты»,,нет,реализация продовольственных товаров,"город Москва, Днепропетровская улица, дом 17",район Чертаново Центральное,Южный административный округ,37.586076595869216,55.61992890673454,1908264.0713654312,6397823.925121027
274,1655,1655,Продукты на Днепропетровской,Магазин «Продукты»,,нет,реализация продовольственных товаров,"город Москва, Днепропетровская улица, дом 27, корпус 1",район Чертаново Центральное,Южный административный округ,37.586076595869216,55.61992890673454,1908264.0713654312,6397823.925121027
275,1664,1664,Продукты,Магазин «Продукты»,,нет,реализация продовольственных товаров,"город Москва, улица Довженко, дом 12, корпус 1",район Раменки,Западный административный округ,37.50985821627783,55.720873232300434,1899886.7534101496,6407115.9844367765
276,1665,1665,Продукты,Магазин «Продукты»,,нет,реализация продовольственных товаров,"город Москва, улица Довженко, дом 12, корпус 1",район Раменки,Западный административный округ,37.50985821627783,55.720873232300434,1899886.7534101496,6407115.9844367765
277,1666,1666,ПРОДУКТЫ,Магазин «Продукты»,,нет,реализация продовольственных товаров,"город Москва, улица Докукина, дом 7, корпус 1",район Ростокино,Северо-Восточный административный округ,37.653123951988114,55.838457062230546,1904230.8958746754,6422783.613318408
278,1667,1667,Универсам Коровка,Магазин «Продукты»,,нет,реализация продовольственных товаров,"город Москва, Долгопрудная улица, дом 9",Дмитровский район,Северный административный округ,37.538459792994985,55.89325553041793,1895247.9922147184,6426295.08617592
279,1670,1670,ПРОДУКТЫ,Магазин «Продукты»,,нет,реализация продовольственных товаров,"город Москва, Домодедовская улица, дом 33",район Орехово-Борисово Южное,Южный административный округ,37.71517190640113,55.602509268418466,1916788.609845165,6398659.009067822
280,1672,1672,Продукты из Армении,Магазин «Продукты»,,нет,реализация продовольственных товаров,"город Москва, Домодедовская улица, дом 42А",район Орехово-Борисово Южное,Южный административный округ,37.713787851267625,55.60277706982109,1916694.1758099343,6398658.698528272
281,1677,1677,Продукты,Магазин «Продукты»,,нет,реализация продовольственных товаров,"город Москва, проезд Донелайтиса, дом 26",район Южное Тушино,Северо-Западный административный округ,37.421195666535006,55.84500656146694,1889921.8386938162,6418658.798116361
282,1679,1679,Магазин «Натуральные продукты»,Магазин «Продукты»,,нет,реализация продовольственных товаров,"город Москва, Донская улица, дом 31",Донской район,Южный административный округ,37.605956745937206,55.719920312551956,1905770.0008756684,6409020.73536235
283,1680,1680,Магазин «Продукты»,Магазин «Продукты»,,нет,реализация продовольственных товаров,"город Москва, Донская улица, дом 31",Донской район,Южный административный округ,37.605956745937206,55.719920312551956,1905770.0008756684,6409020.73536235
284,1713,1713,МАГАЗИН «Продукты»,Магазин «Продукты»,,нет,реализация продовольственных товаров,"город Москва, улица Дружбы, дом 2/19",район Раменки,Западный административный округ,37.522504,55.71296699999989,1900948.5138673487,6406527.140626316
285,1719,1719,Магазин «Продукты»,Магазин «Продукты»,,нет,реализация продовольственных товаров,"город Москва, Дубининская улица, дом 65, корпус 1",Даниловский район,Южный административный округ,37.63462443008006,55.717264352758825,1907612.8697174252,6409335.047744795
286,1725,1725,ПродМаг,Магазин «Продукты»,,нет,реализация продовольственных товаров,"город Москва, Дубнинская улица, дом 2, корпус 2",район Восточное Дегунино,Северный административный округ,37.56738024407576,55.856175123616325,1898374.3734522096,6422901.180232111
287,1728,1728,Продукты,Магазин «Продукты»,,нет,реализация продовольственных товаров,"город Москва, Дубнинская улица, дом 2, корпус 2",район Восточное Дегунино,Северный административный округ,37.56738024407576,55.856175123616325,1898374.3734522096,6422901.180232111
288,1736,1736,Магазин «Продукты»,Магазин «Продукты»,,нет,реализация продовольственных товаров,"город Москва, Дубнинская улица, дом 10, корпус 1",район Восточное Дегунино,Северный административный округ,37.56750477587352,55.86295843088846,1898130.4272285027,6423634.850400603
289,1747,1747,Выпечка,Магазин «Продукты»,,нет,реализация продовольственных товаров,"город Москва, Дубнинская улица, дом 10, корпус 4",район Восточное Дегунино,Северный административный округ,37.57210532207447,55.864097678506525,1898367.0091289026,6423853.565125057
290,1750,1750,Магазин «Продукты»,Магазин «Продукты»,,нет,реализация продовольственных товаров,"город Москва, Дубнинская улица, дом 14, корпус 2",район Восточное Дегунино,Северный административный округ,37.57057175140039,55.86688789828047,1898170.596045821,6424122.293838695
291,1752,1752,Магазин «Продукты»,Магазин «Продукты»,,нет,реализация продовольственных товаров,"город Москва, Дубнинская улица, дом 16, корпус 3",район Восточное Дегунино,Северный административный округ,37.568245665450576,55.867571745329656,1898004.2748719382,6424147.492508075
292,1753,1753,Магазин «Продукты»,Магазин «Продукты»,,нет,реализация продовольственных товаров,"город Москва, Дубнинская улица, дом 18, корпус 1",район Восточное Дегунино,Северный административный округ,37.56917957102309,55.87007769211831,1897967.9451548862,6424437.0367151415
293,1765,1765,Продукты,Магазин «Продукты»,,нет,реализация продовольственных товаров,"город Москва, Дубнинская улица, дом 71, корпус 1",Бескудниковский район,Северный административный округ,37.556739491130436,55.878054028384106,1896918.487908228,6425037.389277168
294,1766,1766,Магазин «Продукты»,Магазин «Продукты»,,нет,реализация продовольственных товаров,"город Москва, Дубнинская улица, дом 73, корпус 2",район Восточное Дегунино,Северный административный округ,37.55606067399407,55.880745916125996,1896777.592260754,6425313.362377558
295,1787,1787,Магазин «Сухофрукты и конфеты»,Магазин «Продукты»,,нет,реализация продовольственных товаров,"город Москва, Духовской переулок, дом 14",Даниловский район,Южный административный округ,37.61514904981011,55.705503476918906,1906864.2447976363,6407659.146961679
296,1791,1791,Продукты,Магазин «Продукты»,,нет,реализация продовольственных товаров,"город Москва, Егерская улица, дом 3",район Сокольники,Восточный административный округ,37.683313765135225,55.79361328898861,1907732.1378050463,6418584.495792627
297,1793,1793,Продукты,Магазин «Продукты»,,нет,реализация продовольственных товаров,"город Москва, Елизаветинский переулок, дом 6, строение 1",Басманный район,Центральный административный округ,37.67303560810347,55.76254119596766,1908264.9224352369,6415020.521740976
298,1797,1797,ПРОДУКТЫ,Магазин «Продукты»,,нет,реализация продовольственных товаров,"город Москва, Енисейская улица, дом 12",Бабушкинский район,Северо-Восточный административный округ,37.66180348112165,55.86228149306018,1903870.0949285957,6425532.384391583
299,1800,1800,ПРОДУКТЫ,Магазин «Продукты»,,нет,реализация продовольственных товаров,"город Москва, Енисейская улица, дом 15",Бабушкинский район,Северо-Восточный административный округ,37.66230603021407,55.866700243840434,1903735.993542872,6426018.992170443
300,1801,1801,ПРОДУКТЫ,Магазин «Продукты»,,нет,реализация продовольственных товаров,"город Москва, Енисейская улица, дом 16/21",Бабушкинский район,Северо-Восточный административный округ,37.66237943377706,55.86428494603019,1903830.3860199663,6425760.301801292
301,1808,1808,ПРОДУКТЫ,Магазин «Продукты»,,нет,реализация продовольственных товаров,"город Москва, Енисейская улица, дом 17, корпус 1",Бабушкинский район,Северо-Восточный административный округ,37.662616834607675,55.867803508236,1903713.736736664,6426144.367261237
302,1814,1814,Магазин «Продукты»,Магазин «Продукты»,,нет,реализация продовольственных товаров,"город Москва, Ереванская улица, дом 16, корпус 5",район Царицыно,Южный административный округ,37.669140999,55.62657899999989,1913084.862438072,6400284.422235951
303,1823,1823,Продукты,Магазин «Продукты»,,нет,реализация продовольственных товаров,"город Москва, бульвар Матроса Железняка, дом 7/20",район Коптево,Северный административный округ,37.5244349999999,55.827643,1896826.415069216,6418930.927903567
304,1824,1824,Продукты,Магазин «Продукты»,,нет,реализация продовольственных товаров,"город Москва, бульвар Матроса Железняка, дом 7/20",район Коптево,Северный административный округ,37.5244349999999,55.827643,1896826.415069216,6418930.927903567
305,1829,1829,Продукты,Магазин «Продукты»,,нет,реализация продовольственных товаров,"город Москва, бульвар Матроса Железняка, дом 27",район Коптево,Северный административный округ,37.529161695131435,55.83551854293891,1896821.8183814688,6419878.302612687
306,1840,1840,ПРОДУКТЫ,Магазин «Продукты»,,нет,реализация продовольственных товаров,"город Москва, Живописная улица, дом 24",район Хорошёво-Мнёвники,Северо-Западный административный округ,37.45480897100815,55.78830457528085,1894051.4490508174,6413241.822896383
307,1843,1843,Магазин «Продукты»,Магазин «Продукты»,,нет,реализация продовольственных товаров,"город Москва, Жигулёвская улица, дом 5, корпус 3",район Кузьминки,Юго-Восточный административный округ,37.76504050730012,55.71082733564843,1915786.8604578068,6411383.856372177
308,1849,1849,Гастроном,Магазин «Продукты»,,нет,реализация продовольственных товаров,"город Москва, проспект Маршала Жукова, дом 35, корпус 1",район Строгино,Северо-Западный административный округ,37.400171549727524,55.775853080087565,1891189.2723299444,6410765.65356411
309,1857,1857,Магазин «РУСЛАН»,Магазин «Продукты»,,нет,реализация продовольственных товаров,"город Москва, Загородное шоссе, дом 9, корпус 1",Донской район,Южный административный округ,37.60731012412985,55.69283207631004,1906857.04049024,6406128.941671507
310,1860,1860,Магазин «Надежда»,Магазин «Продукты»,,нет,реализация продовольственных товаров,"город Москва, Загородное шоссе, дом 15, корпус 1",Донской район,Южный административный округ,37.60322351341736,55.69181824487001,1906645.7889644727,6405934.051367247
311,1862,1862,Продукты,Магазин «Продукты»,,нет,реализация продовольственных товаров,"город Москва, Задонский проезд, дом 36, корпус 1",район Зябликово,Южный административный округ,37.75890102885144,55.620289512792475,1918793.5404283241,6401498.054032395
312,1865,1865,Магазин «Продукты»,Магазин «Продукты»,,нет,реализация продовольственных товаров,"город Москва, улица Заморёнова, дом 25/5",Пресненский район,Центральный административный округ,37.56878613234736,55.76040784964447,1902008.7121848152,6412607.946953342
313,1869,1869,Продукты,Магазин «Продукты»,,нет,реализация продовольственных товаров,"город Москва, Родниковая улица, дом 16",район Солнцево,Западный административный округ,37.384941999999995,55.635238,1895425.398317284,6395281.275780276
314,1870,1870,Продукты,Магазин «Продукты»,,нет,реализация продовольственных товаров,"город Москва, Родниковая улица, дом 16",район Солнцево,Западный административный округ,37.3849769999999,55.635360999,1895423.0222148304,6395295.272838403
315,1871,1871,Продукты,Магазин «Продукты»,,нет,реализация продовольственных товаров,"город Москва, Родниковая улица, дом 16",район Солнцево,Западный административный округ,37.384774,55.635716,1895397.6095991589,6395329.36245528
316,1882,1882,Магазин «ПРОДУКТЫ»,Магазин «Продукты»,,нет,реализация продовольственных товаров,"город Москва, Звёздный бульвар, дом 3",Останкинский район,Северо-Восточный административный округ,37.63512858211172,55.81566298969738,1903987.2108990175,6419950.620210139
317,1884,1884,Магазин «ПРОДУКТЫ»,Магазин «Продукты»,,нет,реализация продовольственных товаров,"город Москва, Звёздный бульвар, дом 30, корпус 1",Останкинский район,Северо-Восточный административный округ,37.626622336238704,55.814455036786526,1903515.963787321,6419642.426354589
318,1897,1897,Магазин,Магазин «Продукты»,,нет,реализация продовольственных товаров,"город Москва, Зеленодольская улица, дом 32, корпус 1",район Кузьминки,Юго-Восточный административный округ,37.769117445085115,55.71043257039277,1916049.6128842656,6411427.325137476
319,1901,1901,Продукты,Магазин «Продукты»,,нет,реализация продовольственных товаров,"город Москва, Зеленодольская улица, дом 33, корпус 1",район Кузьминки,Юго-Восточный административный округ,37.768435311522715,55.7067436544361,1916145.9573067243,6411015.471198362
320,1902,1902,Продукты,Магазин «Продукты»,,нет,реализация продовольственных товаров,"город Москва, Зеленодольская улица, дом 33, корпус 1",район Кузьминки,Юго-Восточный административный округ,37.768435311522715,55.7067436544361,1916145.9573067243,6411015.471198362
321,1903,1903,Продукты,Магазин «Продукты»,,нет,реализация продовольственных товаров,"город Москва, Зеленодольская улица, дом 33, корпус 1",район Кузьминки,Юго-Восточный административный округ,37.768435311522715,55.7067436544361,1916145.9573067243,6411015.471198362
322,1904,1904,Продукты,Магазин «Продукты»,,нет,реализация продовольственных товаров,"город Москва, Зеленодольская улица, дом 33, корпус 1",район Кузьминки,Юго-Восточный административный округ,37.768435311522715,55.7067436544361,1916145.9573067243,6411015.471198362
323,1913,1913,Продукты,Магазин «Продукты»,,нет,реализация продовольственных товаров,"город Москва, 1-я Владимирская улица, дом 37/15",район Перово,Восточный административный округ,37.780209287245476,55.75042723130215,1915228.7792494185,6415970.237371087
324,1923,1923,Продукты Табак,Магазин «Продукты»,,нет,реализация продовольственных товаров,"город Москва, Зелёный проспект, дом 60/35",район Новогиреево,Восточный административный округ,37.817874324683935,55.750078619651696,1917530.2294741275,6416727.87576187
325,1934,1934,Продукты,Магазин «Продукты»,,нет,реализация продовольственных товаров,"город Москва, Свободный проспект, дом 18",район Новогиреево,Восточный административный округ,37.81675762876292,55.752426815108436,1917374.4148723169,6416957.222211158
326,1941,1941,Продукты,Магазин «Продукты»,,нет,реализация продовольственных товаров,"город Москва, Золоторожский проезд, дом 2",район Лефортово,Юго-Восточный административный округ,37.68302048252587,55.750839518332526,1909307.3259939041,6413969.120641736
327,1947,1947,ИНСАЙД - М,Магазин «Продукты»,,нет,реализация продовольственных товаров,"город Москва, Зюзинская улица, дом 4, корпус 1",район Черёмушки,Юго-Западный административный округ,37.57802630330276,55.66611793292532,1906063.046179193,6402635.702347225
328,1951,1951,Продукты,Магазин «Продукты»,,нет,реализация продовольственных товаров,"город Москва, бульвар Маршала Рокоссовского, дом 33/12",район Богородское,Восточный административный округ,37.7140435205518,55.8167859911954,1908732.9898136887,6421726.444384893
329,1952,1952,Продукты,Магазин «Продукты»,,нет,реализация продовольственных товаров,"город Москва, Иерусалимский проезд, дом 4",Таганский район,Центральный административный округ,37.67515380941442,55.73252831414971,1909510.7058965932,6411830.576314994
330,1953,1953,Продукты,Магазин «Продукты»,,нет,реализация продовольственных товаров,"город Москва, Изваринская улица, дом 3",район Внуково,Западный административный округ,37.253064694956585,55.612007623140975,1888221.9062765653,6390045.512154813
331,1962,1962,Продукты,Магазин «Продукты»,,нет,реализация продовольственных товаров,"город Москва, Измайловский бульвар, дом 14/36",район Измайлово,Восточный административный округ,37.78845922865948,55.796241114434174,1914015.5504103643,6421079.442861166
332,1972,1972,ООО ФИРМА «ТКФ НАДЕЖДА»,Магазин «Продукты»,,нет,реализация продовольственных товаров,"город Москва, Измайловский проспект, дом 61, строение 2",район Измайлово,Восточный административный округ,37.78391600000001,55.78860676689297,1914025.5568560576,6420161.29433939
333,1978,1978,Продукты,Магазин «Продукты»,,нет,реализация продовольственных товаров,"город Москва, Измайловское шоссе, дом 33",район Соколиная Гора,Восточный административный округ,37.73302395139889,55.780211224449644,1911249.887916421,6418184.993613073
334,1986,1986,Продукты,Магазин «Продукты»,,нет,реализация продовольственных товаров,"город Москва, Изумрудная улица, дом 40",Лосиноостровский район,Северо-Восточный административный округ,37.691,55.876328,1905115.2808211586,6427657.453723718
335,1987,1987,Продукты,Магазин «Продукты»,,нет,реализация продовольственных товаров,"город Москва, Иловайская улица, дом 12, строение 1",район Люблино,Юго-Восточный административный округ,37.721348970993375,55.660073525374635,1915020.845316516,6404993.595115359
336,1989,1989,Продукты,Магазин «Продукты»,,нет,реализация продовольственных товаров,"город Москва, Инженерная улица, дом 18, корпус 2",Алтуфьевский район,Северо-Восточный административный округ,37.578564725070144,55.880775266496435,1898139.759711049,6425785.610003746
337,1991,1991,ПРОДУКТЫ,Магазин «Продукты»,,нет,реализация продовольственных товаров,"город Москва, Инженерная улица, дом 20, корпус 1",Алтуфьевский район,Северо-Восточный административный округ,37.577242,55.880233999999994,1898079.7148614062,6425699.694556966
338,2010,2010,Продукты,Магазин «Продукты»,,нет,реализация продовольственных товаров,"город Москва, Казарменный переулок, дом 8, строение 1",Басманный район,Центральный административный округ,37.650668635970334,55.75649700951203,1907130.5960493232,6413899.961023626
339,2020,2020,Магазин «Продукты»,Магазин «Продукты»,,нет,реализация продовольственных товаров,"город Москва, Малая Калитниковская улица, дом 1",Таганский район,Центральный административный округ,37.676049465539954,55.73764655445531,1909374.68476033,6412400.977070588
340,2026,2026,ПРОДУКТЫ,Магазин «Продукты»,,нет,реализация продовольственных товаров,"город Москва, Долгоруковская улица, дом 39/6",Тверской район,Центральный административный округ,37.60063233447952,55.778641394184206,1903267.8676110576,6415238.938491655
341,2036,2036,Магазин «Продукты»,Магазин «Продукты»,,нет,реализация продовольственных товаров,"город Москва, улица Большие Каменщики, дом 6, строение 1",Таганский район,Центральный административный округ,37.65477663763076,55.736386588929435,1908128.06010954,6411818.714839687
342,2040,2040,Ближний,Магазин «Продукты»,,нет,реализация продовольственных товаров,"город Москва, Камчатская улица, дом 6, корпус 1",район Гольяново,Восточный административный округ,37.81226751954907,55.827339628315904,1914294.6970737076,6424931.162254654
343,2041,2041,Продукты,Магазин «Продукты»,,нет,реализация продовольственных товаров,"город Москва, Камчатская улица, дом 7",район Гольяново,Восточный административный округ,37.80690397426413,55.82591013814567,1914023.1119523675,6424664.055579943
344,2075,2075,Продукты,Магазин «Продукты»,,нет,реализация продовольственных товаров,"город Москва, 3-я Карачаровская улица, дом 4, корпус 2",Нижегородский район,Юго-Восточный административный округ,37.74503085077711,55.73319049388211,1913734.7950356684,6413371.61324151
345,2076,2076,Продукты,Магазин «Продукты»,,нет,реализация продовольственных товаров,"город Москва, 3-я Карачаровская улица, дом 7",Нижегородский район,Юго-Восточный административный округ,37.74750949232471,55.73455360025782,1913834.5896259032,6413570.700312559
346,2077,2077,Продукты,Магазин «Продукты»,,нет,реализация продовольственных товаров,"город Москва, 3-я Карачаровская улица, дом 7",Нижегородский район,Юго-Восточный административный округ,37.74750949232471,55.73455360025782,1913834.5896259032,6413570.700312559
347,2078,2078,Гастроном,Магазин «Продукты»,,нет,реализация продовольственных товаров,"город Москва, 2-й Карачаровский проезд, дом 4",Нижегородский район,Юго-Восточный административный округ,37.75373928809096,55.72984632041217,1914389.1286152888,6413194.78562188
348,2079,2079,ПРОДУКТЫ,Магазин «Продукты»,,нет,реализация продовольственных товаров,"город Москва, бульвар Генерала Карбышева, дом 19, корпус 1",район Хорошёво-Мнёвники,Северо-Западный административный округ,37.46980480342067,55.78062184945386,1895245.896529052,6412724.951378675
349,2087,2087,"Рыбная лавка, пиво",Магазин «Продукты»,,нет,реализация продовольственных товаров,"город Москва, Каргопольская улица, дом 14, корпус 1",район Отрадное,Северо-Восточный административный округ,37.59316142154203,55.86379035636028,1899654.4963585783,6424259.779069812
350,2091,2091,Продукты,Магазин «Продукты»,,нет,реализация продовольственных товаров,"город Москва, Каргопольская улица, дом 14, корпус 1",район Отрадное,Северо-Восточный административный округ,37.592999248308736,55.86367350761618,1899649.00579149,6424243.801428532
351,2094,2094,Продукты,Магазин «Продукты»,,нет,реализация продовольственных товаров,"город Москва, Старая Басманная улица, дом 13, строение 1",Басманный район,Центральный административный округ,37.6594071422136,55.765369886283636,1907331.6152401608,6415039.43997003
352,2102,2102,Магазин «Продукты»,Магазин «Продукты»,,нет,реализация продовольственных товаров,"город Москва, Касимовская улица, дом 31, корпус 2",район Бирюлёво Восточное,Южный административный округ,37.65733531559342,55.593089291898,1913608.6216647797,6396425.757553767
353,2105,2105,Магазин «СДЛ»,Магазин «Продукты»,,нет,реализация продовольственных товаров,"город Москва, Кастанаевская улица, дом 6",район Филёвский Парк,Западный административный округ,37.49795910074586,55.74052814176662,1898437.0400397796,6408987.451249982
354,2106,2106,Магазин «Продукты»,Магазин «Продукты»,,нет,реализация продовольственных товаров,"город Москва, Кастанаевская улица, дом 6",район Филёвский Парк,Западный административный округ,37.49795910074586,55.74052814176662,1898437.0400397796,6408987.451249982
355,2109,2109,Кулинария,Магазин «Продукты»,,нет,реализация продовольственных товаров,"город Москва, Кастанаевская улица, дом 42, корпус 2",район Фили-Давыдково,Западный административный округ,37.474928124846,55.73496787714382,1897241.024069872,6407908.474185263
356,2113,2113,Домашняя выпечка,Магазин «Продукты»,,нет,реализация продовольственных товаров,"город Москва, Кастанаевская улица, дом 42, корпус 2",район Фили-Давыдково,Западный административный округ,37.474928124846,55.73496787714382,1897241.024069872,6407908.474185263
357,2114,2114,Мясная продукция,Магазин «Продукты»,,нет,реализация продовольственных товаров,"город Москва, Кастанаевская улица, дом 42, корпус 2",район Фили-Давыдково,Западный административный округ,37.474928124846,55.73496787714382,1897241.024069872,6407908.474185263
358,2115,2115,Восточные сладости,Магазин «Продукты»,,нет,реализация продовольственных товаров,"город Москва, Кастанаевская улица, дом 42, корпус 2",район Фили-Давыдково,Западный административный округ,37.474928124846,55.73496787714382,1897241.024069872,6407908.474185263
359,2119,2119,Ассортида,Магазин «Продукты»,,нет,реализация продовольственных товаров,"город Москва, Кастанаевская улица, дом 42, корпус 2",район Фили-Давыдково,Западный административный округ,37.474928124846,55.73496787714382,1897241.024069872,6407908.474185263
360,2122,2122,Продукты,Магазин «Продукты»,,нет,реализация продовольственных товаров,"город Москва, Кастанаевская улица, дом 54",поселение Краснопахорское,Троицкий административный округ,37.2807,55.4303,1896536.5870005537,6370999.634429111
361,2127,2127,Продукты,Магазин «Продукты»,,нет,реализация продовольственных товаров,"город Москва, улица Каховка, дом 9Б",район Зюзино,Юго-Западный административный округ,37.58779848426853,55.65120153298329,1907211.0765701125,6401231.980115074
362,2128,2128,Продукты,Магазин «Продукты»,,нет,реализация продовольственных товаров,"город Москва, улица Каховка, дом 14, корпус 3",район Зюзино,Юго-Западный административный округ,37.576114604786476,55.656488966290645,1906303.0098169013,6401557.476249834
363,2129,2129,КАЛИТОН,Магазин «Продукты»,,нет,реализация продовольственных товаров,"город Москва, улица Каховка, дом 33, корпус 1",район Черёмушки,Юго-Западный административный округ,37.565657526569936,55.65793896302856,1905611.8880357982,6401495.021685283
364,2131,2131,Магазин «Макс-2000»,Магазин «Продукты»,,нет,реализация продовольственных товаров,"город Москва, Малая Никитская улица, дом 16/5",Пресненский район,Центральный административный округ,37.591409999999996,55.759288,1903425.3486800632,6412960.023150639
365,2134,2134,Магазин «Продукты»,Магазин «Продукты»,,нет,реализация продовольственных товаров,"город Москва, Каширский проезд, дом 9, корпус 1",район Нагатино-Садовники,Южный административный округ,37.62454619826468,55.65924845384996,1909152.777256191,6402869.726817649
366,2137,2137,Магазин «Продукты»,Магазин «Продукты»,,нет,реализация продовольственных товаров,"город Москва, Каширское шоссе, дом 5, корпус 1",район Нагатино-Садовники,Южный административный округ,37.62864248188643,55.671126233707746,1908961.624492466,6404236.125043314
367,2143,2143,Продукты,Магазин «Продукты»,,нет,реализация продовольственных товаров,"город Москва, Каширское шоссе, дом 13, корпус 2",район Нагатино-Садовники,Южный административный округ,37.63107286943517,55.66685749593197,1909268.1370844743,6403826.925733939
368,2156,2156,Магазин «Продукты Снедь»,Магазин «Продукты»,,нет,реализация продовольственных товаров,"город Москва, Каширское шоссе, дом 55, корпус 1",район Москворечье-Сабурово,Южный административный округ,37.69389747555269,55.63796285770052,1914171.16725392,6402032.39019994
369,2162,2162,Магазин «Продукты»,Магазин «Продукты»,,нет,реализация продовольственных товаров,"город Москва, Каширское шоссе, дом 68, корпус 1",район Москворечье-Сабурово,Южный административный округ,37.675880935823415,55.64358016485118,1912863.8182934974,6402258.829441327
370,2167,2167,Продукты молочная,Магазин «Продукты»,,нет,реализация продовольственных товаров,"город Москва, Каширское шоссе, дом 106",район Орехово-Борисово Северное,Южный административный округ,37.71519263406388,55.611803165475685,1916443.7819989882,6399661.23060192
371,2168,2168,Продукты,Магазин «Продукты»,,нет,реализация продовольственных товаров,"город Москва, Каширское шоссе, дом 108, корпус 1",район Орехово-Борисово Южное,Южный административный округ,37.71644209757397,55.609296665949365,1916613.358052274,6399417.397036066
372,2173,2173,Магазин Продукты,Магазин «Продукты»,,нет,реализация продовольственных товаров,"город Москва, Керченская улица, дом 1, корпус 1",район Зюзино,Юго-Западный административный округ,37.58063671751162,55.65192003668459,1906747.8417673674,6401159.494212314
373,2180,2180,СУПЕРМАРКЕТ № 2,Магазин «Продукты»,,нет,реализация продовольственных товаров,"город Москва, Киевская улица, дом 20",район Дорогомилово,Западный административный округ,37.54634387734313,55.73876264236489,1901445.432369964,6409805.8648054525
374,2197,2197,Магнат,Магазин «Продукты»,,нет,реализация продовольственных товаров,"город Москва, Кирпичная улица, дом 51",район Соколиная Гора,Восточный административный округ,37.74144336218346,55.78027606057871,1911758.6710857898,6418369.142990057
375,2198,2198,Продукты,Магазин «Продукты»,,нет,реализация продовольственных товаров,"город Москва, 1-й Кирпичный переулок, дом 17",район Соколиная Гора,Восточный административный округ,37.734460999999996,55.775144999999995,1911526.2755825003,6417669.397192282
376,2200,2200,Гастроном «Коровка»,Магазин «Продукты»,,нет,реализация продовольственных товаров,"город Москва, улица Климашкина, дом 12",Пресненский район,Центральный административный округ,37.57411795048986,55.76839269807043,1902036.9305503091,6413580.069542241
377,2206,2206,Магазин продукты,Магазин «Продукты»,,нет,реализация продовольственных товаров,"город Москва, улица Клочкова, дом 4",район Фили-Давыдково,Западный административный округ,37.45177808925133,55.725379757823184,1896185.5653007915,6406393.044190123
378,2210,2210,Продукты,Магазин «Продукты»,,нет,реализация продовольственных товаров,"город Москва, Клязьминская улица, дом 7, корпус 2",Дмитровский район,Северный административный округ,37.52178706909661,55.88875066310818,1894404.9434705325,6425462.670896493
379,2215,2215,Продукты,Магазин «Продукты»,,нет,реализация продовольственных товаров,"город Москва, Клязьминская улица, дом 32",Дмитровский район,Северный административный округ,37.53005856727985,55.89496083668705,1894676.0499554859,6426304.066753534
380,2216,2216,Продукты,Магазин «Продукты»,,нет,реализация продовольственных товаров,"город Москва, Клязьминская улица, дом 36",Дмитровский район,Северный административный округ,37.530036734141774,55.89686280702027,1894604.308482277,6426508.604954805
381,2222,2222,Продукты,Магазин «Продукты»,,нет,реализация продовольственных товаров,"город Москва, улица Софьи Ковалевской, дом 8",Дмитровский район,Северный административный округ,37.533098624482044,55.882599632460355,1895317.8577806882,6425035.0287936535
382,2225,2225,Конфетный рай,Магазин «Продукты»,,нет,реализация продовольственных товаров,"город Москва, Кожевническая улица, дом 5",район Замоскворечье,Центральный административный округ,37.6440023432636,55.730204218055526,1907702.632216149,6410926.404985819
383,2231,2231,Продукты и выпечка,Магазин «Продукты»,,нет,реализация продовольственных товаров,"город Москва, Кожевническая улица, дом 5",район Замоскворечье,Центральный административный округ,37.6440023432636,55.730204218055526,1907702.632216149,6410926.404985819
