,level_0,index,Unnamed: 0,Name,TypeObject,OperatingCompany,IsNetObject,TypeService,Address,District,AdmArea,Longitude_WGS84,Latitude_WGS84,Xs,Ys
0,2,200,200,Добрынинский и партнёры,Прочие специализированные продовольственные предприятия торговли,Добрынинский и партнёры,да,реализация продовольственных товаров,"город Москва, 9-я Парковая улица, дом 59, корпус 2",район Северное Измайлово,Восточный административный округ,37.797872999999996,55.808101,1914142.6264574511,6422555.42620971
1,3,208,208,Лит.ра,Прочие специализированные продовольственные предприятия торговли,Лит.ра,да,реализация продовольственных товаров,"город Москва, Профсоюзная улица, дом 152, корпус 2, строение 2",район Тёплый Стан,Юго-Западный административный округ,37.505382,55.622496999999996,1903244.729304564,6396413.427632914
2,4,257,257,У Палыча,Прочие специализированные продовольственные предприятия торговли,У Палыча,да,реализация продовольственных товаров,"город Москва, улица Шолохова, дом 15А",район Ново-Переделкино,Западный административный округ,37.34540919616139,55.641937704855486,1892767.1468150096,6395184.5936892275
3,6,305,305,ВкусВилл,Прочие специализированные продовольственные предприятия торговли,ВкусВилл,да,реализация продовольственных товаров,"город Москва, Абрамцевская улица, дом 3",район Лианозово,Северо-Восточный административный округ,37.57310373213343,55.89483503359264,1897287.4027454243,6427186.903042993
4,9,413,413,Лит.ра,Прочие специализированные продовольственные предприятия торговли,Лит.ра,да,реализация продовольственных товаров,"город Москва, Алтуфьевское шоссе, дом 56",Алтуфьевский район,Северо-Восточный административный округ,37.587756999,55.880607999999995,1898702.7918118143,6425959.33263928
5,11,441,441,Вкусвилл,Прочие специализированные продовольственные предприятия торговли,ВкусВилл,да,реализация продовольственных товаров,"город Москва, Алтуфьевское шоссе, дом 93",район Лианозово,Северо-Восточный административный округ,37.585767173319795,55.900220246194365,1897854.297573906,6428031.259846538
6,13,509,509,Подворье-Молоко,Прочие специализированные продовольственные предприятия торговли,Подворье,да,реализация продовольственных товаров,"город Москва, проспект Андропова, дом 28",район Нагатино-Садовники,Южный административный округ,37.662628386825034,55.679984020740875,1910702.8206619755,6405904.308264219
7,15,512,512,СушиШоп,Прочие специализированные продовольственные предприятия торговли,СушиШоп,да,реализация продовольственных товаров,"город Москва, проспект Андропова, дом 29, корпус 2",район Нагатинский Затон,Южный административный округ,37.666556301483105,55.6763152702569,1911078.4482020747,6405591.373496503
8,16,596,596,ОЧАКОВО,Прочие специализированные продовольственные предприятия торговли,Очаково,да,реализация продовольственных товаров,"город Москва, улица Лётчика Бабушкина, дом 8",Бабушкинский район,Северо-Восточный административный округ,37.674517,55.860004,1904725.2694961168,6425553.330154877
9,18,691,691,Бристоль,Прочие специализированные продовольственные предприятия торговли,Бристоль,да,реализация продовольственных товаров,"город Москва, Башиловская улица, дом 1, корпус 1",Савёловский район,Северный административный округ,37.57671847069437,55.792885941484535,1901287.153206332,6416274.5757719325
10,21,786,786,ТОРТЫ ОНИКС,Прочие специализированные продовольственные предприятия торговли,Оникс,да,реализация продовольственных товаров,"город Москва, улица Маршала Бирюзова, дом 19",район Щукино,Северо-Западный административный округ,37.49093159396975,55.79427723748157,1896025.536099628,6414636.59792212
11,24,799,799,У Палыча,Прочие специализированные продовольственные предприятия торговли,У Палыча,да,реализация продовольственных товаров,"город Москва, улица Маршала Бирюзова, дом 20, корпус 1",район Щукино,Северо-Западный административный округ,37.49029644310957,55.79555743320629,1895939.6905008384,6414761.414685248
12,27,927,927,У Палыча,Прочие специализированные продовольственные предприятия торговли,У Палыча,да,реализация продовольственных товаров,"город Москва, Бутырская улица, дом 4",Бутырский район,Северо-Восточный административный округ,37.585933713180715,55.79483036207107,1901774.648460495,6416676.643404271
13,28,941,941,У Палыча,Прочие специализированные продовольственные предприятия торговли,У Палыча,да,реализация продовольственных товаров,"город Москва, Бутырская улица, дом 95",Савёловский район,Северный административный округ,37.580530978794755,55.80738132114094,1900981.2276438016,6417916.599258412
14,33,1146,1146,Добрынинский и партнёры,Прочие специализированные продовольственные предприятия торговли,Добрынинский и партнёры,да,реализация продовольственных товаров,"город Москва, 2-я Владимирская улица, дом 38/18",район Перово,Восточный административный округ,37.78420005324544,55.75026229438048,1915477.4264377127,6416036.657727484
15,34,1157,1157,У Палыча,Прочие специализированные продовольственные предприятия торговли,У Палыча,да,реализация продовольственных товаров,"город Москва, 2-я Владимирская улица, дом 40",район Перово,Восточный административный округ,37.784544999,55.74976099999989,1915517.1375473947,6415989.931448707
16,40,1389,1389,МЯСНОВЪ,Прочие специализированные продовольственные предприятия торговли,Мясновъ,да,реализация продовольственных товаров,"город Москва, улица Героев Панфиловцев, дом 35",район Северное Тушино,Северо-Западный административный округ,37.412033984329184,55.85594446618534,1888963.4267216998,6419648.481957885
17,42,1424,1424,Лит.ра,Прочие специализированные продовольственные предприятия торговли,Лит.ра,да,реализация продовольственных товаров,"город Москва, Городецкая улица, дом 3",район Новокосино,Восточный административный округ,37.86678116201347,55.74394804029779,1920731.4359393974,6417102.179171354
18,48,1481,1481,ИНДИЙСКИЕ СПЕЦИИ,Прочие специализированные продовольственные предприятия торговли,Индийские специи,да,реализация продовольственных товаров,"город Москва, 1-я Тверская-Ямская улица, дом 20/1",Тверской район,Центральный административный округ,37.590506,55.773596,1902839.83119326,6414483.39673796
19,50,1581,1581,У Палыча,Прочие специализированные продовольственные предприятия торговли,У Палыча,да,реализация продовольственных товаров,"город Москва, улица Декабристов, дом 21",район Отрадное,Северо-Восточный административный округ,37.607703562805575,55.86396513201252,1900529.2707030247,6424582.2830917435
20,51,1582,1582,5lb Спортивное питание,Прочие специализированные продовольственные предприятия торговли,5lb,да,реализация продовольственных товаров,"город Москва, улица Декабристов, дом 21",район Отрадное,Северо-Восточный административный округ,37.607703562805575,55.86396513201252,1900529.2707030247,6424582.2830917435
21,57,1805,1805,Красная икра,Прочие специализированные продовольственные предприятия торговли,Красная икра,да,реализация продовольственных товаров,"город Москва, Енисейская улица, дом 17, корпус 1",Бабушкинский район,Северо-Восточный административный округ,37.662613628729154,55.86780472425888,1903713.4972320062,6426144.431143773
22,60,1909,1909,У Палыча,Прочие специализированные продовольственные предприятия торговли,У Палыча,да,реализация продовольственных товаров,"город Москва, Волгоградский проспект, дом 82/37",район Кузьминки,Юго-Восточный административный округ,37.767088621455905,55.70462760880208,1916143.0891523957,6410759.063713529
23,68,2250,2250,Ароматный мир,Прочие специализированные продовольственные предприятия торговли,Ароматный Мир,да,реализация продовольственных товаров,"город Москва, Большая Сухаревская площадь, дом 16/18, строение 1",Красносельский район,Центральный административный округ,37.63727491777023,55.77153600666996,1905757.7142537504,6415240.0607075775
24,74,2360,2360,Мясницкий ряд,Прочие специализированные продовольственные предприятия торговли,Мясницкий ряд,да,реализация продовольственных товаров,"город Москва, Коровинское шоссе, дом 25/30",район Западное Дегунино,Северный административный округ,37.522629551857975,55.87780430150339,1894861.0703478758,6424300.343097061
25,86,2882,2882,Добрынинский и партнёры,Прочие специализированные продовольственные предприятия торговли,Добрынинский и партнёры,да,реализация продовольственных товаров,"город Москва, Ленинский проспект, дом 34/1",Гагаринский район,Юго-Западный административный округ,37.577384409042956,55.706836182722576,1904516.0699530384,6407012.340686461
26,89,2989,2989,У Палыча,Прочие специализированные продовольственные предприятия торговли,У Палыча,да,реализация продовольственных товаров,"город Москва, Ленинский проспект, дом 89/2",Ломоносовский район,Юго-Западный административный округ,37.53145909399603,55.67780966128233,1902792.9159564641,6402922.984796925
27,90,3037,3037,У Палыча,Прочие специализированные продовольственные предприятия торговли,У Палыча,да,реализация продовольственных товаров,"город Москва, улица Лескова, дом 30",район Бибирево,Северо-Восточный административный округ,37.61665426504156,55.892722193837116,1900002.8766051952,6427867.975115275
28,91,3043,3043,Добрынинский и партнёры,Прочие специализированные продовольственные предприятия торговли,Добрынинский и партнёры,да,реализация продовольственных товаров,"город Москва, Лесная улица, дом 8/12",Тверской район,Центральный административный округ,37.58830153082082,55.777901333705614,1902546.245107413,6414901.388128392
29,92,3120,3120,Кантата,Прочие специализированные продовольственные предприятия торговли,Кантата,да,реализация продовольственных товаров,"город Москва, Люсиновская улица, дом 4",район Замоскворечье,Центральный административный округ,37.622333000000005,55.727136,1906498.542760305,6410141.511668528
30,97,3271,3271,Индийские специи,Прочие специализированные продовольственные предприятия торговли,Индийские специи,да,реализация продовольственных товаров,"город Москва, улица Миклухо-Маклая, дом 5",Обручевский район,Юго-Западный административный округ,37.499695,55.655498,1901680.496779756,6399854.031461808
31,103,3470,3470,ИНДИЙСКИЕ СПЕЦИИ,Прочие специализированные продовольственные предприятия торговли,Индийские специи,да,реализация продовольственных товаров,"город Москва, улица Можайский Вал, дом 1",район Дорогомилово,Западный административный округ,37.558396709222,55.74565870812233,1901923.246433564,6410800.959958772
32,105,3518,3518,ВкусВилл,Прочие специализированные продовольственные предприятия торговли,ВкусВилл,да,реализация продовольственных товаров,"город Москва, улица Молостовых, дом 14, корпус 1",район Ивановское,Восточный административный округ,37.831337079819406,55.75421166032872,1918193.175996247,6417457.6167956265
33,108,3752,3752,У Палыча,Прочие специализированные продовольственные предприятия торговли,У Палыча,да,реализация продовольственных товаров,"город Москва, Новокузнецкая улица, дом 13, строение 1",район Замоскворечье,Центральный административный округ,37.631784629736856,55.73741683667836,1906691.642161621,6411447.691476315
34,112,3956,3956,ВкусВилл,Прочие специализированные продовольственные предприятия торговли,ВкусВилл,да,реализация продовольственных товаров,"город Москва, Открытое шоссе, дом 24, корпус 11",район Метрогородок,Восточный административный округ,37.757540520342815,55.822999587380295,1911139.000621517,6423310.447427741
35,115,4216,4216,Лит.ра,Прочие специализированные продовольственные предприятия торговли,Лит.ра,да,реализация продовольственных товаров,"город Москва, Петровско-Разумовский проезд, дом 16",Савёловский район,Северный административный округ,37.569468,55.797574,1900673.1294876155,6416628.5165077085
36,118,4285,4285,Лит.ра,Прочие специализированные продовольственные предприятия торговли,Лит.ра,да,реализация продовольственных товаров,"город Москва, улица Плещеева, дом 8",район Бибирево,Северо-Восточный административный округ,37.60838823896128,55.88482943150751,1899795.637846672,6426844.872729777
37,119,4356,4356,У Палыча,Прочие специализированные продовольственные предприятия торговли,У Палыча,да,реализация продовольственных товаров,"город Москва, улица Большая Полянка, дом 28, корпус 1",район Якиманка,Центральный административный округ,37.618618528910545,55.736362821209475,1905930.1091460544,6411058.263564354
38,122,4376,4376,Красное и Белое,Прочие специализированные продовольственные предприятия торговли,Красное и Белое,да,реализация продовольственных товаров,"город Москва, Полярная улица, дом 4, корпус 1",район Южное Медведково,Северо-Восточный административный округ,37.638503,55.872647,1902072.6340976784,6426161.569848063
39,137,4556,4556,Добрынинский и партнёры,Прочие специализированные продовольственные предприятия торговли,Добрынинский и партнёры,да,реализация продовольственных товаров,"город Москва, улица Большая Дмитровка, дом 21/7",Тверской район,Центральный административный округ,37.610084093416184,55.76531079862639,1904336.8177419046,6413999.8181908475
40,139,4602,4602,Добрынинский и партнёры,Прочие специализированные продовольственные предприятия торговли,Добрынинский и партнёры,да,реализация продовольственных товаров,"город Москва, бульвар Яна Райниса, дом 2, корпус 1",район Северное Тушино,Северо-Западный административный округ,37.42115655601655,55.84877517619089,1889780.701123774,6419064.351000731
41,140,4603,4603,ВкусВилл,Прочие специализированные продовольственные предприятия торговли,ВкусВилл,да,реализация продовольственных товаров,"город Москва, бульвар Яна Райниса, дом 2, корпус 1",район Северное Тушино,Северо-Западный административный округ,37.434214000000004,55.851084,1890487.6926543487,6419583.861210294
42,141,4604,4604,У Палыча,Прочие специализированные продовольственные предприятия торговли,У Палыча,да,реализация продовольственных товаров,"город Москва, бульвар Яна Райниса, дом 2, корпус 1",район Северное Тушино,Северо-Западный административный округ,37.42115655601655,55.84877517619089,1889780.701123774,6419064.351000731
43,144,4736,4736,Красное и Белое,Прочие специализированные продовольственные предприятия торговли,Красное и Белое,да,реализация продовольственных товаров,"город Москва, улица Руставели, дом 15",Бутырский район,Северо-Восточный административный округ,37.596000503326266,55.8137337141231,1901684.5030619304,6418924.400318535
44,145,4740,4740,Лит.ра,Прочие специализированные продовольственные предприятия торговли,Лит.ра,да,реализация продовольственных товаров,"город Москва, улица Маршала Рыбалко, дом 9",район Щукино,Северо-Западный административный округ,37.49043191911324,55.79731165675949,1895883.150075044,6414953.368410007
45,146,4759,4759,У Палыча,Прочие специализированные продовольственные предприятия торговли,У Палыча,да,реализация продовольственных товаров,"город Москва, Рязанский проспект, дом 48",Рязанский район,Юго-Восточный административный округ,37.793384839885995,55.716242672443826,1917308.39740483,6412565.5325213075
46,151,4945,4945,Лит.ра,Прочие специализированные продовольственные предприятия торговли,Лит.ра,да,реализация продовольственных товаров,"город Москва, Сиреневый бульвар, дом 63",район Северное Измайлово,Восточный административный округ,37.82036319187849,55.80368063187184,1915672.500990213,6422553.9306867225
47,161,5255,5255,Суши Wok,Прочие специализированные продовольственные предприятия торговли,Суши Wok,да,реализация продовольственных товаров,"город Москва, Сходненская улица, дом 31",район Южное Тушино,Северо-Западный административный округ,37.43884071127417,55.84745010417229,1890902.238095703,6419287.955135928
48,163,5425,5425,Отдохни,Прочие специализированные продовольственные предприятия торговли,Отдохни,да,реализация продовольственных товаров,"город Москва, Тимирязевская улица, дом 16",Тимирязевский район,Северный административный округ,37.565850432017854,55.81485350537508,1899813.1942605725,6418415.554011872
49,164,5426,5426,Мясновъ,Прочие специализированные продовольственные предприятия торговли,Мясновъ,да,реализация продовольственных товаров,"город Москва, Тимирязевская улица, дом 16",Тимирязевский район,Северный административный округ,37.565850432017854,55.81485350537508,1899813.1942605725,6418415.554011872
50,165,5427,5427,У Палыча,Прочие специализированные продовольственные предприятия торговли,У Палыча,да,реализация продовольственных товаров,"город Москва, Тимирязевская улица, дом 17А",Тимирязевский район,Северный административный округ,37.56667815668336,55.81101374730743,1900005.722784357,6418018.947639308
51,166,5428,5428,Магазин Рублевский,Прочие специализированные продовольственные предприятия торговли,Рублевский,да,реализация продовольственных товаров,"город Москва, Тимирязевская улица, дом 17А",Тимирязевский район,Северный административный округ,37.56667815668336,55.81101374730743,1900005.722784357,6418018.947639308
52,171,5550,5550,Куриный Дом,Прочие специализированные продовольственные предприятия торговли,Куриный Дом,да,реализация продовольственных товаров,"город Москва, Туристская улица, дом 23",район Северное Тушино,Северо-Западный административный округ,37.42068361035462,55.85404603337322,1889557.9285556974,6419622.896253307
53,172,5559,5559,Шантимель,Прочие специализированные продовольственные предприятия торговли,Шантимель,да,реализация продовольственных товаров,"город Москва, Тушинская улица, дом 13",район Покровское-Стрешнево,Северо-Западный административный округ,37.446519993407705,55.8266102295381,1892136.234950662,6417200.193430803
54,176,5722,5722,У Палыча,Прочие специализированные продовольственные предприятия торговли,У Палыча,да,реализация продовольственных товаров,"город Москва, Осенний бульвар, дом 20, корпус 1",район Крылатское,Западный административный округ,37.408039098535795,55.76340323941339,1892125.3308269687,6409585.95421626
55,177,5723,5723,Суши Вок,Прочие специализированные продовольственные предприятия торговли,Суши Вок,да,реализация продовольственных товаров,"город Москва, Осенний бульвар, дом 20, корпус 1",район Крылатское,Западный административный округ,37.408089095556,55.7634202699629,1892127.74489246,6409588.827513113
56,182,5904,5904,ВкусВилл,Прочие специализированные продовольственные предприятия торговли,ВкусВилл,да,реализация продовольственных товаров,"город Москва, Халтуринская улица, дом 17",район Преображенское,Восточный административный округ,37.724800486119435,55.80343438723846,1909883.8650640438,6420514.053775864
57,184,5931,5931,Красная икра,Прочие специализированные продовольственные предприятия торговли,Красная икра,да,реализация продовольственных товаров,"город Москва, Химкинский бульвар, дом 16, корпус 1",район Северное Тушино,Северо-Западный административный округ,37.44299834877765,55.85198139234279,1890987.4167024759,6419862.725213374
58,186,5967,5967,Кристалл,Прочие специализированные продовольственные предприятия торговли,Кристалл,да,реализация продовольственных товаров,"город Москва, Хорошёвское шоссе, дом 23, корпус 1",Хорошёвский район,Северный административный округ,37.52888416554576,55.776753960851785,1898978.73474459,6413537.585555747
59,193,6240,6240,У Палыча,Прочие специализированные продовольственные предприятия торговли,У Палыча,да,реализация продовольственных товаров,"город Москва, улица Шаболовка, дом 24",район Якиманка,Центральный административный округ,37.60930738643792,55.72087931241483,1905938.2946859438,6409194.267794297
60,197,6417,6417,Добрынинский и партнёры,Прочие специализированные продовольственные предприятия торговли,Добрынинский и партнёры,да,реализация продовольственных товаров,"город Москва, шоссе Энтузиастов, дом 22/18",район Лефортово,Юго-Восточный административный округ,37.717065999999996,55.751073999999996,1911367.6893144515,6414709.9062130265
61,201,6494,6494,ВкусВилл,Прочие специализированные продовольственные предприятия торговли,ВкусВилл,да,реализация продовольственных товаров,"город Москва, улица Яблочкова, дом 37",Бутырский район,Северо-Восточный административный округ,37.57892704461488,55.826908437657096,1900159.7970090082,6419987.782087105
62,204,6579,6579,ВкусВилл,Прочие специализированные продовольственные предприятия торговли,ВкусВилл,да,реализация продовольственных товаров,"город Москва, город Зеленоград, корпус 834А",район Старое Крюково,Зеленоградский административный округ,37.175906,55.980084999999995,1870114.8001885347,6428180.440940263
63,205,6608,6608,Супермаркет «ДИКСИ»,Прочие специализированные продовольственные предприятия торговли,Дикси,да,реализация продовольственных товаров,"город Москва, город Зеленоград, корпус 1204",район Силино,Зеленоградский административный округ,37.190385,55.995008999999996,1870446.1437273347,6430086.300169682
64,208,6622,6622,Добрынинский и партнёры,Прочие специализированные продовольственные предприятия торговли,Добрынинский и партнёры,да,реализация продовольственных товаров,"город Москва, Благовещенский переулок, дом 5",Тверской район,Центральный административный округ,37.5985397801966,55.76793856879818,1903537.808556761,6414041.561122567
65,210,6667,6667,Лит.ра,Прочие специализированные продовольственные предприятия торговли,Лит.ра,да,реализация продовольственных товаров,"город Москва, проезд Дежнёва, дом 29, корпус 1",район Южное Медведково,Северо-Восточный административный округ,37.631308000000004,55.869864,1901740.263873303,6425711.236929357
66,226,7233,7233,У Палыча,Прочие специализированные продовольственные предприятия торговли,У Палыча,да,реализация продовольственных товаров,"город Москва, Братиславская улица, дом 23",район Марьино,Юго-Восточный административный округ,37.76406066920875,55.65608679435969,1917771.778098674,6405464.718681907
67,227,7236,7236,У Палыча,Прочие специализированные продовольственные предприятия торговли,У Палыча,да,реализация продовольственных товаров,"город Москва, Братиславская улица, дом 16, корпус 1",район Марьино,Юго-Восточный административный округ,37.757764323826656,55.65928697966577,1917268.712512714,6405676.6763221165
68,228,7292,7292,У Палыча,Прочие специализированные продовольственные предприятия торговли,У Палыча,да,реализация продовольственных товаров,"город Москва, Южнопортовая улица, дом 18",Южнопортовый район,Юго-Восточный административный округ,37.684764526944605,55.706328050448704,1911070.478565316,6409208.805378088
69,234,7597,7597,КОНФАЭЛЬ,Прочие специализированные продовольственные предприятия торговли,Конфаэль,да,реализация продовольственных товаров,"город Москва, Кутузовский проспект, дом 33",район Дорогомилово,Западный административный округ,37.540791848511674,55.741547279488316,1901004.7301109743,6409990.219175175
70,236,7647,7647,У Палыча,Прочие специализированные продовольственные предприятия торговли,У Палыча,да,реализация продовольственных товаров,"город Москва, Митинская улица, дом 27",район Митино,Северо-Западный административный округ,37.36110910175507,55.845091075057155,1886273.105885132,6417424.880076799
71,239,7660,7660,Пиво Пинта,Прочие специализированные продовольственные предприятия торговли,Пинта,да,реализация продовольственных товаров,"город Москва, Митинская улица, дом 25",район Митино,Северо-Западный административный округ,37.36311459985447,55.84421023230127,1886427.1418364332,6417371.315078661
72,262,8137,8137,Лит.ра,Прочие специализированные продовольственные предприятия торговли,Лит.ра,да,реализация продовольственных товаров,"город Москва, Большая Марфинская улица, дом 4, корпус 3",район Марфино,Северо-Восточный административный округ,37.59534169529367,55.827376882835075,1901138.230979203,6420381.037196229
73,266,8389,8389,Конфаэль,Прочие специализированные продовольственные предприятия торговли,Конфаэль,да,реализация продовольственных товаров,"город Москва, Дмитровское шоссе, дом 163А, корпус 1",район Северный,Северо-Восточный административный округ,37.53922340009041,55.90892973370979,1894713.6361634738,6428000.2589543015
74,273,8684,8684,Ближние горки,Прочие специализированные продовольственные предприятия торговли,Ближние горки,да,реализация продовольственных товаров,"город Москва, улица Гарибальди, дом 7",Ломоносовский район,Юго-Западный административный округ,37.53742622882,55.677491837120286,1903168.2473743868,6403013.316856823
75,287,9081,9081,Магазин «Подворье»,Прочие специализированные продовольственные предприятия торговли,Подворье,да,реализация продовольственных товаров,"город Москва, микрорайон Северное Чертаново, дом 1А",район Чертаново Северное,Южный административный округ,37.59835146247136,55.636217533223856,1908409.633095628,6399837.466149527
76,297,9535,9535,ГОРЯЧИЙ КАЛАЧ,Прочие специализированные продовольственные предприятия торговли,Горячий калач,да,реализация продовольственных товаров,"город Москва, поселение ""Мосрентген"", посёлок Завода Мосрентген, дом 22","поселение ""Мосрентген""",Новомосковский административный округ,37.474515999999994,55.620957,1901417.575900516,6395603.53318881
77,299,9637,9637,Кантата,Прочие специализированные продовольственные предприятия торговли,Кантата,да,реализация продовольственных товаров,"город Москва, улица 1905 Года, дом 10, строение 1",Пресненский район,Центральный административный округ,37.55861824648139,55.768010590516994,1901109.155918012,6413215.216049022
78,300,9655,9655,Кофейня кантата,Прочие специализированные продовольственные предприятия торговли,Кантата,да,реализация продовольственных товаров,"город Москва, улица Вавилова, дом 66",Гагаринский район,Юго-Западный административный округ,37.54921131457,55.68318066852585,1903675.933218839,6403872.91977688
79,302,9799,9799,ОНИКС,Прочие специализированные продовольственные предприятия торговли,Оникс,да,реализация продовольственных товаров,"город Москва, Планерная улица, дом 14, корпус 1",район Северное Тушино,Северо-Западный административный округ,37.43663578542231,55.86386105150867,1890163.7327837544,6421011.6859658435
80,303,9883,9883,Красное и Белое,Прочие специализированные продовольственные предприятия торговли,Красное и Белое,да,реализация продовольственных товаров,"город Москва, проезд Дежнёва, дом 13",район Южное Медведково,Северо-Восточный административный округ,37.641045,55.870642000000004,1902301.2209514428,6425998.707515397
81,317,10284,10284,Мясновъ,Прочие специализированные продовольственные предприятия торговли,Мясновъ,да,реализация продовольственных товаров,"город Москва, улица Маршала Федоренко, дом 7",район Западное Дегунино,Северный административный округ,37.4898291586807,55.88032323762735,1892780.4562375038,6423890.061967976
82,321,10364,10364,Индийские специи,Прочие специализированные продовольственные предприятия торговли,Индийские специи,да,реализация продовольственных товаров,"город Москва, Панкратьевский переулок, дом 2",Красносельский район,Центральный административный округ,37.63320488918794,55.7716881200776,1905504.8004400076,6415171.199632018
83,326,10466,10466,МясновЪ,Прочие специализированные продовольственные предприятия торговли,Мясновъ,да,реализация продовольственных товаров,"город Москва, улица Декабристов, дом 8",район Отрадное,Северо-Восточный административный округ,37.59778982572171,55.86490959487459,1899893.4298496374,6424477.021094709
84,328,10536,10536,Лит.ра,Прочие специализированные продовольственные предприятия торговли,Лит.ра,да,реализация продовольственных товаров,"город Москва, Смольная улица, дом 35, строение 1",район Левобережный,Северный административный округ,37.48124331858275,55.8610668520235,1892971.3798606747,6421635.892485139
85,333,10611,10611,Подворье,Прочие специализированные продовольственные предприятия торговли,Подворье,да,реализация продовольственных товаров,"город Москва, улица Шолохова, дом 22",район Ново-Переделкино,Западный административный округ,37.349192077522495,55.64111307552096,1893028.2105861614,6395173.968548412
86,348,11563,11563,Лит.ра,Прочие специализированные продовольственные предприятия торговли,Лит.ра,да,реализация продовольственных товаров,"город Москва, микрорайон Северное Чертаново, корпус 823",район Чертаново Северное,Южный административный округ,37.59646795357643,55.6362781685466,1908292.5111814009,6399804.5323959775
87,355,11884,11884,Аленка,Прочие специализированные продовольственные предприятия торговли,Аленка,да,реализация продовольственных товаров,"город Москва, Саянская улица, дом 9А",район Ивановское,Восточный административный округ,37.83260235162695,55.76907300759851,1917712.817944317,6419085.076420825
88,369,12184,12184,Лит.Ра,Прочие специализированные продовольственные предприятия торговли,Лит.ра,да,реализация продовольственных товаров,"город Москва, улица Маршала Захарова, дом 16, корпус 2",район Орехово-Борисово Северное,Южный административный округ,37.69810154302071,55.62159308932078,1915036.7252985344,6400356.401484711
89,370,12205,12205,Разливное пиво «Лит.ра»,Прочие специализированные продовольственные предприятия торговли,Лит.ра,да,реализация продовольственных товаров,"город Москва, улица Мусы Джалиля, дом 15, строение 2",район Зябликово,Южный административный округ,37.744007622796616,55.6243424065069,1917734.076373336,6401620.448605748
90,377,12286,12286,Разливное пиво «Лит.ра»,Прочие специализированные продовольственные предприятия торговли,Лит.ра,да,реализация продовольственных товаров,"город Москва, улица Мусы Джалиля, дом 27, корпус 3",район Зябликово,Южный административный округ,37.74507003987814,55.61787742086073,1918039.9748389318,6400946.09945836
91,380,12328,12328,Магазин «ВкусВилл»,Прочие специализированные продовольственные предприятия торговли,ВкусВилл,да,реализация продовольственных товаров,"город Москва, Элеваторная улица, дом 12, корпус 2",район Бирюлёво Восточное,Южный административный округ,37.66464864302031,55.60136217192543,1913747.784814122,6397471.466259526
92,383,12374,12374,Кофейная комната «Кантата»,Прочие специализированные продовольственные предприятия торговли,Кантата,да,реализация продовольственных товаров,"город Москва, Кустанайская улица, дом 6",район Зябликово,Южный административный округ,37.75215702122789,55.61958051617915,1918408.6926830297,6401279.245932488
93,387,12505,12505,Лит.ра,Прочие специализированные продовольственные предприятия торговли,Лит.ра,да,реализация продовольственных товаров,"город Москва, Снежная улица, дом 16, корпус 6",район Свиблово,Северо-Восточный административный округ,37.646346,55.85178678534065,1903323.980608429,6424078.000539677
94,388,12569,12569,Tutti frutti,Прочие специализированные продовольственные предприятия торговли,Tutti frutti,да,реализация продовольственных товаров,"город Москва, Театральный проезд, дом 5, строение 1",Мещанский район,Центральный административный округ,37.62488624248117,55.76016939861228,1905427.2328716184,6413755.516072871
95,389,12690,12690,Красная икра,Прочие специализированные продовольственные предприятия торговли,Красная икра,да,реализация продовольственных товаров,"город Москва, Троилинский переулок, дом 3",район Арбат,Центральный административный округ,37.584095141858604,55.74804603740633,1903397.4401125696,6411595.258188778
96,390,12691,12691,У Палыча,Прочие специализированные продовольственные предприятия торговли,У Палыча,да,реализация продовольственных товаров,"город Москва, Троилинский переулок, дом 3",район Арбат,Центральный административный округ,37.584095141858604,55.74804603740633,1903397.4401125696,6411595.258188778
97,398,12921,12921,Магазин «Добрынинский и партнёры»,Прочие специализированные продовольственные предприятия торговли,Добрынинский и партнёры,да,реализация продовольственных товаров,"город Москва, улица Рогожский Вал, дом 5, строение 1",Таганский район,Центральный административный округ,37.67912954094968,55.74438249210885,1909311.215907222,6413191.571441107
98,399,12922,12922,Магазин «У Палыча»,Прочие специализированные продовольственные предприятия торговли,У Палыча,да,реализация продовольственных товаров,"город Москва, улица Рогожский Вал, дом 5, строение 1",Таганский район,Центральный административный округ,37.67912954094968,55.74438249210885,1909311.215907222,6413191.571441107
99,405,13013,13013,Магазин «ВкусВилл»,Прочие специализированные продовольственные предприятия торговли,ВкусВилл,да,реализация продовольственных товаров,"город Москва, Шипиловская улица, дом 52",район Зябликово,Южный административный округ,37.73902364247182,55.621374813213656,1917540.7854000214,6401195.448861376
100,406,13016,13016,ВкусВилл,Прочие специализированные продовольственные предприятия торговли,ВкусВилл,да,реализация продовольственных товаров,"город Москва, Чонгарский бульвар, дом 19",Нагорный район,Южный административный округ,37.60673395037938,55.65284382715769,1908304.5918000871,6401805.764684778
101,410,13048,13048,Избенка,Прочие специализированные продовольственные предприятия торговли,Избенка,да,реализация продовольственных товаров,"город Москва, Тимирязевская улица, дом 2/3",Тимирязевский район,Северный административный округ,37.573443,55.808059,1900525.854864963,6417841.6555241365
102,417,13458,13458,Travelers Coffee,Прочие специализированные продовольственные предприятия торговли,Travelers Coffee,да,реализация продовольственных товаров,"город Москва, Хорошёвское шоссе, дом 38А",Хорошёвский район,Северный административный округ,37.539155,55.78161,1899423.146234524,6414275.216796262
103,420,13491,13491,Баскин Роббинс,Прочие специализированные продовольственные предприятия торговли,Баскин Роббинс,да,реализация продовольственных товаров,"город Москва, Хорошёвское шоссе, дом 38А",Хорошёвский район,Северный административный округ,37.539155,55.78161,1899423.146234524,6414275.216796262
104,422,13502,13502,Costa Coffee,Прочие специализированные продовольственные предприятия торговли,Costa coffee,да,реализация продовольственных товаров,"город Москва, Хорошёвское шоссе, дом 38А",Хорошёвский район,Северный административный округ,37.539155,55.78161,1899423.146234524,6414275.216796262
105,425,13516,13516,KFC,Прочие специализированные продовольственные предприятия торговли,KFC,да,реализация продовольственных товаров,"город Москва, Хорошёвское шоссе, дом 38А",Хорошёвский район,Северный административный округ,37.539155,55.78161,1899423.146234524,6414275.216796262
106,426,13521,13521,Крошка-картошка,Прочие специализированные продовольственные предприятия торговли,Крошка-картошка,да,реализация продовольственных товаров,"город Москва, Хорошёвское шоссе, дом 38А",Хорошёвский район,Северный административный округ,37.539155,55.78161,1899423.146234524,6414275.216796262
107,427,13524,13524,Елки Палки,Прочие специализированные продовольственные предприятия торговли,Елки Палки,да,реализация продовольственных товаров,"город Москва, Хорошёвское шоссе, дом 38А",Хорошёвский район,Северный административный округ,37.539155,55.78161,1899423.146234524,6414275.216796262
108,428,13556,13556,TGI Fridays,Прочие специализированные продовольственные предприятия торговли,TGI Fridays,да,реализация продовольственных товаров,"город Москва, Хорошёвское шоссе, дом 38А",Хорошёвский район,Северный административный округ,37.539155,55.78161,1899423.146234524,6414275.216796262
109,429,13559,13559,Теремок,Прочие специализированные продовольственные предприятия торговли,Теремок,да,реализация продовольственных товаров,"город Москва, Хорошёвское шоссе, дом 38А",Хорошёвский район,Северный административный округ,37.539155,55.78161,1899423.146234524,6414275.216796262
110,430,13566,13566,Восточный базар,Прочие специализированные продовольственные предприятия торговли,Восточный базар,да,реализация продовольственных товаров,"город Москва, Хорошёвское шоссе, дом 38А",Хорошёвский район,Северный административный округ,37.539155,55.78161,1899423.146234524,6414275.216796262
111,431,13575,13575,Япоша,Прочие специализированные продовольственные предприятия торговли,ЯПОША,да,реализация продовольственных товаров,"город Москва, Хорошёвское шоссе, дом 38А",Хорошёвский район,Северный административный округ,37.539155,55.78161,1899423.146234524,6414275.216796262
112,432,13589,13589,Шоколадница,Прочие специализированные продовольственные предприятия торговли,Шоколадница,да,реализация продовольственных товаров,"город Москва, Хорошёвское шоссе, дом 38А",Хорошёвский район,Северный административный округ,37.539155,55.78161,1899423.146234524,6414275.216796262
113,433,13591,13591,Старбакс,Прочие специализированные продовольственные предприятия торговли,Старбакс,да,реализация продовольственных товаров,"город Москва, Хорошёвское шоссе, дом 38А",Хорошёвский район,Северный административный округ,37.539155,55.78161,1899423.146234524,6414275.216796262
114,434,13598,13598,Tutti frutti,Прочие специализированные продовольственные предприятия торговли,Tutti frutti,да,реализация продовольственных товаров,"город Москва, Хорошёвское шоссе, дом 38А",Хорошёвский район,Северный административный округ,37.539155,55.78161,1899423.146234524,6414275.216796262
115,435,13599,13599,Tutti frutti,Прочие специализированные продовольственные предприятия торговли,Tutti frutti,да,реализация продовольственных товаров,"город Москва, Хорошёвское шоссе, дом 38А",Хорошёвский район,Северный административный округ,37.539155,55.78161,1899423.146234524,6414275.216796262
116,437,13629,13629,Сбарро,Прочие специализированные продовольственные предприятия торговли,Сбарро,да,реализация продовольственных товаров,"город Москва, Хорошёвское шоссе, дом 38А",Хорошёвский район,Северный административный округ,37.539155,55.78161,1899423.146234524,6414275.216796262
117,441,13653,13653,Panda Express,Прочие специализированные продовольственные предприятия торговли,Panda Express,да,реализация продовольственных товаров,"город Москва, Ходынский бульвар, дом 4",Хорошёвский район,Северный административный округ,37.52774800000001,55.790177767350436,1898413.2725086256,6414961.099945517
118,456,14317,14317,ОТДОХНИ,Прочие специализированные продовольственные предприятия торговли,Отдохни,да,реализация продовольственных товаров,"город Москва, улица Менжинского, дом 5А",Бабушкинский район,Северо-Восточный административный округ,37.67720883280933,55.86717913576044,1904620.9969047413,6426382.765757225
119,457,14369,14369,Кантата,Прочие специализированные продовольственные предприятия торговли,Кантата,да,реализация продовольственных товаров,"город Москва, Алтуфьевское шоссе, дом 86, корпус 1",район Бибирево,Северо-Восточный административный округ,37.58819562628668,55.897758739514636,1898092.7020687526,6427816.6615212215
120,467,14383,14383,Рублевский,Прочие специализированные продовольственные предприятия торговли,Рублевский,да,реализация продовольственных товаров,"город Москва, улица Плещеева, дом 4, корпус 1",район Бибирево,Северо-Восточный административный округ,37.60555175504409,55.88307813746398,1899688.9092209,6426596.9309356
121,498,14705,14705,Кантата,Прочие специализированные продовольственные предприятия торговли,Кантата,да,реализация продовольственных товаров,"город Москва, Ярославское шоссе, дом 54",Ярославский район,Северо-Восточный административный округ,37.70487805161946,55.865503290409286,1906359.6624787373,6426782.401498721
122,501,14757,14757,Кантата,Прочие специализированные продовольственные предприятия торговли,Кантата,да,реализация продовольственных товаров,"город Москва, улица Пришвина, дом 22",район Бибирево,Северо-Восточный административный округ,37.60217922613153,55.885563632958714,1899392.3241953584,6426794.346780466
123,506,14953,14953,Кантата,Прочие специализированные продовольственные предприятия торговли,Кантата,да,реализация продовольственных товаров,"город Москва, Алтуфьевское шоссе, дом 70, корпус 1",район Бибирево,Северо-Восточный административный округ,37.58853705234736,55.88825469159409,1898466.195590404,6426799.629887295
124,507,15031,15031,Кофейная кантата,Прочие специализированные продовольственные предприятия торговли,Кантата,да,реализация продовольственных товаров,"город Москва, Дмитровское шоссе, дом 163А, корпус 1",район Северный,Северо-Восточный административный округ,37.53922340009041,55.90892973370979,1894713.6361634738,6428000.2589543015
125,511,15267,15267,У Палыча,Прочие специализированные продовольственные предприятия торговли,У Палыча,да,реализация продовольственных товаров,"город Москва, улица Дудинка, дом 3",Ярославский район,Северо-Восточный административный округ,37.68765761996078,55.861942167402646,1905449.22550086,6426037.575768215
126,512,15268,15268,Мясницкий ряд,Прочие специализированные продовольственные предприятия торговли,Мясницкий ряд,да,реализация продовольственных товаров,"город Москва, улица Дудинка, дом 3",Ярославский район,Северо-Восточный административный округ,37.68765761996078,55.861942167402646,1905449.22550086,6426037.575768215
127,514,15336,15336,Красное и Белое,Прочие специализированные продовольственные предприятия торговли,Красное и Белое,да,реализация продовольственных товаров,"город Москва, Заповедная улица, дом 16, корпус 1, строение 2",район Южное Медведково,Северо-Восточный административный округ,37.638088105434925,55.867404597457316,1902242.5175219032,6425588.0308862
128,520,15569,15569,Очаково,Прочие специализированные продовольственные предприятия торговли,Очаково,да,реализация продовольственных товаров,"город Москва, Большая Черкизовская улица, дом 30Б",район Преображенское,Восточный административный округ,37.74106805330341,55.80003482945367,1910997.9365866568,6420489.928025833
129,521,15604,15604,Подворье,Прочие специализированные продовольственные предприятия торговли,Подворье,да,реализация продовольственных товаров,"город Москва, Уральская улица, дом 4Г",район Гольяново,Восточный административный округ,37.799406,55.812248,1914080.2903290612,6423034.426838449
130,525,15687,15687,Добрынинский и партнёры,Прочие специализированные продовольственные предприятия торговли,Добрынинский и партнёры,да,реализация продовольственных товаров,"город Москва, Электрозаводская улица, дом 27, строение 1",район Преображенское,Восточный административный округ,37.7072307096553,55.7916958140805,1909255.4618637462,6418880.090418495
131,546,16263,16263,Кантата,Прочие специализированные продовольственные предприятия торговли,Кантата,да,реализация продовольственных товаров,"город Москва, Таганская улица, дом 2",Таганский район,Центральный административный округ,37.657657506383096,55.74078035596686,1908139.8484924112,6412352.6930584125
132,553,16769,16769,Куриный Дом,Прочие специализированные продовольственные предприятия торговли,Куриный Дом,да,реализация продовольственных товаров,"город Москва, 1-я Вольская улица, дом 9, корпус 5",район Некрасовка,Юго-Восточный административный округ,37.920942,55.683554,1926294.1789361,6411746.779574716
133,555,16843,16843,Красная икра,Прочие специализированные продовольственные предприятия торговли,Красная икра,да,реализация продовольственных товаров,"город Москва, Рязанский проспект, дом 99А",район Выхино-Жулебино,Юго-Восточный административный округ,37.817708,55.71408,1918868.571398432,6412846.507218861
134,560,17415,17415,Мясницкий ряд,Прочие специализированные продовольственные предприятия торговли,Мясницкий ряд,да,реализация продовольственных товаров,"город Москва, Ангарская улица, дом 1",район Западное Дегунино,Северный административный округ,37.5020840161791,55.87372327344141,1893767.0112606918,6423433.238015898
135,562,17417,17417,ВкусВилл,Прочие специализированные продовольственные предприятия торговли,ВкусВилл,да,реализация продовольственных товаров,"город Москва, Бутырская улица, дом 4",Бутырский район,Северо-Восточный административный округ,37.585933713180715,55.79483036207107,1901774.648460495,6416676.643404271
136,566,18105,18105,Кофейная Кантата,Прочие специализированные продовольственные предприятия торговли,Кофейная кантата,да,реализация продовольственных товаров,"город Москва, Большая Черёмушкинская улица, дом 1",поселение Щаповское,Троицкий административный округ,37.368,55.4122,1902558.2774163852,6370858.099921624
137,567,18141,18141,Кантата,Прочие специализированные продовольственные предприятия торговли,Кантата,да,реализация продовольственных товаров,"город Москва, Профсоюзная улица, дом 102, строение 1",район Коньково,Юго-Западный административный округ,37.5262712087436,55.64368181330927,1903737.32287694,6399134.349607223
138,569,18196,18196,Кантата,Прочие специализированные продовольственные предприятия торговли,Кантата,да,реализация продовольственных товаров,"город Москва, Новоясеневский проспект, дом 1",район Ясенево,Юго-Западный административный округ,37.5093136038485,55.61946714968241,1903596.4555884902,6396168.71077374
139,578,18897,18897,Индийские специи,Прочие специализированные продовольственные предприятия торговли,Индийские специи,да,реализация продовольственных товаров,"город Москва, Куликовская улица, дом 9",район Северное Бутово,Юго-Западный административный округ,37.561370437903406,55.56631744270019,1908738.5138958956,6391524.880006452
140,579,18961,18961,Чайбург,Прочие специализированные продовольственные предприятия торговли,Чайбург,да,реализация продовольственных товаров,"город Москва, бульвар Дмитрия Донского, дом 1",район Северное Бутово,Юго-Западный административный округ,37.58016456899124,55.574928874552405,1909568.5278758502,6392847.388586484
141,582,18989,18989,Кантата,Прочие специализированные продовольственные предприятия торговли,Кантата,да,реализация продовольственных товаров,"город Москва, Венёвская улица, дом 6",район Южное Бутово,Юго-Западный административный округ,37.543246,55.547844999999995,1908312.921993376,6389152.982284007
142,593,19742,19742,TUTTI,Прочие специализированные продовольственные предприятия торговли,Tutti frutti,да,реализация продовольственных товаров,"город Москва, площадь Киевского Вокзала, дом 2",район Дорогомилово,Западный административный округ,37.565979606812064,55.744564619172145,1902424.8798478774,6410841.384355545
143,594,19743,19743,TUTTI,Прочие специализированные продовольственные предприятия торговли,Tutti frutti,да,реализация продовольственных товаров,"город Москва, площадь Киевского Вокзала, дом 2",район Дорогомилово,Западный административный округ,37.565979606812064,55.744564619172145,1902424.8798478774,6410841.384355545
144,595,19746,19746,Movenpick,Прочие специализированные продовольственные предприятия торговли,Movenpick,да,реализация продовольственных товаров,"город Москва, площадь Киевского Вокзала, дом 2",район Дорогомилово,Западный административный округ,37.565979606812064,55.744564619172145,1902424.8798478774,6410841.384355545
145,597,19756,19756,Кофейная кантата,Прочие специализированные продовольственные предприятия торговли,Кантата,да,реализация продовольственных товаров,"город Москва, площадь Киевского Вокзала, дом 2",район Дорогомилово,Западный административный округ,37.565979606812064,55.744564619172145,1902424.8798478774,6410841.384355545
146,598,19757,19757,Кофейная кантата,Прочие специализированные продовольственные предприятия торговли,Кантата,да,реализация продовольственных товаров,"город Москва, площадь Киевского Вокзала, дом 2",район Дорогомилово,Западный административный округ,37.565979606812064,55.744564619172145,1902424.8798478774,6410841.384355545
147,600,19850,19850,TUTTI FRUTTI FROZEN YOGURT,Прочие специализированные продовольственные предприятия торговли,Tutti frutti,да,реализация продовольственных товаров,"город Москва, площадь Киевского Вокзала, дом 2",район Дорогомилово,Западный административный округ,37.565979606812064,55.744564619172145,1902424.8798478774,6410841.384355545
148,604,19940,19940,ШАНТИМЕЛЬ,Прочие специализированные продовольственные предприятия торговли,Шантимель,да,реализация продовольственных товаров,"город Москва, площадь Киевского Вокзала, дом 2",район Дорогомилово,Западный административный округ,37.565979606812064,55.744564619172145,1902424.8798478774,6410841.384355545
149,605,19941,19941,КОНФАЭЛЬ,Прочие специализированные продовольственные предприятия торговли,Конфаэль,да,реализация продовольственных товаров,"город Москва, площадь Киевского Вокзала, дом 2",район Дорогомилово,Западный административный округ,37.565979606812064,55.744564619172145,1902424.8798478774,6410841.384355545
150,612,20417,20417,Мясновъ,Прочие специализированные продовольственные предприятия торговли,Мясновъ,да,реализация продовольственных товаров,"город Москва, улица Маршала Катукова, дом 25",район Строгино,Северо-Западный административный округ,37.414408932289305,55.805465477092135,1890965.2954529752,6414254.275428259
151,613,20427,20427,Французская кондитерская «Шантимель»,Прочие специализированные продовольственные предприятия торговли,Шантимель,да,реализация продовольственных товаров,"город Москва, Пятницкое шоссе, дом 39",район Митино,Северо-Западный административный округ,37.35547891581662,55.85502261029411,1885566.8833844147,6418379.696502778
152,616,20462,20462,КОФЕЙНАЯ КАНТАТА,Прочие специализированные продовольственные предприятия торговли,Кантата,да,реализация продовольственных товаров,"город Москва, улица Маршала Бирюзова, дом 32",район Щукино,Северо-Западный административный округ,37.48299698939827,55.7997721685114,1895340.7634709624,6415064.047480604
153,620,20640,20640,Индийские специи,Прочие специализированные продовольственные предприятия торговли,Индийские специи,да,реализация продовольственных товаров,"город Москва, Тушинская улица, дом 17",район Покровское-Стрешнево,Северо-Западный административный округ,37.44504784479583,55.82666235884504,1892044.96316174,6417175.27298029
154,621,21019,21019,Чайбург,Прочие специализированные продовольственные предприятия торговли,Чайбург,да,реализация продовольственных товаров,"город Москва, Новокуркинское шоссе, дом 1",район Куркино,Северо-Западный административный округ,37.40675080710192,55.885141175555155,1887568.416790069,6422687.31398309
155,622,21092,21092,ВкусВилл,Прочие специализированные продовольственные предприятия торговли,ВкусВилл,да,реализация продовольственных товаров,"город Москва, улица Маршала Катукова, дом 11, корпус 1, строение 2",район Строгино,Северо-Западный административный округ,37.40458418597081,55.81020570010308,1890194.2284013808,6414561.9257106
156,623,21096,21096,Кантата,Прочие специализированные продовольственные предприятия торговли,Кантата,да,реализация продовольственных товаров,"город Москва, улица Маршала Катукова, дом 11, корпус 1, строение 2",район Строгино,Северо-Западный административный округ,37.40458418597081,55.81020570010308,1890194.2284013808,6414561.9257106
157,633,21303,21303,У Палыча,Прочие специализированные продовольственные предприятия торговли,У Палыча,да,реализация продовольственных товаров,"город Москва, Кронштадтский бульвар, дом 3, строение 13",Головинский район,Северный административный округ,37.48660901954461,55.83965987468103,1894087.3400756686,6419439.560207928
158,634,21572,21572,Кантата,Прочие специализированные продовольственные предприятия торговли,Кантата,да,реализация продовольственных товаров,"город Москва, Правобережная улица, дом 1Б",район Левобережный,Северный административный округ,37.44970184072977,55.880913782557315,1890327.0537208896,6423121.050403956
159,662,22035,22035,Кантата,Прочие специализированные продовольственные предприятия торговли,Кантата,да,реализация продовольственных товаров,"город Москва, Ленинградское шоссе, дом 16А, строение 4",Войковский район,Северный административный округ,37.49794738270719,55.823181548622294,1895383.980423091,6417898.779105523
160,664,22105,22105,Избенка,Прочие специализированные продовольственные предприятия торговли,Избенка,да,реализация продовольственных товаров,"город Москва, Фестивальная улица, дом 2Б",район Левобережный,Северный административный округ,37.47823603872458,55.855202858049296,1893005.5664431576,6420941.265918116
161,665,22111,22111,Кантата,Прочие специализированные продовольственные предприятия торговли,Кантата,да,реализация продовольственных товаров,"город Москва, Фестивальная улица, дом 2Б",район Левобережный,Северный административный округ,37.47823603872458,55.855202858049296,1893005.5664431576,6420941.265918116
162,666,22149,22149,Добрынинский и партнёры,Прочие специализированные продовольственные предприятия торговли,Добрынинский и партнёры,да,реализация продовольственных товаров,"город Москва, Фестивальная улица, дом 2Б",район Левобережный,Северный административный округ,37.47815793689136,55.85518732612069,1893001.403889131,6420937.969486896
163,667,22151,22151,Вегус,Прочие специализированные продовольственные предприятия торговли,Вегус,да,реализация продовольственных товаров,"город Москва, Фестивальная улица, дом 2Б",район Левобережный,Северный административный округ,37.47815793689136,55.85518732612069,1893001.403889131,6420937.969486896
164,671,22351,22351,Кантата,Прочие специализированные продовольственные предприятия торговли,Кантата,да,реализация продовольственных товаров,"город Москва, город Зеленоград, корпус 1446",район Крюково,Зеленоградский административный округ,37.151295000000005,55.984925,1868449.9803266881,6428199.959770678
165,684,22481,22481,Магазин «Кантата»,Прочие специализированные продовольственные предприятия торговли,Кантата,да,реализация продовольственных товаров,"город Москва, город Зеленоград, Крюковская площадь, дом 1",район Силино,Зеленоградский административный округ,37.174672745329794,55.9827706609634,1869942.3239282987,6428444.963770011
166,695,22745,22745,Пивной бутик ПивКо.ру,Прочие специализированные продовольственные предприятия торговли,ПивКо,да,реализация продовольственных товаров,"город Москва, Кировоградская улица, дом 9, корпус 1",район Чертаново Северное,Южный административный округ,37.61186805425621,55.6256958952471,1909624.0376245037,6398986.400726917
167,698,22828,22828,Пятерочка,Прочие специализированные продовольственные предприятия торговли,Пятерочка,да,реализация продовольственных товаров,"город Москва, улица Красного Маяка, дом 15А, строение 1",район Чертаново Центральное,Южный административный округ,37.57977566276442,55.60844688705072,1908304.5328710212,6396453.788940595
168,705,23088,23088,Торты У Палыча,Прочие специализированные продовольственные предприятия торговли,У Палыча,да,реализация продовольственных товаров,"город Москва, Ореховый бульвар, дом 45, корпус 1",район Зябликово,Южный административный округ,37.743589366199366,55.61452810693043,1918074.5608534904,6400553.869612503
169,706,23110,23110,Магазин «Кофейная Кантата»,Прочие специализированные продовольственные предприятия торговли,Кантата,да,реализация продовольственных товаров,"город Москва, Кировоградская улица, дом 14",район Чертаново Северное,Южный административный округ,37.60591175309061,55.622601780300464,1909375.3297146226,6398527.877084001
170,719,23483,23483,Магазин «ВкусВилл»,Прочие специализированные продовольственные предприятия торговли,ВкусВилл,да,реализация продовольственных товаров,"город Москва, Бирюлёвская улица, дом 51, корпус 1",район Бирюлёво Восточное,Южный административный округ,37.671507,55.582655,1914861.5277111772,6395598.956015177
171,733,23987,23987,Супермаркет«Вкусвилл»,Прочие специализированные продовольственные предприятия торговли,ВкусВилл,да,реализация продовольственных товаров,"город Москва, улица Маршала Захарова, дом 2",район Орехово-Борисово Северное,Южный административный округ,37.707108679773114,55.62398600125528,1915497.0271649316,6400804.04637357
172,734,23990,23990,Универсам «Отдохни-77»,Прочие специализированные продовольственные предприятия торговли,Отдохни,да,реализация продовольственных товаров,"город Москва, улица Маршала Захарова, дом 2",район Орехово-Борисово Северное,Южный административный округ,37.707101936373505,55.624009990070284,1915495.7227593937,6400806.490017912
173,743,24232,24232,Отдел «Кофейная Кантата»,Прочие специализированные продовольственные предприятия торговли,Кантата,да,реализация продовольственных товаров,"город Москва, Каширское шоссе, дом 26",район Москворечье-Сабурово,Южный административный округ,37.647544230999216,55.65403807217425,1910747.8755023363,6402790.6846606275
174,762,25132,25132,Добрынинский и партнёры,Прочие специализированные продовольственные предприятия торговли,Добрынинский и партнёры,да,реализация продовольственных товаров,"город Москва, Нижний Сусальный переулок, дом 5, сооружение 2",Басманный район,Центральный административный округ,37.662318632633024,55.76041044751153,1907693.0188880968,6414566.038528687
175,767,25323,25323,Магазин шоколадных подарков «Конфаэль»,Прочие специализированные продовольственные предприятия торговли,Конфаэль,да,реализация продовольственных товаров,"город Москва, Верхняя Красносельская улица, дом 3А",Красносельский район,Центральный административный округ,37.66536554378235,55.78577215235765,1906934.3958176002,6417363.034386355
176,771,25484,25484,Лит.ра,Прочие специализированные продовольственные предприятия торговли,Лит.ра,да,реализация продовольственных товаров,"город Москва, Большая Серпуховская улица, дом 48, строение 1",район Замоскворечье,Центральный административный округ,37.626988138030775,55.721951512953154,1906974.211825861,6409680.213450248
177,772,25568,25568,Кантата,Прочие специализированные продовольственные предприятия торговли,Кантата,да,реализация продовольственных товаров,"город Москва, Пресненская набережная, дом 2",Пресненский район,Центральный административный округ,37.538575,55.749030000000005,1900593.142629166,6410750.706560307
178,773,25662,25662,Индийские специи,Прочие специализированные продовольственные предприятия торговли,Индийские специи,да,реализация продовольственных товаров,"город Москва, поселение Сосенское, Калужское шоссе, 22-й километр, дом 10",поселение Сосенское,Новомосковский административный округ,37.486805,55.60576,1902727.7018897592,6394220.523819006
179,782,26019,26019,Горячий калач,Прочие специализированные продовольственные предприятия торговли,Горячий калач,да,реализация продовольственных товаров,"город Москва, город Троицк, Сиреневый бульвар, дом 1",поселение Троицк,Троицкий административный округ,37.295904553198746,55.47208983315131,1895946.1377390956,6375826.737719035
180,798,26483,26483,Горячий калач,Прочие специализированные продовольственные предприятия торговли,Горячий калач,да,реализация продовольственных товаров,"город Москва, город Троицк, микрорайон ""В"", дом 40",поселение Троицк,Троицкий административный округ,37.303934999999996,55.486265,1895921.3364963462,6377523.488380686
181,802,26613,26613,Кофейная кантата,Прочие специализированные продовольственные предприятия торговли,Кантата,да,реализация продовольственных товаров,"город Москва, Ярцевская улица, дом 19",район Кунцево,Западный административный округ,37.410640643202775,55.73833758709426,1893205.1799258569,6406936.4158186
182,806,26928,26928,Рублевский,Прочие специализированные продовольственные предприятия торговли,Рублевский,да,реализация продовольственных товаров,"город Москва, Живописная улица, дом 24",район Хорошёво-Мнёвники,Северо-Западный административный округ,37.45480897100815,55.78830457528085,1894051.4490508174,6413241.822896383
183,813,27013,27013,Лит.ра,Прочие специализированные продовольственные предприятия торговли,Лит.ра,да,реализация продовольственных товаров,"город Москва, Чонгарский бульвар, дом 19",Нагорный район,Южный административный округ,37.60673395037938,55.65284382715769,1908304.5918000871,6401805.764684778
184,847,27982,27982,Очаково,Прочие специализированные продовольственные предприятия торговли,Очаково,да,реализация продовольственных товаров,"город Москва, Ленинградское шоссе, дом 84, строение 1",Головинский район,Северный административный округ,37.47557361190067,55.84874312341103,1893082.585854016,6420189.562588529
185,850,28083,28083,Лит.ра,Прочие специализированные продовольственные предприятия торговли,Лит.ра,да,реализация продовольственных товаров,"город Москва, Алтуфьевское шоссе, дом 82",район Бибирево,Северо-Восточный административный округ,37.58888588509287,55.894788769449406,1898244.7541959903,6427511.01935923
186,851,28085,28085,ВкусВилл,Прочие специализированные продовольственные предприятия торговли,ВкусВилл,да,реализация продовольственных товаров,"город Москва, улица Арбат, дом 17",район Арбат,Центральный административный округ,37.59651106711493,55.75095581433896,1904044.422495466,6412168.551610766
187,859,28208,28208,Лит.ра,Прочие специализированные продовольственные предприятия торговли,Лит.ра,да,реализация продовольственных товаров,"город Москва, город Зеленоград, корпус 1204",район Силино,Зеленоградский административный округ,37.190666,55.995523,1870444.3811350008,6430147.489967591
188,863,28233,28233,ВкусВилл,Прочие специализированные продовольственные предприятия торговли,ВкусВилл,да,реализация продовольственных товаров,"город Москва, улица Васильцовский Стан, дом 5, корпус 1",Рязанский район,Юго-Восточный административный округ,37.75074660050736,55.71384008760006,1914804.847174801,6411407.079737508
189,869,28328,28328,Бристоль,Прочие специализированные продовольственные предприятия торговли,Бристоль,да,реализация продовольственных товаров,"город Москва, улица Арбат, дом 54/2, строение 1",район Арбат,Центральный административный округ,37.583196722044704,55.74722334265365,1903373.3060624104,6411487.791284411
190,887,28568,28568,Лит.ра,Прочие специализированные продовольственные предприятия торговли,Лит.ра,да,реализация продовольственных товаров,"город Москва, Чертановская улица, дом 9, строение 3",район Чертаново Северное,Южный административный округ,37.60040775716293,55.62857040751617,1908818.3848253544,6399056.0357597
191,891,28698,28698,Чайбург,Прочие специализированные продовольственные предприятия торговли,Чайбург,да,реализация продовольственных товаров,"город Москва, Головинское шоссе, дом 5, корпус 1",Головинский район,Северный административный округ,37.49378173050746,55.84126789911969,1894463.054744362,6419761.993768063
192,894,28735,28735,Чайбург,Прочие специализированные продовольственные предприятия торговли,Чайбург,да,реализация продовольственных товаров,"город Москва, город Зеленоград, корпус 2309А",район Крюково,Зеленоградский административный округ,37.186825,55.96469499999999,1871336.3985354847,6426743.416719433
193,900,28901,28901,Лит.ра,Прочие специализированные продовольственные предприятия торговли,Лит.ра,да,реализация продовольственных товаров,"город Москва, Бутырская улица, дом 84",Бутырский район,Северо-Восточный административный округ,37.58266548586706,55.80628866930872,1901151.312911225,6417843.404763647
194,908,28947,28947,Лит.ра,Прочие специализированные продовольственные предприятия торговли,Лит.ра,да,реализация продовольственных товаров,"город Москва, Открытое шоссе, дом 5, корпус 11",район Богородское,Восточный административный округ,37.732808494253895,55.81460615526636,1909952.6273623463,6421885.98491283
195,911,28965,28965,Торты «У Палыча»,Прочие специализированные продовольственные предприятия торговли,У Палыча,да,реализация продовольственных товаров,"город Москва, Пролетарский проспект, дом 23",район Царицыно,Южный административный округ,37.65660619932881,55.636905802174425,1911936.6989900032,6401134.164753987
196,921,29158,29158,Пивные напитки «Лит.ра»,Прочие специализированные продовольственные предприятия торговли,Лит.ра,да,реализация продовольственных товаров,"город Москва, Бакинская улица, дом 6",район Царицыно,Южный административный округ,37.656334141846095,55.626406328978355,1912310.1323052656,6399996.5719401715
197,924,29167,29167,Магазин «ВкусВилл»,Прочие специализированные продовольственные предприятия торговли,ВкусВилл,да,реализация продовольственных товаров,"город Москва, Кантемировская улица, дом 7, корпус 1",район Царицыно,Южный административный округ,37.672880675733694,55.63596471101217,1912964.0411931546,6401374.827884243
198,925,29211,29211,Мясновъ,Прочие специализированные продовольственные предприятия торговли,Мясновъ,да,реализация продовольственных товаров,"город Москва, улица Менжинского, дом 38, корпус 2, строение 2",Бабушкинский район,Северо-Восточный административный округ,37.66082988898422,55.87100004547345,1903486.445039711,6426451.34710699
199,926,29212,29212,ОТДОХНИ,Прочие специализированные продовольственные предприятия торговли,Отдохни,да,реализация продовольственных товаров,"город Москва, улица Менжинского, дом 38, корпус 2, строение 2",Бабушкинский район,Северо-Восточный административный округ,37.66082988898422,55.87100004547345,1903486.445039711,6426451.34710699
200,939,29396,29396,У Палыча,Прочие специализированные продовольственные предприятия торговли,У Палыча,да,реализация продовольственных товаров,"город Москва, Святоозерская улица, дом 1А",район Косино-Ухтомский,Восточный административный округ,37.88447100000001,55.714918745506886,1922896.8134146528,6414350.5406150175
201,940,29425,29425,Восточный базар,Прочие специализированные продовольственные предприятия торговли,Восточный базар,да,реализация продовольственных товаров,"город Москва, Сходненская улица, дом 56",район Южное Тушино,Северо-Западный административный округ,37.44436361083027,55.850426099078156,1891127.5530172216,6419723.343907909
202,949,29531,29531,Магнолия,Прочие специализированные продовольственные предприятия торговли,Магнолия,да,реализация продовольственных товаров,"город Москва, Нижний Кисловский переулок, дом 7, строение 1",район Арбат,Центральный административный округ,37.603397128320495,55.75370701083317,1904360.9850006308,6412609.1607618565
203,967,29785,29785,Магазин «ВкусВилл»,Прочие специализированные продовольственные предприятия торговли,ВкусВилл,да,реализация продовольственных товаров,"город Москва, Пролетарский проспект, дом 29",район Царицыно,Южный административный округ,37.658139825276656,55.63524676004855,1912091.8517765354,6400987.545480932
204,975,29886,29886,Кондитерские и молочные продукты Добрынинский и партнёры,Прочие специализированные продовольственные предприятия торговли,Добрынинский и партнёры,да,реализация продовольственных товаров,"город Москва, улица Маршала Тухачевского, дом 49",район Хорошёво-Мнёвники,Северо-Западный административный округ,37.46418240701654,55.78512931844382,1894738.0318405784,6413094.14579692
205,978,29892,29892,ВкусВилл,Прочие специализированные продовольственные предприятия торговли,ВкусВилл,да,реализация продовольственных товаров,"город Москва, город Зеленоград, корпус 826",район Старое Крюково,Зеленоградский административный округ,37.1846720205375,55.979811481194,1870654.962466576,6428330.109868406
206,982,30020,30020,Сахалинский икорный дом,Прочие специализированные продовольственные предприятия торговли,Сахалинский икорный дом,да,реализация продовольственных товаров,"город Москва, Волгоградский проспект, дом 10, строение 2",Таганский район,Центральный административный округ,37.6741822071326,55.729924366971616,1909548.52166134,6411529.542714328
207,984,30075,30075,Перекресток,Прочие специализированные продовольственные предприятия торговли,Перекресток,да,реализация продовольственных товаров,"город Москва, Большая Новодмитровская улица, дом 23, строение 3",Бутырский район,Северо-Восточный административный округ,37.58375642421251,55.802838314931755,1901345.4886330653,6417494.297115915
208,997,30220,30220,Шантимель,Прочие специализированные продовольственные предприятия торговли,Шантимель,да,реализация продовольственных товаров,"город Москва, Сходненская улица, дом 56",район Южное Тушино,Северо-Западный административный округ,37.44436361083027,55.850426099078156,1891127.5530172216,6419723.343907909
209,998,30221,30221,Кантата,Прочие специализированные продовольственные предприятия торговли,Кантата,да,реализация продовольственных товаров,"город Москва, Сходненская улица, дом 56",район Южное Тушино,Северо-Западный административный округ,37.44436361083027,55.850426099078156,1891127.5530172216,6419723.343907909
210,999,30235,30235,Кантата,Прочие специализированные продовольственные предприятия торговли,Кантата,да,реализация продовольственных товаров,"город Москва, Лобненская улица, дом 4А",Дмитровский район,Северный административный округ,37.537858082764025,55.889906935046604,1895335.5704161837,6425921.660389083
211,1007,30329,30329,Лит.ра,Прочие специализированные продовольственные предприятия торговли,Лит.ра,да,реализация продовольственных товаров,"город Москва, Стройковская улица, дом 10А",Таганский район,Центральный административный округ,37.67278195678527,55.73314235043078,1909343.6222221737,6411846.9486539075
212,1012,30428,30428,Магазин «Красная икра»,Прочие специализированные продовольственные предприятия торговли,Красная икра,да,реализация продовольственных товаров,"город Москва, Пролетарский проспект, владение 23А",район Царицыно,Южный административный округ,37.655895489228705,55.63721516945008,1911881.8690551938,6401152.580971316
213,1013,30431,30431,Мясницкий ряд,Прочие специализированные продовольственные предприятия торговли,Мясницкий ряд,да,реализация продовольственных товаров,"город Москва, город Троицк, площадь Академика Верещагина, дом 1",поселение Троицк,Троицкий административный округ,37.29629038393421,55.4764888928359,1895809.3348705482,6376309.665316918
214,1020,30546,30546,Лит.ра,Прочие специализированные продовольственные предприятия торговли,Лит.ра,да,реализация продовольственных товаров,"город Москва, Бойцовая улица, дом 17, корпус 1",район Богородское,Восточный административный округ,37.718229209018716,55.81176773676733,1909174.1568630068,6421273.740494452
215,1031,30642,30642,Вкусные колбасы Ремит,Прочие специализированные продовольственные предприятия торговли,Ремит,да,реализация продовольственных товаров,"город Москва, Каргопольская улица, дом 14, корпус 1",район Отрадное,Северо-Восточный административный округ,37.59316142154203,55.86379035636028,1899654.4963585783,6424259.779069812
216,1034,30672,30672,Лит.ра,Прочие специализированные продовольственные предприятия торговли,Лит.ра,да,реализация продовольственных товаров,"город Москва, Коровинское шоссе, дом 13, корпус 1",район Западное Дегунино,Северный административный округ,37.533769813838525,55.869703046523455,1895836.0001948143,6423658.968564653
217,1039,30679,30679,Сахалинский икорный дом,Прочие специализированные продовольственные предприятия торговли,Сахалинский икорный дом,да,реализация продовольственных товаров,"город Москва, улица Академика Королёва, дом 3",Останкинский район,Северо-Восточный административный округ,37.632743740147255,55.820866849068544,1903649.065698104,6420461.489982887
218,1041,30729,30729,Мясоед,Прочие специализированные продовольственные предприятия торговли,Мясоед,да,реализация продовольственных товаров,"город Москва, улица Лихоборские Бугры, дом 9, корпус 1",район Коптево,Северный административный округ,37.546596091543385,55.84319059711565,1897595.292064007,6421068.440917706
219,1050,30830,30830,Лит.ра,Прочие специализированные продовольственные предприятия торговли,Лит.ра,да,реализация продовольственных товаров,"город Москва, Первомайская улица, дом 52",район Измайлово,Восточный административный округ,37.79153803277254,55.79285764131568,1914329.0340729137,6420779.916393233
220,1053,30837,30837,Добрынинский и партнёры,Прочие специализированные продовольственные предприятия торговли,Добрынинский и партнёры,да,реализация продовольственных товаров,"город Москва, 11-я Парковая улица, дом 19",район Измайлово,Восточный административный округ,37.805161358202064,55.793947197816955,1915114.9374687262,6421184.683107788
221,1054,30845,30845,Рублевский,Прочие специализированные продовольственные предприятия торговли,Рублевский,да,реализация продовольственных товаров,"город Москва, Планерная улица, дом 7, корпус 1",район Северное Тушино,Северо-Западный административный округ,37.433448423630225,55.86337652166441,1889988.329302955,6420893.391832433
222,1066,31128,31128,ПивДомик,Прочие специализированные продовольственные предприятия торговли,ПивДомик,да,реализация продовольственных товаров,"город Москва, Ангелов переулок, дом 8",район Митино,Северо-Западный административный округ,37.346228740309336,55.85344122781129,1885063.765470148,6418018.169202496
223,1067,31133,31133,Лит.ра,Прочие специализированные продовольственные предприятия торговли,Лит.ра,да,реализация продовольственных товаров,"город Москва, Ангелов переулок, дом 6",район Митино,Северо-Западный административный округ,37.34764181417068,55.853452006195916,1885149.0967989175,6418048.500415231
224,1069,31172,31172,Сахалинский икорный дом,Прочие специализированные продовольственные предприятия торговли,Сахалинский икорный дом,да,реализация продовольственных товаров,"город Москва, Южнобутовская улица, дом 91",район Южное Бутово,Юго-Западный административный округ,37.522034087562716,55.5346545836542,1907502.279184909,6387286.290674869
225,1073,31192,31192,Рублевский,Прочие специализированные продовольственные предприятия торговли,Рублевский,да,реализация продовольственных товаров,"город Москва, Митинская улица, дом 25",район Митино,Северо-Западный административный округ,37.36311459985447,55.84421023230127,1886427.1418364332,6417371.315078661
226,1077,31228,31228,Вкусвилл,Прочие специализированные продовольственные предприятия торговли,ВкусВилл,да,реализация продовольственных товаров,"город Москва, Псковская улица, дом 9, корпус 1",район Лианозово,Северо-Восточный административный округ,37.552079525629615,55.905724186848275,1895610.6891237763,6427922.38935636
227,1082,31333,31333,Мясновъ,Прочие специализированные продовольственные предприятия торговли,Мясновъ,да,реализация продовольственных товаров,"город Москва, улица Шаболовка, дом 10, корпус 1",район Якиманка,Центральный административный округ,37.60913858035254,55.72403257029247,1905811.0430174973,6409530.6415239
228,1084,31412,31412,МясновЪ,Прочие специализированные продовольственные предприятия торговли,Мясновъ,да,реализация продовольственных товаров,"город Москва, улица Декабристов, дом 15, строение 2",район Отрадное,Северо-Восточный административный округ,37.6028059753791,55.86549665755722,1900175.6011608704,6424645.0291121835
229,1090,31609,31609,Азбука вкуса,Прочие специализированные продовольственные предприятия торговли,Азбука Вкуса,да,реализация продовольственных товаров,"город Москва, улица Арбат, дом 54/2, строение 1",район Арбат,Центральный административный округ,37.583463,55.747231000000006,1903389.212841995,6411494.18335902
230,1094,31744,31744,Сахалинский икорный дом,Прочие специализированные продовольственные предприятия торговли,Сахалинский икорный дом,да,реализация продовольственных товаров,"город Москва, улица Менжинского, дом 38, корпус 2, строение 2",Бабушкинский район,Северо-Восточный административный округ,37.660036,55.870732999999994,1903448.2978118225,6426405.953538902
231,1103,31866,31866,Лит.ра,Прочие специализированные продовольственные предприятия торговли,Лит.ра,да,реализация продовольственных товаров,"город Москва, улица Академика Варги, дом 26Б",район Тёплый Стан,Юго-Западный административный округ,37.474817522037604,55.63446143036257,1900938.5363192984,6397066.474699321
232,1106,31904,31904,Добрынинский и партнёры,Прочие специализированные продовольственные предприятия торговли,Добрынинский и партнёры,да,реализация продовольственных товаров,"город Москва, 3-й Митинский переулок, дом 3",район Митино,Северо-Западный административный округ,37.34974083548437,55.847432416566754,1885497.3591778683,6417442.61056233
233,1110,31988,31988,Добрынинский и партнёры,Прочие специализированные продовольственные предприятия торговли,Добрынинский и партнёры,да,реализация продовольственных товаров,"город Москва, Ленинградский проспект, дом 31А, строение 1",район Беговой,Северный административный округ,37.56080321850325,55.783342925558046,1900674.1140513718,6414913.636334998
234,1121,32237,32237,Кофейная кантата,Прочие специализированные продовольственные предприятия торговли,Кантата,да,реализация продовольственных товаров,"город Москва, Новопетровская улица, дом 6",район Коптево,Северный административный округ,37.51649858558768,55.82567975708351,1896417.4441524856,6418554.071846172
235,1122,32288,32288,Красная икра,Прочие специализированные продовольственные предприятия торговли,Красная икра,да,реализация продовольственных товаров,"город Москва, Живописная улица, дом 12, корпус 1",район Хорошёво-Мнёвники,Северо-Западный административный округ,37.45708155195121,55.78443883854255,1894332.0213249212,6412872.174472049
236,1124,32386,32386,У Палыча,Прочие специализированные продовольственные предприятия торговли,У Палыча,да,реализация продовольственных товаров,"город Москва, Алтуфьевское шоссе, дом 82",район Бибирево,Северо-Восточный административный округ,37.58888588509287,55.894788769449406,1898244.7541959903,6427511.01935923
237,1131,32457,32457,Мясновъ,Прочие специализированные продовольственные предприятия торговли,Мясновъ,да,реализация продовольственных товаров,"город Москва, проспект Будённого, дом 23",район Соколиная Гора,Восточный административный округ,37.728860620697375,55.77124543247518,1911331.7163440413,6417131.42452175
238,1132,32466,32466,Винлаб,Прочие специализированные продовольственные предприятия торговли,Винлаб,да,реализация продовольственных товаров,"город Москва, проспект Будённого, дом 39, корпус 1",район Соколиная Гора,Восточный административный округ,37.734704,55.763896759705936,1911960.9249701959,6416462.612352287
239,1133,32472,32472,Мясная гастрономия «Мясницкий ряд»,Прочие специализированные продовольственные предприятия торговли,Мясницкий ряд,да,реализация продовольственных товаров,"город Москва, улица Вавилова, дом 6",Донской район,Южный административный округ,37.588169979258645,55.707916232135865,1905132.589941467,6407354.394947438
240,1135,32475,32475,Красная Икра,Прочие специализированные продовольственные предприятия торговли,Красная икра,да,реализация продовольственных товаров,"город Москва, улица Вавилова, дом 6",Донской район,Южный административный округ,37.588169979258645,55.707916232135865,1905132.589941467,6407354.394947438
241,1145,32612,32612,Магазин «Разливное пиво Лит.ра»,Прочие специализированные продовольственные предприятия торговли,Лит.ра,да,реализация продовольственных товаров,"город Москва, Ереванская улица, дом 28, корпус 1",район Царицыно,Южный административный округ,37.678180048174774,55.62791469481454,1913586.5084803868,6400618.527195683
242,1156,32704,32704,Мясницкий ряд,Прочие специализированные продовольственные предприятия торговли,Мясницкий ряд,да,реализация продовольственных товаров,"город Москва, Коровинское шоссе, дом 1, корпус 1",район Западное Дегунино,Северный административный округ,37.54334621512048,55.86519110417151,1896583.46487095,6423372.0505915005
243,1157,32705,32705,Beer King,Прочие специализированные продовольственные предприятия торговли,Beer King,да,реализация продовольственных товаров,"город Москва, Коровинское шоссе, дом 1, корпус 1",район Западное Дегунино,Северный административный округ,37.54334621512048,55.86519110417151,1896583.46487095,6423372.0505915005
244,1161,32710,32710,ПивДомик,Прочие специализированные продовольственные предприятия торговли,ПивДомик,да,реализация продовольственных товаров,"город Москва, Коровинское шоссе, дом 25/30",район Западное Дегунино,Северный административный округ,37.522629551857975,55.87780430150339,1894861.0703478758,6424300.343097061
245,1165,32753,32753,ВкусВилл,Прочие специализированные продовольственные предприятия торговли,ВкусВилл,да,реализация продовольственных товаров,"город Москва, улица Кржижановского, дом 4, корпус 1",Академический район,Юго-Западный административный округ,37.561308973474155,55.68281591693536,1904426.3958871984,6404086.431419841
246,1187,32931,32931,Лит.ра,Прочие специализированные продовольственные предприятия торговли,Лит.ра,да,реализация продовольственных товаров,"город Москва, улица Народного Ополчения, дом 20, корпус 1",район Хорошёво-Мнёвники,Северо-Западный административный округ,37.48057445072449,55.777061725188176,1896031.6989669614,6412564.980108768
247,1196,33062,33062,Торты Оникс,Прочие специализированные продовольственные предприятия торговли,Оникс,да,реализация продовольственных товаров,"город Москва, Пролетарский проспект, дом 25",район Царицыно,Южный административный округ,37.65712013481728,55.63636621965793,1911988.0830773138,6401086.796540214
248,1197,33063,33063,Подворье.Молоко.,Прочие специализированные продовольственные предприятия торговли,Подворье,да,реализация продовольственных товаров,"город Москва, Пролетарский проспект, дом 25",район Царицыно,Южный административный округ,37.65712013481728,55.63636621965793,1911988.0830773138,6401086.796540214
249,1200,33102,33102,ВкусВилл,Прочие специализированные продовольственные предприятия торговли,ВкусВилл,да,реализация продовольственных товаров,"город Москва, улица Руставели, дом 6, корпус 6",Бутырский район,Северо-Восточный административный округ,37.58920227213697,55.81233771985586,1901323.7187724817,6418631.914267184
250,1230,33456,33456,Лит.ра Разливное пиво,Прочие специализированные продовольственные предприятия торговли,Лит.ра,да,реализация продовольственных товаров,"город Москва, улица Римского-Корсакова, дом 18",район Отрадное,Северо-Восточный административный округ,37.60900763679777,55.873948845685796,1900237.4027903068,6425685.357571768
251,1239,33628,33628,Лит.ра,Прочие специализированные продовольственные предприятия торговли,Лит.ра,да,реализация продовольственных товаров,"город Москва, Новокосинская улица, дом 14, корпус 7",район Новокосино,Восточный административный округ,37.857905300458434,55.738326642888325,1920403.154280744,6416308.769992515
252,1244,33728,33728,У Палыча,Прочие специализированные продовольственные предприятия торговли,У Палыча,да,реализация продовольственных товаров,"город Москва, Азовская улица, дом 24, корпус 2",район Зюзино,Юго-Западный административный округ,37.59752760696958,55.65078040215015,1907819.8219868587,6401390.368390845
253,1250,33854,33854,Милти Mealty,Прочие специализированные продовольственные предприятия торговли,Милти,да,реализация продовольственных товаров,"город Москва, улица Шаболовка, дом 10, корпус 1",район Якиманка,Центральный административный округ,37.60913858035254,55.72403257029247,1905811.0430174973,6409530.6415239
254,1259,34079,34079,Лит.ра,Прочие специализированные продовольственные предприятия торговли,Лит.ра,да,реализация продовольственных товаров,"город Москва, Профсоюзная улица, дом 128, корпус 3",район Тёплый Стан,Юго-Западный административный округ,37.51473330728102,55.63063681730715,1903515.0551215769,6397486.547665968
255,1290,34470,34470,Красная икра,Прочие специализированные продовольственные предприятия торговли,Красная икра,да,реализация продовольственных товаров,"город Москва, Домодедовская улица, дом 28",район Орехово-Борисово Южное,Южный административный округ,37.71235548686149,55.604743434093244,1916533.5524877668,6398840.462083178
256,1313,34709,34709,Чайбург,Прочие специализированные продовольственные предприятия торговли,Чайбург,да,реализация продовольственных товаров,"город Москва, Дмитровское шоссе, дом 73, строение 1",район Западное Дегунино,Северный административный округ,37.55768190886311,55.85686704063555,1897760.8080774096,6422773.561374108
257,1321,34891,34891,Баскин Роббинс,Прочие специализированные продовольственные предприятия торговли,Баскин Роббинс,да,реализация продовольственных товаров,"город Москва, Снежная улица, дом 27",район Свиблово,Северо-Восточный административный округ,37.65323299999999,55.856265786652365,1903574.705351311,6424704.77136445
258,1324,34917,34917,ВкусВилл,Прочие специализированные продовольственные предприятия торговли,ВкусВилл,да,реализация продовольственных товаров,"город Москва, Абрамцевская улица, дом 24А",район Лианозово,Северо-Восточный административный округ,37.57459435509032,55.9040627679504,1897035.2992184216,6428212.383393153
259,1353,35256,35256,Вегус,Прочие специализированные продовольственные предприятия торговли,Вегус,да,реализация продовольственных товаров,"город Москва, Мироновская улица, дом 33, строение 1",район Соколиная Гора,Восточный административный округ,37.72947742066682,55.78975667242192,1910678.2526766532,6419138.8030969575
260,1355,35259,35259,Ароматный Мир,Прочие специализированные продовольственные предприятия торговли,Ароматный Мир,да,реализация продовольственных товаров,"город Москва, Щербаковская улица, дом 53, корпус 1",район Соколиная Гора,Восточный административный округ,37.73730164352497,55.78347458767178,1911387.770925468,6418626.582921552
261,1366,35348,35348,Вегус,Прочие специализированные продовольственные предприятия торговли,Вегус,да,реализация продовольственных товаров,"город Москва, проспект Будённого, дом 18Б",район Соколиная Гора,Восточный административный округ,37.728997865461615,55.767473218951174,1911480.8301959569,6416727.881782289
262,1393,35891,35891,Милти,Прочие специализированные продовольственные предприятия торговли,Милти,да,реализация продовольственных товаров,"город Москва, город Зеленоград, Савёлкинский проезд, дом 4",район Савёлки,Зеленоградский административный округ,37.21727,55.991271999999995,1872207.8954161482,6430233.215354659
263,1417,36083,36083,У Палыча,Прочие специализированные продовольственные предприятия торговли,У Палыча,да,реализация продовольственных товаров,"город Москва, проспект Андропова, владение 19А",район Нагатинский Затон,Южный административный округ,37.665720180273425,55.68033810449428,1910877.9543827088,6406007.420535096
264,1454,36456,36456,Торты Шантимель,Прочие специализированные продовольственные предприятия торговли,Шантимель,да,реализация продовольственных товаров,"город Москва, Ореховый бульвар, дом 22А",район Зябликово,Южный административный округ,37.732684625741356,55.61204703333708,1917501.839495424,6400056.367506509
265,1461,36608,36608,Шантимель,Прочие специализированные продовольственные предприятия торговли,Шантимель,да,реализация продовольственных товаров,"город Москва, Кировоградская улица, дом 13А",район Чертаново Центральное,Южный административный округ,37.6062274768495,55.613472764891135,1909732.881960384,6397550.17525465
266,1472,37180,37180,Мясницкий ряд,Прочие специализированные продовольственные предприятия торговли,Мясницкий ряд,да,реализация продовольственных товаров,"город Москва, город Зеленоград, корпус 900",район Старое Крюково,Зеленоградский административный округ,37.184277,55.981173,1870581.4253088816,6428468.908267134
267,1475,37240,37240,Суши Wok,Прочие специализированные продовольственные предприятия торговли,Суши Wok,да,реализация продовольственных товаров,"город Москва, Алтуфьевское шоссе, дом 78",район Бибирево,Северо-Восточный административный округ,37.588346,55.893058797446955,1898276.286363117,6427313.336313289
268,1481,37321,37321,Лит.ра,Прочие специализированные продовольственные предприятия торговли,Лит.ра,да,реализация продовольственных товаров,"город Москва, улица Академика Виноградова, дом 4, корпус 2",район Тёплый Стан,Юго-Западный административный округ,37.487121,55.63193972159178,1901782.1834276032,6397050.944926958
269,1483,37334,37334,Торты Оникс,Прочие специализированные продовольственные предприятия торговли,Оникс,да,реализация продовольственных товаров,"город Москва, Волгоградский проспект, дом 59",район Текстильщики,Юго-Восточный административный округ,37.734460999999975,55.70999274408222,1913957.7374764448,6410649.363822153
270,1495,37476,37476,ПивДомик,Прочие специализированные продовольственные предприятия торговли,ПивДомик,да,реализация продовольственных товаров,"город Москва, Клязьминская улица, дом 4",Дмитровский район,Северный административный округ,37.5202031440205,55.88366564233674,1894497.166507468,6424881.641837064
271,1508,37528,37528,У Палыча,Прочие специализированные продовольственные предприятия торговли,У Палыча,да,реализация продовольственных товаров,"город Москва, Коровинское шоссе, дом 20, корпус 1",Дмитровский район,Северный административный округ,37.522614,55.87958379348953,1894794.276799403,6424491.823615653
272,1511,37532,37532,Лит.ра,Прочие специализированные продовольственные предприятия торговли,Лит.ра,да,реализация продовольственных товаров,"город Москва, Коровинское шоссе, дом 20, корпус 1",Дмитровский район,Северный административный округ,37.522931,55.879353,1894822.0242961256,6424473.541670546
273,1515,37556,37556,Торты Оникс,Прочие специализированные продовольственные предприятия торговли,Оникс,да,реализация продовольственных товаров,"город Москва, улица Красного Маяка, дом 2",район Чертаново Центральное,Южный административный округ,37.60190600000001,55.611860715831526,1909528.8737911584,6397285.7304288875
274,1526,37701,37701,Подворье,Прочие специализированные продовольственные предприятия торговли,Подворье,да,реализация продовольственных товаров,"город Москва, Нахимовский проспект, дом 22",район Котловка,Юго-Западный административный округ,37.58890399999999,55.66961273242739,1906596.4893873457,6403240.201374259
275,1535,37819,37819,Магазин «Рублевский»,Прочие специализированные продовольственные предприятия торговли,Рублевский,да,реализация продовольственных товаров,"город Москва, Профсоюзная улица, дом 144",район Тёплый Стан,Юго-Западный административный округ,37.508085,55.62440071942778,1903339.4657658585,6396675.174344612
276,1546,37880,37880,Добрынинский,Прочие специализированные продовольственные предприятия торговли,Добрынинский и партнёры,да,реализация продовольственных товаров,"город Москва, Совхозная улица, дом 12",район Люблино,Юго-Восточный административный округ,37.76325900000001,55.677393734669955,1916927.2928483973,6407743.784751638
277,1548,37882,37882,У Палыча,Прочие специализированные продовольственные предприятия торговли,У Палыча,да,реализация продовольственных товаров,"город Москва, Совхозная улица, дом 12",район Люблино,Юго-Восточный административный округ,37.76325900000001,55.677393734669955,1916927.2928483973,6407743.784751638
278,1551,37921,37921,Минимаркет при АЗС Лукойл,Прочие специализированные продовольственные предприятия торговли,Лукойл,да,реализация продовольственных товаров,"город Москва, Малая Тульская улица, дом 57",Донской район,Южный административный округ,37.617332253071424,55.70147971247986,1907146.437363835,6407271.133940373
279,1554,37946,37946,5lb,Прочие специализированные продовольственные предприятия торговли,5lb,да,реализация продовольственных товаров,"город Москва, Химкинский бульвар, дом 16, корпус 1",район Северное Тушино,Северо-Западный административный округ,37.44298386705061,55.851979181392096,1890986.6198646347,6419862.186553775
280,1556,38014,38014,Пинта,Прочие специализированные продовольственные предприятия торговли,Пинта,да,реализация продовольственных товаров,"город Москва, Ярославское шоссе, дом 114, корпус 1",Ярославский район,Северо-Восточный административный округ,37.70750576651749,55.86628674078718,1906489.6068236271,6426921.937045657
281,1571,38181,38181,Лит.ра,Прочие специализированные продовольственные предприятия торговли,Лит.ра,да,реализация продовольственных товаров,"город Москва, Абрамцевская улица, дом 7",район Лианозово,Северо-Восточный административный округ,37.5732230129233,55.90283309244899,1896997.9040366015,6428051.288095673
282,1582,38263,38263,Пинта,Прочие специализированные продовольственные предприятия торговли,Пинта,да,реализация продовольственных товаров,"город Москва, улица Вертолётчиков, дом 9, корпус 1",район Некрасовка,Юго-Восточный административный округ,37.94052800000001,55.70242074189353,1926775.4748202332,6414194.986066747
283,1598,38496,38496,Лит.ра,Прочие специализированные продовольственные предприятия торговли,Лит.ра,да,реализация продовольственных товаров,"город Москва, Азовская улица, дом 18",район Зюзино,Юго-Западный административный округ,37.597584999999974,55.656074728529326,1907627.1434871044,6401962.391371513
284,1618,38743,38743,Мясницкий ряд,Прочие специализированные продовольственные предприятия торговли,Мясницкий ряд,да,реализация продовольственных товаров,"город Москва, проезд Якушкина, дом 7",район Отрадное,Северо-Восточный административный округ,37.611074,55.86102378804634,1900842.7895615862,6424335.735240564
285,1629,38942,38942,Добрынинский и партнёры,Прочие специализированные продовольственные предприятия торговли,Добрынинский и партнёры,да,реализация продовольственных товаров,"город Москва, Ленинградский проспект, дом 73А, строение 3",район Сокол,Северный административный округ,37.513511,55.80355977124977,1897053.8727111856,6416107.245149857
286,1630,38944,38944,Мясницкий ряд,Прочие специализированные продовольственные предприятия торговли,Мясницкий ряд,да,реализация продовольственных товаров,"город Москва, Ленинградский проспект, дом 73А, строение 3",район Сокол,Северный административный округ,37.513511,55.80355977124977,1897053.8727111856,6416107.245149857
287,1636,39487,39487,Кантата,Прочие специализированные продовольственные предприятия торговли,Кантата,да,реализация продовольственных товаров,"город Москва, улица Декабристов, дом 12",район Отрадное,Северо-Восточный административный округ,37.60191949469893,55.863178254661065,1900207.979055786,6424376.6798095675
288,1647,39596,39596,Перекресток,Прочие специализированные продовольственные предприятия торговли,Перекресток,да,реализация продовольственных товаров,"город Москва, Алтуфьевское шоссе, дом 70, корпус 1",район Бибирево,Северо-Восточный административный округ,37.58853705234736,55.88825469159409,1898466.195590404,6426799.629887295
289,1678,40540,40540,Мясницкий ряд,Прочие специализированные продовольственные предприятия торговли,Мясницкий ряд,да,реализация продовольственных товаров,"город Москва, Тушинская улица, дом 17",район Покровское-Стрешнево,Северо-Западный административный округ,37.445190999999994,55.82691277806553,1892044.4225836268,6417205.244281736
290,1734,41031,41031,Подворье,Прочие специализированные продовольственные предприятия торговли,Подворье,да,реализация продовольственных товаров,"город Москва, Лобненская улица, дом 4А",Дмитровский район,Северный административный округ,37.537858082764025,55.889906935046604,1895335.5704161837,6425921.660389083
291,1740,41111,41111,Красная икра,Прочие специализированные продовольственные предприятия торговли,Красная икра,да,реализация продовольственных товаров,"город Москва, Алтуфьевское шоссе, дом 82",район Бибирево,Северо-Восточный административный округ,37.58845600000001,55.89506979803796,1898208.2917201181,6427532.335314168
292,1749,41164,41164,У Палыча,Прочие специализированные продовольственные предприятия торговли,У Палыча,да,реализация продовольственных товаров,"город Москва, Дмитровское шоссе, дом 19, корпус 2",Тимирязевский район,Северный административный округ,37.572385,55.82190677660332,1899948.3194724016,6419312.152180151
293,1792,41604,41604,Отдохни,Прочие специализированные продовольственные предприятия торговли,Отдохни,да,реализация продовольственных товаров,"город Москва, улица Декабристов, дом 15, строение 2",район Отрадное,Северо-Восточный административный округ,37.603438,55.865447789342994,1900215.7151600372,6424652.962247771
294,1810,41847,41847,Магазин «Красное и белое»,Прочие специализированные продовольственные предприятия торговли,Красное и Белое,да,реализация продовольственных товаров,"город Москва, улица Бехтерева, дом 41, корпус 1",район Царицыно,Южный административный округ,37.646354,55.618550717749606,1911993.0289201292,6398939.966679618
295,1811,41862,41862,Ярче,Прочие специализированные продовольственные предприятия торговли,Ярче,да,реализация продовольственных товаров,"город Москва, проспект Будённого, дом 39, корпус 1",район Соколиная Гора,Восточный административный округ,37.73466469790779,55.76388296666917,1911959.0523958397,6416460.2991234185
296,1813,41872,41872,Мясницкий ряд,Прочие специализированные продовольственные предприятия торговли,Мясницкий ряд,да,реализация продовольственных товаров,"город Москва, Бутырская улица, дом 95",Савёловский район,Северный административный округ,37.580572,55.80736477235934,1900984.3312978274,6417915.67217619
297,1822,41938,41938,"Ремит, РыбСеть",Прочие специализированные продовольственные предприятия торговли,Ремит,да,реализация продовольственных товаров,"город Москва, улица Декабристов, дом 21",район Отрадное,Северо-Восточный административный округ,37.60764300000002,55.863965788908565,1900525.576245366,6424581.088784187
298,1848,42257,42257,Добрынинский и партнёры,Прочие специализированные продовольственные предприятия торговли,Добрынинский и партнёры,да,реализация продовольственных товаров,"город Москва, Нагорный бульвар, дом 7",район Котловка,Юго-Западный административный округ,37.59531400000001,55.6733867335149,1906847.2251752918,6403781.315528767
299,1849,42259,42259,Мясницкий ряд,Прочие специализированные продовольственные предприятия торговли,Мясницкий ряд,да,реализация продовольственных товаров,"город Москва, Нагорный бульвар, дом 7",район Котловка,Юго-Западный административный округ,37.59531400000001,55.6733867335149,1906847.2251752918,6403781.315528767
300,1899,42906,42906,Рублевский,Прочие специализированные продовольственные предприятия торговли,Рублевский,да,реализация продовольственных товаров,"город Москва, Дмитровское шоссе, дом 13А",Тимирязевский район,Северный административный округ,37.573797000000006,55.818863775714796,1900146.8083393609,6419013.636638161
301,1904,43005,43005,Кантата,Прочие специализированные продовольственные предприятия торговли,Кантата,да,реализация продовольственных товаров,"город Москва, поселение Московский, деревня Говорово, дом 1Б/Н",поселение Московский,Новомосковский административный округ,37.430863,55.658570999999995,1897369.96040126,6398752.276117037
302,1914,43170,43170,Лит.ра,Прочие специализированные продовольственные предприятия торговли,Лит.ра,да,реализация продовольственных товаров,"город Москва, Ясногорская улица, дом 2",район Ясенево,Юго-Западный административный округ,37.536455,55.61020371535665,1905595.132042395,6395736.65577987
303,1919,43200,43200,ПИВНОЙ МАГАЗИН Лит.ра,Прочие специализированные продовольственные предприятия торговли,Лит.ра,да,реализация продовольственных товаров,"город Москва, улица Шверника, дом 13, корпус 1",Академический район,Юго-Западный административный округ,37.589609,55.691911738858316,1905813.262594118,6405659.088125886
304,1931,43333,43333,У Палыча,Прочие специализированные продовольственные предприятия торговли,У Палыча,да,реализация продовольственных товаров,"город Москва, Вильнюсская улица, дом 5",район Ясенево,Юго-Западный административный округ,37.523077000000015,55.6037897135191,1905015.1841103341,6394765.281082407
305,1954,43548,43548,Пиво Лит.ра,Прочие специализированные продовольственные предприятия торговли,Лит.ра,да,реализация продовольственных товаров,"город Москва, улица Судакова, дом 11, строение 2",район Люблино,Юго-Восточный административный округ,37.747518,55.673009733406246,1916132.4321774216,6406939.303672353
306,1955,43570,43570,Лит.ра,Прочие специализированные продовольственные предприятия торговли,Лит.ра,да,реализация продовольственных товаров,"город Москва, Голубинская улица, дом 5, корпус 1",район Ясенево,Юго-Западный административный округ,37.514012,55.60694071442168,1904345.4153799752,6394915.762647038
307,1958,43643,43643,Лит.ра,Прочие специализированные продовольственные предприятия торговли,Лит.ра,да,реализация продовольственных товаров,"город Москва, Старый Петровско-Разумовский проезд, дом 1/23, строение 2",Савёловский район,Северный административный округ,37.563346,55.8006437703997,1900187.6716790157,6416831.635381756
308,1966,44150,44150,Лит.ра,Прочие специализированные продовольственные предприятия торговли,Лит.ра,да,реализация продовольственных товаров,"город Москва, Староватутинский проезд, дом 12, строение 1",Бабушкинский район,Северо-Восточный административный округ,37.671261,55.874691792053966,1903980.77321483,6427067.538096006
309,2003,44588,44588,Лит.ра,Прочие специализированные продовольственные предприятия торговли,Лит.ра,да,реализация продовольственных товаров,"город Москва, Алтуфьевское шоссе, дом 72",район Бибирево,Северо-Восточный административный округ,37.587999000000025,55.89028179663103,1898358.36203758,6427006.847560393
310,2016,44819,44819,Кофейня Кантата,Прочие специализированные продовольственные предприятия торговли,Кантата,да,реализация продовольственных товаров,"город Москва, проспект Мира, дом 211, корпус 2",район Свиблово,Северо-Восточный административный округ,37.66061841155048,55.845334058538256,1904429.2891308463,6423681.567389896
311,2020,44927,44927,5lb,Прочие специализированные продовольственные предприятия торговли,5lb,да,реализация продовольственных товаров,"город Москва, Енисейская улица, дом 19, корпус 1",Бабушкинский район,Северо-Восточный административный округ,37.66304000000001,55.86921979044895,1903686.627655801,6426305.819400216
