,index,Unnamed: 0,Name,TypeObject,OperatingCompany,IsNetObject,TypeService,Address,District,AdmArea,Longitude_WGS84,Latitude_WGS84,Xs,Ys
0,50,50,МБЛОМБАРД,услуги ломбарда,,нет,бытовые услуги,"город Москва, Автозаводская улица, дом 9/1",Даниловский район,Южный административный округ,37.6588423548592,55.707131676282636,1909463.075593613,6408750.940501687
1,121,121,МОСГОРЛОМБАРД-АРБАТСКИИ ГУП МГКЛ,услуги ломбарда,,нет,бытовые услуги,"город Москва, улица Арбат, дом 11",район Арбат,Центральный административный округ,37.5978290700965,55.75114181056596,1904117.6511176385,6412216.169788042
2,126,126,Ломбард,услуги ломбарда,,нет,бытовые услуги,"город Москва, улица Арбат, дом 38/1, строение 2",район Арбат,Центральный административный округ,37.58788415860787,55.74895816511452,1903594.0039085653,6411772.801644001
3,221,221,МАЛКИ,услуги ломбарда,,нет,бытовые услуги,"город Москва, Башиловская улица, дом 21",Савёловский район,Северный административный округ,37.574773106624306,55.8013035125064,1900857.0112807343,6417141.270480899
4,260,260,ЛОМБАРД,услуги ломбарда,,нет,бытовые услуги,"город Москва, улица Маршала Бирюзова, дом 16",район Щукино,Северо-Западный административный округ,37.491709793339744,55.79476126986192,1896054.9322795826,6414704.972248487
5,262,262,ЛОМБАРД,услуги ломбарда,,нет,бытовые услуги,"город Москва, улица Маршала Бирюзова, дом 17",район Щукино,Северо-Западный административный округ,37.4925037837588,55.7936922842267,1896142.630697878,6414606.233212277
6,264,264,ЛОМБАРД,услуги ломбарда,,нет,бытовые услуги,"город Москва, улица Маршала Бирюзова, дом 18",район Щукино,Северо-Западный административный округ,37.49109597815374,55.795120549349456,1896004.383883185,6414730.941103944
7,268,268,ЛОМБАРД «ЧЕРВОНЕЦ»,услуги ломбарда,,нет,бытовые услуги,"город Москва, улица Маршала Бирюзова, дом 34",район Щукино,Северо-Западный административный округ,37.48097734121444,55.80049498356655,1895191.42744859,6415099.992783752
8,294,294,Ломбард «Центр Кредит М»,услуги ломбарда,,нет,бытовые услуги,"город Москва, Боровское шоссе, дом 30",район Ново-Переделкино,Западный административный округ,37.356570877434805,55.641516106764094,1893463.7581831715,6395370.335700045
9,301,301,ДИЗАЙН КОМПЛЕКС,услуги ломбарда,,нет,бытовые услуги,"город Москва, Ботаническая улица, дом 10",район Марфино,Северо-Восточный административный округ,37.585473407123295,55.8452796890354,1899875.4097560304,6422104.415873492
10,331,331,Ломбард,услуги ломбарда,,нет,бытовые услуги,"город Москва, Бутырская улица, дом 2/18",Бутырский район,Северо-Восточный административный округ,37.58652149442232,55.79435528404101,1901827.9577783968,6416637.716861966
11,378,378,Ломбард,услуги ломбарда,,нет,бытовые услуги,"город Москва, улица Маршала Василевского, дом 15",район Щукино,Северо-Западный административный округ,37.46482170340927,55.807708154927056,1893944.2132618225,6415542.017146995
12,379,379,ЛОМБАРД,услуги ломбарда,,нет,бытовые услуги,"город Москва, улица Маршала Василевского, дом 15",район Щукино,Северо-Западный административный округ,37.464072369200395,55.8079722037877,1893888.973331777,6415554.923840922
13,382,382,ЛОМБАРД ЗАЛОГ УСПЕХА (Ювелирный ломбард),услуги ломбарда,,нет,бытовые услуги,"город Москва, улица Маршала Василевского, дом 17",район Щукино,Северо-Западный административный округ,37.46182536775703,55.80878499846185,1893722.556156142,6415595.895012832
14,383,383,Свой Ломбард,услуги ломбарда,,нет,бытовые услуги,"город Москва, улица Маршала Василевского, дом 17",район Щукино,Северо-Западный административный округ,37.46182536775703,55.80878499846185,1893722.556156142,6415595.895012832
15,405,405,Ломбард,услуги ломбарда,,нет,бытовые услуги,"город Москва, проспект Вернадского, дом 97, корпус 1",район Тропарёво-Никулино,Западный административный округ,37.491156,55.66747099999991,1900718.307150535,6400967.282356817
16,447,447,ЛОМБАРД,услуги ломбарда,,нет,бытовые услуги,"город Москва, 2-я Владимирская улица, дом 32, корпус 1",район Перово,Восточный административный округ,37.78339007145925,55.75204117003391,1915361.6710026844,6416211.205892167
17,449,449,ЛОМБАРД ПОБЕДА,услуги ломбарда,,нет,бытовые услуги,"город Москва, 2-я Владимирская улица, дом 41, корпус 1",район Перово,Восточный административный округ,37.784774679330425,55.751916748783685,1915450.4493674026,6416227.013492097
18,451,451,ЛОМБАРД,услуги ломбарда,,нет,бытовые услуги,"город Москва, Зелёный проспект, дом 23/43",район Перово,Восточный административный округ,37.785057686431905,55.751254328134706,1915492.4246411475,6416161.622821959
19,453,453,ЛОМБАРД,услуги ломбарда,,нет,бытовые услуги,"город Москва, Зелёный проспект, дом 23/43",район Перово,Восточный административный округ,37.76624637658305,55.74762175460842,1914485.2326146844,6415373.548210748
20,466,466,Ломабрд «Алмаз»,услуги ломбарда,,нет,бытовые услуги,"город Москва, 2-й Войковский проезд, дом 2/11",Войковский район,Северный административный округ,37.49680962748083,55.817642177483535,1895519.560452243,6417277.921888517
21,477,477,ФИНАНСОВАЯ КОМПАНИЯ «БИНГО - КРЕДИТ»,услуги ломбарда,,нет,бытовые услуги,"город Москва, Волгоградский проспект, дом 53",район Текстильщики,Юго-Восточный административный округ,37.73267,55.709904,1913852.0870387976,6410602.0774783725
22,551,551,Ломбард,услуги ломбарда,,нет,бытовые услуги,"город Москва, улица Бориса Галушкина, дом 12",Алексеевский район,Северо-Восточный административный округ,37.65396239976448,55.823975114099596,1904820.65700364,6421240.698800591
23,555,555,Ломбард,услуги ломбарда,,нет,бытовые услуги,"город Москва, улица Бориса Галушкина, дом 23",Алексеевский район,Северо-Восточный административный округ,37.66543795241753,55.821369619256025,1905613.738190175,6421200.397331513
24,556,556,Ломбард от 8,услуги ломбарда,,нет,бытовые услуги,"город Москва, улица Гарибальди, дом 21, корпус 4",район Черёмушки,Юго-Западный административный округ,37.55246671836965,55.67218881661056,1904280.791632028,6402755.731167072
25,560,560,МОСГОРЛОМБАРД,услуги ломбарда,,нет,бытовые услуги,"город Москва, Гвардейская улица, дом 5, корпус 2",Можайский район,Западный административный округ,37.422554,55.722240999999904,1894522.1850778288,6405447.46316485
26,566,566,ЛОМБАРД,услуги ломбарда,,нет,бытовые услуги,"город Москва, улица Героев Панфиловцев, дом 1, корпус 1",район Северное Тушино,Северо-Западный административный округ,37.4372112406138,55.85242789383514,1890619.9647257756,6419790.889148186
27,567,567,СКУПКА,услуги ломбарда,,нет,бытовые услуги,"город Москва, улица Героев Панфиловцев, дом 8, корпус 1",район Северное Тушино,Северо-Западный административный округ,37.43922331629151,55.85481124340789,1890654.1629122845,6420089.5734440815
28,568,568,АВАНСЪ - ЛОМБАРДЪ,услуги ломбарда,,нет,бытовые услуги,"город Москва, улица Героев Панфиловцев, дом 8, корпус 1",район Северное Тушино,Северо-Западный административный округ,37.43922331629151,55.85481124340789,1890654.1629122845,6420089.5734440815
29,598,598,Ломбард,услуги ломбарда,,нет,бытовые услуги,"город Москва, 1-й Гончарный переулок, дом 7",Таганский район,Центральный административный округ,37.649716434780835,55.74010209156817,1907682.2384281112,6412113.024942976
30,602,602,Ломбард,услуги ломбарда,,нет,бытовые услуги,"город Москва, Городецкая улица, дом 3",район Новокосино,Восточный административный округ,37.866781162013474,55.74394804029778,1920731.4359393974,6417102.179171354
31,623,623,ЛОМБАРД СТОЛИЧНЫЙ,услуги ломбарда,,нет,бытовые услуги,"город Москва, улица Грекова, дом 4",район Северное Медведково,Северо-Восточный административный округ,37.6622125135492,55.88538924610889,1903034.287653993,6428030.563328108
32,624,624,ЛОМБАРД,услуги ломбарда,,нет,бытовые услуги,"город Москва, улица Грекова, дом 8",район Северное Медведково,Северо-Восточный административный округ,37.66253469778944,55.88647388135882,1903013.3967807812,6428154.162373936
33,644,644,Ломбард «Шимапель»,услуги ломбарда,,нет,бытовые услуги,"город Москва, улица Грузинский Вал, дом 26, строение 1",Пресненский район,Центральный административный округ,37.58126294608191,55.774386774195904,1902248.9304424936,6414375.467127258
34,657,657,Ломбард,услуги ломбарда,,нет,бытовые услуги,"город Москва, улица 26-ти Бакинских Комиссаров, дом 14",район Тропарёво-Никулино,Западный административный округ,37.487191,55.661546999999906,1900695.0273935846,6400245.732531305
35,676,676,АВАНС ЛОМБАРД ОТРАДНОЕ,услуги ломбарда,,нет,бытовые услуги,"город Москва, улица Декабристов, дом 10, корпус 3",район Отрадное,Северо-Восточный административный округ,37.60062218181089,55.864862779976995,1900066.8067956609,6424531.117248792
36,684,684,ЛОМБАРД КОНТРАКТ ЛИМИТЕД,услуги ломбарда,,нет,бытовые услуги,"город Москва, улица Декабристов, дом 20, корпус 1",район Отрадное,Северо-Восточный административный округ,37.6073442568107,55.8629449691266,1900545.3910755184,6424464.84409193
37,686,686,Ломбард Яблоко 2,услуги ломбарда,,нет,бытовые услуги,"город Москва, улица Декабристов, дом 21",район Отрадное,Северо-Восточный административный округ,37.60929107666016,55.87338476183584,1900275.530941549,6425630.4935117625
38,688,688,Ломбард Первый ювелирный,услуги ломбарда,,нет,бытовые услуги,"город Москва, улица Декабристов, дом 21",район Отрадное,Северо-Восточный административный округ,37.607703562805575,55.86396513201252,1900529.2707030247,6424582.2830917435
39,715,715,Голд Центр,услуги ломбарда,,нет,бытовые услуги,"город Москва, Дмитровское шоссе, дом 42",Тимирязевский район,Северный административный округ,37.5712373481806,55.8418750634862,1899138.4125291244,6421440.405366828
40,728,728,Ломбард Благо,услуги ломбарда,,нет,бытовые услуги,"город Москва, Днепропетровская улица, дом 3, корпус 1",район Чертаново Центральное,Южный административный округ,37.60393549481412,55.6218318167218,1909283.284482736,6398403.418463665
41,742,742,Ломбард,услуги ломбарда,,нет,бытовые услуги,"город Москва, проезд Донелайтиса, дом 30",район Южное Тушино,Северо-Западный административный округ,37.42043509949679,55.84611971986684,1889834.7112100828,6418763.07286999
42,753,753,ЛОМБАРД СКРУДЖ,услуги ломбарда,,нет,бытовые услуги,"город Москва, Большая Дорогомиловская улица, дом 1",район Дорогомилово,Западный административный округ,37.564534183364,55.745449398879,1902304.2181512448,6410906.575153565
43,798,798,Ломбард «ВАШ ЛОМБАРД-4»,услуги ломбарда,,нет,бытовые услуги,"город Москва, улица Олеко Дундича, дом 25",район Филёвский Парк,Западный административный округ,37.48701649775724,55.738285077015306,1897854.1384959212,6408517.74923088
44,813,813,ЛОМБАРД,услуги ломбарда,,нет,бытовые услуги,"город Москва, Енисейская улица, дом 17, корпус 1",Бабушкинский район,Северо-Восточный административный округ,37.662616834607675,55.867803508236,1903713.736736664,6426144.367261237
45,827,827,Благо,услуги ломбарда,,нет,бытовые услуги,"город Москва, проспект Маршала Жукова, дом 18",район Хорошёво-Мнёвники,Северо-Западный административный округ,37.48763429265449,55.77606569190121,1896497.4983517104,6412604.426845295
46,832,832,ЛОМБАРД,услуги ломбарда,,нет,бытовые услуги,"город Москва, проспект Маршала Жукова, дом 39, корпус 1",район Хорошёво-Мнёвники,Северо-Западный административный округ,37.47142231735489,55.7753049597572,1895540.2911347675,6412185.259939644
47,849,849,Ломбард,услуги ломбарда,,нет,бытовые услуги,"город Москва, Заревый проезд, дом 10",район Северное Медведково,Северо-Восточный административный округ,37.6581462846828,55.8862918259896,1902754.4556933385,6428042.690481491
48,862,862,Ломбард,услуги ломбарда,,нет,бытовые услуги,"город Москва, Волгоградский проспект, дом 121/35",район Кузьминки,Юго-Восточный административный округ,37.767679,55.705956999999906,1916129.3378446985,6410914.75617887
49,864,864,Ломбард,услуги ломбарда,,нет,бытовые услуги,"город Москва, Зеленодольская улица, дом 39",район Кузьминки,Юго-Восточный административный округ,37.766684,55.703644,1916155.2203898255,6410644.5465845065
50,866,866,Ломбард,услуги ломбарда,,нет,бытовые услуги,"город Москва, Волгоградский проспект, дом 82/37",район Кузьминки,Юго-Восточный административный округ,37.76708862145591,55.70462760880208,1916143.0891523957,6410759.063713529
51,868,868,ЛОМБАРД,услуги ломбарда,,нет,бытовые услуги,"город Москва, 1-я Владимирская улица, дом 37/15",район Перово,Восточный административный округ,37.78020928724549,55.75042723130215,1915228.7792494185,6415970.237371087
52,869,869,ЛОМБАРД 911,услуги ломбарда,,нет,бытовые услуги,"город Москва, Зелёный проспект, дом 17",район Перово,Восточный административный округ,37.7816781030725,55.750597684925694,1915311.6487435212,6416019.5845504375
53,874,874,ЛОМБАРД,услуги ломбарда,,нет,бытовые услуги,"город Москва, Зелёный проспект, дом 56",район Новогиреево,Восточный административный округ,37.8151091562341,55.751473206748,1917309.9937863639,6416819.672860676
54,875,875,Ломбард,услуги ломбарда,,нет,бытовые услуги,"город Москва, Зелёный проспект, дом 62, корпус 1",район Новогиреево,Восточный административный округ,37.81952131712855,55.750542477107,1917612.909653521,6416812.644045643
55,879,879,Скупка № 1,услуги ломбарда,,нет,бытовые услуги,"город Москва, Свободный проспект, дом 18",район Новогиреево,Восточный административный округ,37.81675762876292,55.75242681510844,1917374.4148723169,6416957.222211158
56,897,897,Ваш ломбард,услуги ломбарда,,нет,бытовые услуги,"город Москва, Измайловский бульвар, дом 10",район Измайлово,Восточный административный округ,37.786031494251574,55.796121944191846,1913872.694981156,6421015.417406738
57,910,910,Ломбард,услуги ломбарда,,нет,бытовые услуги,"город Москва, Измайловский проспект, дом 63",район Измайлово,Восточный административный округ,37.78552739749369,55.788657056095005,1914121.4767394203,6420200.688100765
58,924,924,Ломбард,услуги ломбарда,,нет,бытовые услуги,"город Москва, Илимская улица, дом 10",район Лианозово,Северо-Восточный административный округ,37.583838366131104,55.8901095067173,1898112.7951643881,6426901.494321098
59,942,942,Центр ломбард,услуги ломбарда,,нет,бытовые услуги,"город Москва, Долгоруковская улица, дом 39/6",Тверской район,Центральный административный округ,37.60063233447952,55.778641394184206,1903267.8676110576,6415238.938491655
60,1022,1022,ВАШ ЛОМБАРД,услуги ломбарда,,нет,бытовые услуги,"город Москва, 2-я Квесисская улица, дом 21",Савёловский район,Северный административный округ,37.5775910278704,55.7947921262789,1901269.4787966341,6416498.263012132
61,1043,1043,ЗАЛОГ И ВЫКУП,услуги ломбарда,,нет,бытовые услуги,"город Москва, Кировоградская улица, дом 28, корпус 1",район Чертаново Центральное,Южный административный округ,37.601822489237286,55.60947304454086,1909612.231597908,6397026.524214151
62,1056,1056,Народная залоговая компания,услуги ломбарда,,нет,бытовые услуги,"город Москва, 5-я Кожуховская улица, дом 9",Южнопортовый район,Юго-Восточный административный округ,37.6695885883398,55.705472673631604,1910178.760104887,6408797.7715749685
63,1087,1087,Ломбард Тик-Так,услуги ломбарда,,нет,бытовые услуги,"город Москва, Комсомольский проспект, дом 33/11",район Хамовники,Центральный административный округ,37.57845638848621,55.723784169982174,1903953.5120310169,6408861.890862135
64,1097,1097,ЛОМБАРД ЮВЕЛИРНАЯ МАСТЕРСКАЯ,услуги ломбарда,,нет,бытовые услуги,"город Москва, Комсомольский проспект, дом 49",район Хамовники,Центральный административный округ,37.57218270534871,55.71914852493897,1903743.4714088198,6408230.973258492
65,1103,1103,Ломбард,услуги ломбарда,,нет,бытовые услуги,"город Москва, улица Конёнкова, дом 19",район Бибирево,Северо-Восточный административный округ,37.6107677446404,55.8932590362104,1899626.5046934872,6427802.881465179
66,1118,1118,Ломбард,услуги ломбарда,,нет,бытовые услуги,"город Москва, улица Корнейчука, дом 54",район Бибирево,Северо-Восточный административный округ,37.6283844934501,55.8940411147052,1900664.055984274,6428255.167688343
67,1138,1138,Ломбард,услуги ломбарда,,нет,бытовые услуги,"город Москва, улица Зои и Александра Космодемьянских, дом 25/34",район Коптево,Северный административный округ,37.519736,55.823642,1896689.2560364387,6418401.790581705
68,1149,1149,Ломбард,услуги ломбарда,,нет,бытовые услуги,"город Москва, улица Космонавтов, дом 22",Алексеевский район,Северо-Восточный административный округ,37.660227847110654,55.82056682305958,1905327.5665473044,6421004.707142738
69,1151,1151,Ломбард,услуги ломбарда,,нет,бытовые услуги,"город Москва, улица Космонавтов, дом 22",Алексеевский район,Северо-Восточный административный округ,37.660227847110654,55.82056682305958,1905327.5665473044,6421004.707142738
70,1155,1155,ГОЛД ломбард,услуги ломбарда,,нет,бытовые услуги,"город Москва, улица Костякова, дом 6/5",Тимирязевский район,Северный административный округ,37.5728574024256,55.8119905019376,1900344.5779594237,6418253.192328531
71,1169,1169,Гледен,услуги ломбарда,,нет,бытовые услуги,"город Москва, улица Кравченко, дом 8",Ломоносовский район,Юго-Западный административный округ,37.520723159623365,55.67638719088055,1902191.2795938791,6402545.492100415
72,1173,1173,Ломбард Залог Успеха,услуги ломбарда,,нет,бытовые услуги,"город Москва, Нахимовский проспект, дом 42",Академический район,Юго-Западный административный округ,37.564392807500056,55.677896772739615,1904796.2979766813,6403620.515468422
73,1196,1196,Ломбард Надежда,услуги ломбарда,,нет,бытовые услуги,"город Москва, Краснодарская улица, дом 4/117",район Люблино,Юго-Восточный административный округ,37.7395245061928,55.676348471249995,1915521.084122756,6407130.5557208415
74,1219,1219,Залог успеха,услуги ломбарда,,нет,бытовые услуги,"город Москва, улица Красного Маяка, дом 1, корпус 1",район Чертаново Центральное,Южный административный округ,37.60060552670237,55.61079585634018,1909488.9517416274,6397143.640980173
75,1223,1223,Ломбард,услуги ломбарда,,нет,бытовые услуги,"город Москва, улица Красного Маяка, дом 2",район Чертаново Центральное,Южный административный округ,37.6017857874558,55.61186407716727,1909521.412579274,6397283.572146293
76,1242,1242,Ломбард 24,услуги ломбарда,,нет,бытовые услуги,"город Москва, Кронштадтский бульвар, дом 13/2, корпус 1",Головинский район,Северный административный округ,37.49292891155159,55.84228753430529,1894373.6555172098,6419854.1883490635
77,1252,1252,Чароит,услуги ломбарда,,нет,бытовые услуги,"город Москва, 3-й Крутицкий переулок, дом 13",Южнопортовый район,Юго-Восточный административный округ,37.6633551345888,55.7306606616528,1908862.671302897,6411381.598656473
78,1283,1283,ЭЛИТНЫЙ ЧАСОВОЙ ЛОМБАРД,услуги ломбарда,,нет,бытовые услуги,"город Москва, Кутузовский проспект, дом 23, корпус 1",район Дорогомилово,Западный административный округ,37.54832527607999,55.744517857565,1901352.9995709585,6410467.702885451
79,1330,1330,Ломбард Перспектива,услуги ломбарда,,нет,бытовые услуги,"город Москва, Ленинградский проспект, дом 33, корпус 4",район Беговой,Северный административный округ,37.559936,55.787255,1900476.5441839532,6415317.2453587325
80,1337,1337,Ломбард «Ломбард Алмаз»,услуги ломбарда,,нет,бытовые услуги,"город Москва, Ленинградский проспект, дом 58",район Аэропорт,Северный административный округ,37.53685138163996,55.799049298182496,1898637.9590184004,6416107.199487853
81,1344,1344,Ломбард « Ломбард Яхонт»,услуги ломбарда,,нет,бытовые услуги,"город Москва, Ленинградский проспект, дом 62",район Аэропорт,Северный административный округ,37.53410759183056,55.80064427801207,1898412.334884549,6416221.956006108
82,1345,1345,Ломбард «РУСЛОМБАРД»,услуги ломбарда,,нет,бытовые услуги,"город Москва, Ленинградский проспект, дом 62",район Аэропорт,Северный административный округ,37.5327422843963,55.8008419441989,1898322.1184349118,6416214.812973336
83,1364,1364,Ломбард «Деньга»,услуги ломбарда,,нет,бытовые услуги,"город Москва, Ленинградский проспект, дом 78, корпус 1",район Аэропорт,Северный административный округ,37.51327551694192,55.806059227900604,1896947.1848318041,6416371.8030824615
84,1372,1372,ЛОУДСЕЛ,услуги ломбарда,,нет,бытовые услуги,"город Москва, Ленинградское шоссе, дом 9, корпус 1",Войковский район,Северный административный округ,37.498398395833995,55.816786213647,1895647.6193805016,6417218.685517493
85,1386,1386,Ломбард,услуги ломбарда,,нет,бытовые услуги,"город Москва, Ленинский проспект, дом 11, строение 1",район Якиманка,Центральный административный округ,37.60392134472969,55.723183675774095,1905525.1196457061,6409329.907250735
86,1463,1463,Ломбард,услуги ломбарда,,нет,бытовые услуги,"город Москва, улица Лескова, дом 6",район Бибирево,Северо-Восточный административный округ,37.592614554029296,55.897758779967,1898360.243429813,6427908.848302755
87,1497,1497,Ломбард,услуги ломбарда,,нет,бытовые услуги,"город Москва, Ломоносовский проспект, дом 5",Гагаринский район,Юго-Западный административный округ,37.547881603697995,55.68585524355551,1903496.0212111908,6404133.526989092
88,1502,1502,МЕРИДИАН - 2М,услуги ломбарда,,нет,бытовые услуги,"город Москва, Ломоносовский проспект, дом 15",Гагаринский район,Юго-Западный административный округ,37.5400754438456,55.6887270938032,1902914.3372583762,6404280.137381631
89,1503,1503,АЗ Ломбард,услуги ломбарда,,нет,бытовые услуги,"город Москва, Ломоносовский проспект, дом 15",Гагаринский район,Юго-Западный административный округ,37.548014782532,55.6858210552645,1903505.3981049026,6404132.622972139
90,1506,1506,БАБУШКИНСКИЙ ЛОМБАРД,услуги ломбарда,,нет,бытовые услуги,"город Москва, Лосевская улица, дом 22",Ярославский район,Северо-Восточный административный округ,37.716367643809406,55.877501401258506,1906607.7226414608,6428315.990033719
91,1513,1513,ЭКСПЛУАНТ,услуги ломбарда,,нет,бытовые услуги,"город Москва, Люблинская улица, дом 29",район Текстильщики,Юго-Восточный административный округ,37.734003,55.699997,1914302.7708386737,6409562.595933922
92,1557,1557,Ломбард Е,услуги ломбарда,,нет,бытовые услуги,"город Москва, улица Маршала Малиновского, дом 8",район Щукино,Северо-Западный административный округ,37.49371728129477,55.79262925010913,1896255.593822057,6414516.863946892
93,1592,1592,Ломбард,услуги ломбарда,,нет,бытовые услуги,"город Москва, улица Медиков, дом 12",район Царицыно,Южный административный округ,37.67630488561869,55.63354228288594,1913262.9064388697,6401185.715569972
94,1603,1603,ЛОМБАРД,услуги ломбарда,,нет,бытовые услуги,"город Москва, улица Менжинского, дом 17, корпус 1",Бабушкинский район,Северо-Восточный административный округ,37.67093006448523,55.86836381841525,1904196.487838856,6426378.850039798
95,1610,1610,ЛОМБАРД,услуги ломбарда,,нет,бытовые услуги,"город Москва, улица Менжинского, дом 32, корпус 2",Бабушкинский район,Северо-Восточный административный округ,37.66747672532485,55.87011992127653,1903921.870554998,6426495.714438649
96,1615,1615,ЛОМБАРД,услуги ломбарда,,нет,бытовые услуги,"город Москва, улица Металлургов, дом 5",район Перово,Восточный административный округ,37.77951087818911,55.757205879548096,1914932.817769741,6416685.76773787
97,1646,1646,Услуги ломбарда «Ломбард»,услуги ломбарда,,нет,бытовые услуги,"город Москва, проспект Мира, дом 78",Мещанский район,Центральный административный округ,37.63528035038409,55.79134535314729,1904900.3478548932,6417333.172167326
98,1651,1651,ЛОМБАРД РУССКИЙ ЗАЛОГОВЫЙ ДОМ,услуги ломбарда,,нет,бытовые услуги,"город Москва, проспект Мира, дом 89",Останкинский район,Северо-Восточный административный округ,37.63551635694711,55.804412528947296,1904428.9690418253,6418746.334779575
99,1689,1689,ЛОМБАРД,услуги ломбарда,,нет,бытовые услуги,"город Москва, Михалковская улица, дом 2",район Коптево,Северный административный округ,37.53921284280084,55.83748065113097,1897358.9044678437,6420299.14553673
100,1693,1693,Ломбард,услуги ломбарда,,нет,бытовые услуги,"город Москва, Михалковская улица, дом 16/1",район Коптево,Северный административный округ,37.532290245635096,55.83869109136135,1896894.1959853284,6420285.432328247
101,1765,1765,Ломбард А1,услуги ломбарда,,нет,бытовые услуги,"город Москва, Нагатинская набережная, дом 22, корпус 2",район Нагатино-Садовники,Южный административный округ,37.65450314303009,55.68150791850567,1910151.3327518618,6405897.935500799
102,1785,1785,1-й городской ломбард,услуги ломбарда,,нет,бытовые услуги,"город Москва, Нагорный бульвар, дом 6",район Котловка,Юго-Западный административный округ,37.5945992927739,55.672811146149904,1906825.0091097225,6403704.292447144
103,1792,1792,ЛОМБАРД СТОЛИЧНЫЙ,услуги ломбарда,,нет,бытовые услуги,"город Москва, улица Народного Ополчения, дом 37, корпус 1",район Щукино,Северо-Западный административный округ,37.487776235688955,55.79065459477191,1895967.6096781981,6414180.378977627
104,1895,1895,Ломбард,услуги ломбарда,,нет,бытовые услуги,"город Москва, Новопетровская улица, дом 16",район Коптево,Северный административный округ,37.522714341817036,55.82729546457583,1896734.864607841,6418857.639055192
105,1912,1912,ЛОМБАРД,услуги ломбарда,,нет,бытовые услуги,"город Москва, Новощукинская улица, дом 1",район Щукино,Северо-Западный административный округ,37.460789345365505,55.808177198280895,1893682.0602158397,6415508.844192519
106,1915,1915,АНКОР ПРО,услуги ломбарда,,нет,бытовые услуги,"город Москва, Новоясеневский проспект, дом 16, корпус 1",район Ясенево,Юго-Западный административный округ,37.520111953655906,55.608051152258305,1904676.869160797,6395162.948670138
107,1937,1937,Ателье,услуги ломбарда,,нет,бытовые услуги,"город Москва, Окская улица, дом 20, корпус 2",район Кузьминки,Юго-Восточный административный округ,37.758457,55.712407,1915327.3774875775,6411415.2173778415
108,1940,1940,Народный ломбард,услуги ломбарда,,нет,бытовые услуги,"город Москва, Калужская площадь, дом 1, корпус 1",район Якиманка,Центральный административный округ,37.612711421397854,55.72841180032911,1905865.911176896,6410077.509729474
109,1944,1944,ВАШ ЛОМБАРД,услуги ломбарда,,нет,бытовые услуги,"город Москва, Калужская площадь, дом 1, корпус 1",район Якиманка,Центральный административный округ,37.612344883543,55.7284434655104,1905842.439755671,6410073.247782353
110,1973,1973,Надежный ломбард,услуги ломбарда,,нет,бытовые услуги,"город Москва, Ореховый бульвар, дом 47/33",район Зябликово,Южный административный округ,37.746042968730364,55.61456386905788,1918222.894584335,6400609.51013724
111,1977,1977,Центр Ломбард,услуги ломбарда,,нет,бытовые услуги,"город Москва, Оружейный переулок, дом 23",Тверской район,Центральный административный округ,37.601275776404805,55.77234886269204,1903540.430706817,6414574.152555292
112,1979,1979,Ломбард 583,услуги ломбарда,,нет,бытовые услуги,"город Москва, Осенний бульвар, дом 10, корпус 1",район Крылатское,Западный административный округ,37.40899580643509,55.75695097296297,1892420.7570426909,6408909.885689956
113,1991,1991,Ломбард «Столичный»,услуги ломбарда,,нет,бытовые услуги,"город Москва, улица Островитянова, дом 30, корпус 1",район Тёплый Стан,Юго-Западный административный округ,37.5176644751616,55.63400525596095,1903569.570439076,6397911.034858367
114,1995,1995,Ефанов А.А.,услуги ломбарда,,нет,бытовые услуги,"город Москва, Открытое шоссе, дом 5, корпус 11",район Богородское,Восточный административный округ,37.7328084942539,55.81460615526636,1909952.6273623463,6421885.98491283
115,1999,1999,ЛОМБАРД,услуги ломбарда,,нет,бытовые услуги,"город Москва, Открытое шоссе, дом 21, корпус 4",район Метрогородок,Восточный административный округ,37.75623466835649,55.82392102403071,1911025.364830036,6423382.220735918
116,2012,2012,ОЧАКОВСКИЙ ЛОМБАРД,услуги ломбарда,,нет,бытовые услуги,"город Москва, Большая Очаковская улица, дом 9",район Очаково-Матвеевское,Западный административный округ,37.459224131986204,55.68443433612649,1898147.045210084,6402131.841950259
117,2037,2037,Ломбард Саламандра,услуги ломбарда,,нет,бытовые услуги,"город Москва, улица Паперника, дом 13",Рязанский район,Юго-Восточный административный округ,37.78799172313555,55.72119768931455,1916795.0762719759,6412985.485882048
118,2042,2042,Залог успеха,услуги ломбарда,,нет,бытовые услуги,"город Москва, 3-я Парковая улица, дом 4",район Измайлово,Восточный административный округ,37.78468358816189,55.78900854198134,1914057.1095795496,6420220.757598046
119,2043,2043,Ломбард Семерочка,услуги ломбарда,,нет,бытовые услуги,"город Москва, 3-я Парковая улица, дом 4",район Измайлово,Восточный административный округ,37.78468358816189,55.78900854198134,1914057.1095795496,6420220.757598046
120,2044,2044,Ломбард Благо,услуги ломбарда,,нет,бытовые услуги,"город Москва, 3-я Парковая улица, дом 6",район Измайлово,Восточный административный округ,37.78464362522813,55.789662817565016,1914030.1997725759,6420290.392800392
121,2054,2054,Ломбард,услуги ломбарда,,нет,бытовые услуги,"город Москва, 9-я Парковая улица, дом 18",район Восточное Измайлово,Восточный административный округ,37.80001094856388,55.792778820923495,1914846.1597402247,6420950.157570165
122,2059,2059,Комиссионный магазин «Победа»,услуги ломбарда,,нет,бытовые услуги,"город Москва, 9-я Парковая улица, дом 61, корпус 1",район Северное Измайлово,Восточный административный округ,37.79795951796385,55.809108018358025,1914110.1599699648,6422665.716223386
123,2060,2060,Ломбард,услуги ломбарда,,нет,бытовые услуги,"город Москва, 9-я Парковая улица, дом 61, корпус 1",район Северное Измайлово,Восточный административный округ,37.79795951796385,55.809108018358025,1914110.1599699648,6422665.716223386
124,2061,2061,Ломбард,услуги ломбарда,,нет,бытовые услуги,"город Москва, 9-я Парковая улица, дом 70, корпус 1",район Северное Измайлово,Восточный административный округ,37.79926751639353,55.80913626325312,1914188.440121184,6422696.34614718
125,2062,2062,Ломбард,услуги ломбарда,,нет,бытовые услуги,"город Москва, 9-я Парковая улица, дом 70, корпус 1",район Северное Измайлово,Восточный административный округ,37.79926751639353,55.80913626325312,1914188.440121184,6422696.34614718
126,2075,2075,Ломбард,услуги ломбарда,,нет,бытовые услуги,"город Москва, 15-я Парковая улица, дом 41, корпус 1",район Северное Измайлово,Восточный административный округ,37.81820043991108,55.805204916553016,1915484.1680927144,6422672.438441131
127,2101,2101,Ломбард Семерочка,услуги ломбарда,,нет,бытовые услуги,"город Москва, Первомайская улица, дом 46",район Измайлово,Восточный административный округ,37.78468358816189,55.78900854198134,1914057.1095795496,6420220.757598046
128,2109,2109,Ломбард,услуги ломбарда,,нет,бытовые услуги,"город Москва, Первомайская улица, дом 73",район Измайлово,Восточный административный округ,37.79817674386938,55.79371731421869,1914699.7096896644,6421012.548304047
129,2110,2110,Ломабард СОЦ-Кредит-Альянс,услуги ломбарда,,нет,бытовые услуги,"город Москва, Первомайская улица, дом 73",район Измайлово,Восточный административный округ,37.79818625095737,55.79353844830767,1914706.9845458332,6420993.4826693535
130,2111,2111,Ломбард,услуги ломбарда,,нет,бытовые услуги,"город Москва, Первомайская улица, дом 74",район Восточное Измайлово,Восточный административный округ,37.80069827786041,55.79301517155252,1914879.017882133,6420990.117322805
131,2112,2112,Скупка,услуги ломбарда,,нет,бытовые услуги,"город Москва, Первомайская улица, дом 74",район Восточное Измайлово,Восточный административный округ,37.80069827786041,55.79301517155252,1914879.017882133,6420990.117322805
132,2121,2121,ЛОМБАРД,услуги ломбарда,,нет,бытовые услуги,"город Москва, Первомайская улица, дом 121",район Восточное Измайлово,Восточный административный округ,37.82156235626033,55.7939400122272,1916110.4051228175,6421530.150277266
133,2161,2161,Ломбард,услуги ломбарда,,нет,бытовые услуги,"город Москва, Петрозаводская улица, дом 11, корпус 2",район Ховрино,Северный административный округ,37.493705414397,55.8654639642566,1893564.4447282816,6422368.792535386
134,2163,2163,Ломбард Линкс-кредит,услуги ломбарда,,нет,бытовые услуги,"город Москва, Петрозаводская улица, дом 13, корпус 2",район Ховрино,Северный административный округ,37.4925332066514,55.866245948746894,1893464.4930162462,6422428.733330886
135,2201,2201,Ломбард,услуги ломбарда,,нет,бытовые услуги,"город Москва, улица Плещеева, дом 8",район Бибирево,Северо-Восточный административный округ,37.60838823896128,55.88482943150751,1899795.637846672,6426844.872729777
136,2203,2203,Ломбард,услуги ломбарда,,нет,бытовые услуги,"город Москва, улица Плещеева, дом 12",район Бибирево,Северо-Восточный административный округ,37.6109823213616,55.88589469342649,1899913.159538809,6427013.833112436
137,2213,2213,ЛОМБАРД-СИТИ НА КУТУЗОВСКОМ,услуги ломбарда,,нет,бытовые услуги,"город Москва, площадь Победы, дом 2, корпус 1",район Дорогомилово,Западный административный округ,37.520986456963506,55.73770278186911,1899942.175441741,6409162.624532933
138,2218,2218,Ломбард Золотая Вьюга,услуги ломбарда,,нет,бытовые услуги,"город Москва, Ивантеевская улица, дом 23",район Богородское,Восточный административный округ,37.73182622413499,55.81574413158779,1909850.550310205,6421987.9265082
139,2219,2219,Ломбард Яблоко,услуги ломбарда,,нет,бытовые услуги,"город Москва, Ивантеевская улица, дом 32, корпус 2",район Богородское,Восточный административный округ,37.73106350141985,55.814887885658365,1909836.257168824,6421879.646696238
140,2257,2257,ЛОМБАРД НАДЕЖДА,услуги ломбарда,,нет,бытовые услуги,"город Москва, улица Пржевальского, дом 14/16",район Очаково-Матвеевское,Западный административный округ,37.456259937309795,55.67925423569311,1898157.170984894,6401511.45677091
141,2262,2262,ЦЕНТР ЮВЕЛИР,услуги ломбарда,,нет,бытовые услуги,"город Москва, улица Пришвина, дом 17",район Бибирево,Северо-Восточный административный округ,37.6029786096622,55.887182350899,1899380.6090852309,6426985.462534345
142,2273,2273,ПЕРВЫЙ ЮВЕЛИРНЫЙ ЛОМБАРД,услуги ломбарда,,нет,бытовые услуги,"город Москва, Профсоюзная улица, дом 2/22",Академический район,Юго-Западный административный округ,37.572378650853835,55.687478922493376,1904928.085577305,6404820.666904872
143,2277,2277,ЛОМБАРД,услуги ломбарда,,нет,бытовые услуги,"город Москва, Профсоюзная улица, дом 5/9",Академический район,Юго-Западный административный округ,37.571233515662094,55.68497937518849,1904950.8736669375,6404527.2209848575
144,2286,2286,ЛОМБАРД Кредит-Сервис,услуги ломбарда,,нет,бытовые услуги,"город Москва, Профсоюзная улица, дом 15",Академический район,Юго-Западный административный округ,37.56539541836534,55.67946273384135,1904799.428790149,6403810.325852842
145,2287,2287,1 ЛОМБАРД,услуги ломбарда,,нет,бытовые услуги,"город Москва, Профсоюзная улица, дом 15",Академический район,Юго-Западный административный округ,37.56539541836534,55.67946273384135,1904799.428790149,6403810.325852842
146,2292,2292,ЛОМБАРД,услуги ломбарда,,нет,бытовые услуги,"город Москва, Профсоюзная улица, дом 24, корпус 1",Академический район,Юго-Западный административный округ,37.56419172153458,55.67987131752932,1904710.976192192,6403829.21043254
147,2309,2309,Ломбард «Мобильный ломбард №1»,услуги ломбарда,,нет,бытовые услуги,"город Москва, Профсоюзная улица, дом 144",район Тёплый Стан,Юго-Западный административный округ,37.50800836910719,55.624381540334156,1903335.496723292,6396671.5061868625
148,2353,2353,Благо,услуги ломбарда,,нет,бытовые услуги,"город Москва, бульвар Яна Райниса, дом 2, корпус 1",район Северное Тушино,Северо-Западный административный округ,37.42115655601655,55.848775176190884,1889780.701123774,6419064.351000731
149,2364,2364,ЛОМБАРД,услуги ломбарда,,нет,бытовые услуги,"город Москва, улица Раменки, дом 6, корпус 2",район Раменки,Западный административный округ,37.49252524243111,55.6930902819689,1899856.819416604,6403758.758637596
150,2377,2377,ОММ,услуги ломбарда,,нет,бытовые услуги,"город Москва, улица Ремизова, дом 5",район Котловка,Юго-Западный административный округ,37.5994005428384,55.6775130089883,1906943.2638106728,6404311.76202376
151,2385,2385,Ломбард «Первый Ювелирный»,услуги ломбарда,,нет,бытовые услуги,"город Москва, улица Рогожский Вал, дом 2/50",Таганский район,Центральный административный округ,37.67779280016099,55.74552477978413,1909187.435359397,6413286.603368428
152,2387,2387,Ломбард «Золотой слиток»,услуги ломбарда,,нет,бытовые услуги,"город Москва, улица Рогожский Вал, дом 7",Таганский район,Центральный административный округ,37.67813085452186,55.743710694740926,1909275.5127981044,6413098.203326539
153,2437,2437,Ломбард,услуги ломбарда,,нет,бытовые услуги,"город Москва, улица Руставели, дом 15",Бутырский район,Северо-Восточный административный округ,37.596000503326266,55.8137337141231,1901684.5030619304,6418924.400318535
154,2438,2438,ЛОМБАРД АЛАНДРАГ,услуги ломбарда,,нет,бытовые услуги,"город Москва, улица Руставели, дом 15",Бутырский район,Северо-Восточный административный округ,37.59702538951978,55.81364643684452,1901749.9393647097,6418936.409251798
155,2457,2457,Часовой ломбард,услуги ломбарда,,нет,бытовые услуги,"город Москва, Садовая-Каретная улица, дом 22, строение 1",Тверской район,Центральный административный округ,37.61112517482352,55.7729548290031,1904116.3478404444,6414845.502874844
156,2463,2463,ВАШ ЛОМБАРД,услуги ломбарда,,нет,бытовые услуги,"город Москва, Мещанская улица, дом 1/17, строение 1",Мещанский район,Центральный административный округ,37.62669059934132,55.77396335416148,1905024.5240557813,6415279.996225462
157,2490,2490,Ломбард,услуги ломбарда,,нет,бытовые услуги,"город Москва, улица Свободы, дом 16",район Покровское-Стрешнево,Северо-Западный административный округ,37.453863123586494,55.831587699722704,1892398.3893695348,6417889.2445986625
158,2513,2513,ЛОМБАРД СТОЛИЧНЫЙ,услуги ломбарда,,нет,бытовые услуги,"город Москва, Северный бульвар, дом 2",район Отрадное,Северо-Восточный административный округ,37.60724219266982,55.86490594680595,1900466.36522758,6424674.028336811
159,2530,2530,ЛОМБАРД,услуги ломбарда,,нет,бытовые услуги,"город Москва, Большая Семёновская улица, дом 21",район Соколиная Гора,Восточный административный округ,37.70683524044623,55.78257965010522,1909571.3811461132,6417889.550398171
160,2552,2552,Ломбард 911,услуги ломбарда,,нет,бытовые услуги,"город Москва, Сивашская улица, дом 11",район Зюзино,Юго-Западный административный округ,37.6035382972031,55.6603822393472,1907830.3680565276,6402551.540086889
161,2554,2554,Ломбард «Рубин»,услуги ломбарда,,нет,бытовые услуги,"город Москва, улица Симоновский Вал, дом 13, корпус 1",Южнопортовый район,Юго-Восточный административный округ,37.6643582797604,55.723319871272096,1909196.7148796432,6410611.491981108
162,2565,2565,Ломбард,услуги ломбарда,,нет,бытовые услуги,"город Москва, Сиреневый бульвар, дом 3, корпус 3",район Северное Измайлово,Восточный административный округ,37.77015808430231,55.80294587768295,1912654.239532724,6421415.947877337
163,2570,2570,Ломбард Благо,услуги ломбарда,,нет,бытовые услуги,"город Москва, Измайловский бульвар, дом 38",район Измайлово,Восточный административный округ,37.8017977283659,55.796103040563395,1914830.0852492102,6421345.914650712
164,2611,2611,ЛОМБАРД,услуги ломбарда,,нет,бытовые услуги,"город Москва, Снежная улица, дом 17, корпус 1",район Свиблово,Северо-Восточный административный округ,37.64768855080568,55.85304436216199,1903358.5612347939,6424241.605004041
165,2612,2612,Ломбард,услуги ломбарда,,нет,бытовые услуги,"город Москва, Снежная улица, дом 21/1",район Свиблово,Северо-Восточный административный округ,37.65090675535991,55.85487154708804,1903485.6151960525,6424505.84678473
166,2633,2633,Ломбард,услуги ломбарда,,нет,бытовые услуги,"город Москва, улица Сокольническая Слободка, дом 16",район Сокольники,Восточный административный округ,37.67659988270471,55.7886375782966,1907509.8534560555,6417907.461122226
167,2641,2641,Лунев М.А.,услуги ломбарда,,нет,бытовые услуги,"город Москва, Солнцевский проспект, дом 1",район Солнцево,Западный административный округ,37.396630905730305,55.6518311509919,1895529.685139672,6397314.094666808
168,2647,2647,СЕМЁРОЧКА,услуги ломбарда,,нет,бытовые услуги,"город Москва, Солнцевский проспект, дом 26",район Солнцево,Западный административный округ,37.40846727867205,55.649842793235216,1896324.743147845,6397345.347647651
169,2683,2683,Ломбард,услуги ломбарда,,нет,бытовые услуги,"город Москва, проезд Стратонавтов, дом 9",район Покровское-Стрешнево,Северо-Западный административный округ,37.43623996997459,55.826382839403735,1891520.6677241283,6416962.447738599
170,2684,2684,Ломбард,услуги ломбарда,,нет,бытовые услуги,"город Москва, проезд Стратонавтов, дом 9",район Покровское-Стрешнево,Северо-Западный административный округ,37.43623996997459,55.826382839403735,1891520.6677241283,6416962.447738599
171,2685,2685,Ломбард,услуги ломбарда,,нет,бытовые услуги,"город Москва, проезд Стратонавтов, дом 11, строение 1",район Покровское-Стрешнево,Северо-Западный административный округ,37.435053,55.827398,1891411.22665098,6417047.297529062
172,2698,2698,Ломбард,услуги ломбарда,,нет,бытовые услуги,"город Москва, Строгинский бульвар, дом 15",район Строгино,Северо-Западный административный округ,37.4038822450156,55.804310649912196,1890368.406531191,6413911.641839136
173,2726,2726,Ломбард,услуги ломбарда,,нет,бытовые услуги,"город Москва, Суздальская улица, дом 34, корпус 1",район Новокосино,Восточный административный округ,37.86716011896217,55.744328600185725,1920740.1702398916,6417151.192561558
174,2748,2748,Ломбард,услуги ломбарда,,нет,бытовые услуги,"город Москва, улица Сущёвский Вал, дом 66",Мещанский район,Центральный административный округ,37.6287063585343,55.79208787822209,1904473.5946443717,6417275.554469774
175,2755,2755,Ломбард,услуги ломбарда,,нет,бытовые услуги,"город Москва, Сходненская улица, дом 37",район Южное Тушино,Северо-Западный административный округ,37.43892400884151,55.849695932611965,1890824.5273830711,6419531.8313895
176,2756,2756,Ломбард «Надежда»,услуги ломбарда,,нет,бытовые услуги,"город Москва, Сходненская улица, дом 37",район Южное Тушино,Северо-Западный административный округ,37.4389668928216,55.8496482756216,1890828.8848305743,6419527.581997657
177,2764,2764,Ломбард,услуги ломбарда,,нет,бытовые услуги,"город Москва, Сходненская улица, дом 52, корпус 1",район Южное Тушино,Северо-Западный административный округ,37.440833710296,55.8487388208315,1890975.636566395,6419468.227691479
178,2803,2803,Часовой ломбард «Время»,услуги ломбарда,,нет,бытовые услуги,"город Москва, 3-я Тверская-Ямская улица, дом 11",Тверской район,Центральный административный округ,37.595977,55.771555,1903247.9374914528,6414377.778336212
179,2811,2811,Ваш Ломбард,услуги ломбарда,,нет,бытовые услуги,"город Москва, 4-я Тверская-Ямская улица, дом 8/9",Тверской район,Центральный административный округ,37.59690317922025,55.77288899794623,1903254.72665718,6414540.932692093
180,2823,2823,ООО «ЗОЛОТОЙ КРЕДИТ»,услуги ломбарда,,нет,бытовые услуги,"город Москва, 8-я улица Текстильщиков, дом 10",район Текстильщики,Юго-Восточный административный округ,37.742155,55.703434,1914670.5920143758,6410104.720858259
181,2839,2839,Залог Успеха Ломбард,услуги ломбарда,,нет,бытовые услуги,"город Москва, улица Толбухина, дом 7, корпус 1",Можайский район,Западный административный округ,37.4008517142855,55.72030208846279,1893272.2201932538,6404788.031878814
182,2840,2840,Армар,услуги ломбарда,,нет,бытовые услуги,"город Москва, улица Толбухина, дом 9, корпус 1",Можайский район,Западный административный округ,37.40071,55.721140999,1893232.768825473,6404875.583351643
183,2903,2903,Ломбард «Соц-Кредит-Альянс»,услуги ломбарда,,нет,бытовые услуги,"город Москва, улица 1905 Года, дом 9, строение 1",Пресненский район,Центральный административный округ,37.56020178442111,55.7643384190574,1901341.3728437189,6412852.407388624
184,2917,2917,СИТИ ЛОМБАРД,услуги ломбарда,,нет,бытовые услуги,"город Москва, улица Дмитрия Ульянова, дом 14, корпус 1",Академический район,Юго-Западный административный округ,37.568847044038925,55.688874585118015,1904661.3192554319,6404897.2874006415
185,2918,2918,Ломбард Благо,услуги ломбарда,,нет,бытовые услуги,"город Москва, улица Дмитрия Ульянова, дом 14, корпус 1",Академический район,Юго-Западный административный округ,37.568847044038925,55.688874585118015,1904661.3192554319,6404897.2874006415
186,2940,2940,Ломбард Восток,услуги ломбарда,,нет,бытовые услуги,"город Москва, Уральская улица, дом 1",район Гольяново,Восточный административный округ,37.79794288055989,55.811649837821655,1914013.9539812515,6422939.141776
187,2943,2943,Ломбард-Центр,услуги ломбарда,,нет,бытовые услуги,"город Москва, Уральская улица, дом 4",район Гольяново,Восточный административный округ,37.80116992891689,55.81179023319063,1914204.420452192,6423022.32691864
188,2944,2944,ГрандЪ ЛомбардЪ,услуги ломбарда,,нет,бытовые услуги,"город Москва, Уральская улица, дом 5",район Гольяново,Восточный административный округ,37.79758509346407,55.81439909973401,1913889.286618246,6423227.714400544
189,2974,2974,Мособлломбард,услуги ломбарда,,нет,бытовые услуги,"город Москва, Уссурийская улица, дом 1, корпус 1",район Гольяново,Восточный административный округ,37.8094765173028,55.8234702528795,1914270.5132197938,6424455.5447804015
190,2978,2978,«ЛОМБАРД ЗОЛОТОЙ ОРЁЛ»,услуги ломбарда,,нет,бытовые услуги,"город Москва, Уссурийская улица, дом 7",район Гольяново,Восточный административный округ,37.8178201355943,55.8237202098712,1914767.0038040755,6424658.524002822
191,2981,2981,Ломбард «911»,услуги ломбарда,,нет,бытовые услуги,"город Москва, Осенний бульвар, дом 5, корпус 1",район Крылатское,Западный административный округ,37.407092262248,55.7569716273232,1892304.223974177,6408872.646728699
192,3012,3012,ЛОМБАРД НА ФЕРГАНСКОМ,услуги ломбарда,,нет,бытовые услуги,"город Москва, Ферганский проезд, дом 3, корпус 1",район Выхино-Жулебино,Юго-Восточный административный округ,37.82526525648013,55.69758600721529,1919946.0555346012,6411229.474880379
193,3013,3013,Ломбард,услуги ломбарда,,нет,бытовые услуги,"город Москва, Фестивальная улица, дом 3",район Левобережный,Северный административный округ,37.47266383496804,55.85464337697657,1892688.3223323487,6420765.242694085
194,3018,3018,Ломбард,услуги ломбарда,,нет,бытовые услуги,"город Москва, Фестивальная улица, дом 13, корпус 2",район Левобережный,Северный административный округ,37.47616913185729,55.856257746346806,1892841.2863212156,6421012.068091309
195,3041,3041,ломбард,услуги ломбарда,,нет,бытовые услуги,"город Москва, Флотская улица, дом 6/21",Головинский район,Северный административный округ,37.4786288141151,55.85008069330623,1893218.5011671437,6420397.216030789
196,3089,3089,Ломбард Благо,услуги ломбарда,,нет,бытовые услуги,"город Москва, улица Хачатуряна, дом 20",район Отрадное,Северо-Восточный административный округ,37.604337114007414,55.86192232412019,1900401.1349727456,6424291.829895022
197,3116,3116,СТУДИЯ ТИКОР,услуги ломбарда,,нет,бытовые услуги,"город Москва, 1-й Хорошёвский проезд, дом 14, корпус 1",Хорошёвский район,Северный административный округ,37.5450332385448,55.774845393308404,1900030.612519149,6413668.552747252
198,3130,3130,ЛОМБАРД,услуги ломбарда,,нет,бытовые услуги,"город Москва, Новинский бульвар, дом 1/2",район Арбат,Центральный административный округ,37.58239083051728,55.75056801358749,1903200.344613189,6411831.494105431
199,3156,3156,Ломбард,услуги ломбарда,,нет,бытовые услуги,"город Москва, Большая Черкизовская улица, дом 3, корпус 1",район Преображенское,Восточный административный округ,37.71707956993239,55.79721940484185,1909647.2371158416,6419682.172705403
200,3160,3160,Ломбард,услуги ломбарда,,нет,бытовые услуги,"город Москва, Большая Черкизовская улица, дом 5, корпус 1",район Преображенское,Восточный административный округ,37.72043695383272,55.79742900296749,1909843.1818236918,6419775.322483034
201,3167,3167,Ломбард,услуги ломбарда,,нет,бытовые услуги,"город Москва, Большая Черкизовская улица, дом 5А",район Преображенское,Восточный административный округ,37.7186730133126,55.797332110668705,1909739.7411470455,6419727.806360316
202,3168,3168,Ломбард,услуги ломбарда,,нет,бытовые услуги,"город Москва, Большая Черкизовская улица, дом 6, корпус 1",район Преображенское,Восточный административный округ,37.7213069425647,55.79633398167871,1909936.8446663308,6419675.634090795
203,3181,3181,Ломбард для Вас,услуги ломбарда,,нет,бытовые услуги,"город Москва, Хабаровская улица, дом 7/50",район Гольяново,Восточный административный округ,37.826191,55.817192,1915519.3349888937,6424132.159485568
204,3188,3188,Мособлломбард,услуги ломбарда,,нет,бытовые услуги,"город Москва, Хабаровская улица, дом 12/23",район Гольяново,Восточный административный округ,37.82666411267049,55.82162733212769,1915381.6778563824,6424619.819695587
205,3189,3189,Ломбард-Центр,услуги ломбарда,,нет,бытовые услуги,"город Москва, Хабаровская улица, дом 14, корпус 1",район Гольяново,Восточный административный округ,37.825836345044,55.82318342793038,1915273.130766796,6424769.927809361
206,3232,3232,Ломбард Бегес,услуги ломбарда,,нет,бытовые услуги,"город Москва, улица Земляной Вал, дом 21/2, строение 1",Басманный район,Центральный административный округ,37.65815701351809,55.7607555483304,1907427.2974649202,6414515.940204687
207,3235,3235,ССУДЫ И ИНВЕСТИЦИИ,услуги ломбарда,,нет,бытовые услуги,"город Москва, улица Земляной Вал, дом 23, строение 1",Басманный район,Центральный административный округ,37.6585325227803,55.7602182322074,1907470.1017481869,6414465.909489533
208,3254,3254,ГРАФФИТИ,услуги ломбарда,,нет,бытовые услуги,"город Москва, Чонгарский бульвар, дом 22, корпус 1",район Зюзино,Юго-Западный административный округ,37.6031824575472,55.653813136195595,1908052.1651572331,6401835.838735531
209,3271,3271,Надежный ломбард,услуги ломбарда,,нет,бытовые услуги,"город Москва, Шарикоподшипниковская улица, дом 32",Южнопортовый район,Юго-Восточный административный округ,37.676168525234736,55.71635056683762,1910174.4445559697,6410108.365731423
210,3274,3274,Ломбард «Золотой орел»,услуги ломбарда,,нет,бытовые услуги,"город Москва, Шарикоподшипниковская улица, дом 32",Южнопортовый район,Юго-Восточный административный округ,37.6763745771474,55.71622548368249,1910191.6348797218,6410099.213136856
211,3291,3291,Ломбар Победа,услуги ломбарда,,нет,бытовые услуги,"город Москва, проспект 60-летия Октября, дом 25, корпус 1",Академический район,Юго-Западный административный округ,37.57613295567724,55.69074305954825,1905035.8774652847,6405251.119680221
212,3304,3304,ЛОМБАРД «СТОЛИЧНЫЙ»,услуги ломбарда,,нет,бытовые услуги,"город Москва, Шипиловская улица, дом 60, корпус 1",район Зябликово,Южный административный округ,37.74807671172487,55.621704576509444,1918080.6102404997,6401422.0326117175
213,3316,3316,Ломбард «Ювелирный салон Коалль»,услуги ломбарда,,нет,бытовые услуги,"город Москва, Шмитовский проезд, дом 13",Пресненский район,Центральный административный округ,37.550522961068324,55.757946619333566,1900989.6724773413,6411961.311070315
214,3329,3329,ООО «Ваш ламбард на Савеловской»,услуги ломбарда,,нет,бытовые услуги,"город Москва, Шоссейная улица, дом 4, корпус 1",район Печатники,Юго-Восточный административный округ,37.727177,55.691724,1914195.8752950132,6408527.297203364
215,3335,3335,ФАКТОРИЯ,услуги ломбарда,,нет,бытовые услуги,"город Москва, Шоссейная улица, дом 31, корпус 2",район Печатники,Юго-Восточный административный округ,37.724619,55.680303,1914465.9749260743,6407242.625725643
216,3353,3353,Ломбард,услуги ломбарда,,нет,бытовые услуги,"город Москва, Щёлковское шоссе, дом 54",район Северное Измайлово,Восточный административный округ,37.79760543421044,55.80973310939256,1914065.2721004616,6422725.576398537
217,3354,3354,Ломбард,услуги ломбарда,,нет,бытовые услуги,"город Москва, Щёлковское шоссе, дом 56/72",район Северное Измайлово,Восточный административный округ,37.79961535421123,55.80979109157447,1914185.0120744773,6422774.213438992
218,3356,3356,Ломбард Остлантик,услуги ломбарда,,нет,бытовые услуги,"город Москва, Щёлковское шоссе, дом 79, корпус 1",район Гольяново,Восточный административный округ,37.80624933951609,55.811128463376605,1914537.2835942674,6423058.20336247
219,3379,3379,АЛМАЗ-ГРУПП,услуги ломбарда,,нет,бытовые услуги,"город Москва, шоссе Энтузиастов, дом 24/43",район Лефортово,Юго-Восточный административный округ,37.717932723622496,55.7510082769168,1911422.8120693387,6414721.054510826
220,3419,3419,ЛОМБАРД,услуги ломбарда,,нет,бытовые услуги,"город Москва, Янтарный проезд, дом 11",Лосиноостровский район,Северо-Восточный административный округ,37.682664,55.86857,1904899.6245683085,6426646.934631762
221,3431,3431,Ломбард Бельтис,услуги ломбарда,,нет,бытовые услуги,"город Москва, Ярцевская улица, дом 29, корпус 3",район Кунцево,Западный административный округ,37.417912938503804,55.742854267550705,1893481.5879452936,6407574.433622349
222,3462,3462,Ломбард ООО «Камелия Люкс»,услуги ломбарда,,нет,бытовые услуги,"город Москва, город Зеленоград, корпус 834А",район Старое Крюково,Зеленоградский административный округ,37.176062,55.979965,1870128.6094487961,6428170.683521207
223,3476,3476,Ломбард,услуги ломбарда,,нет,бытовые услуги,"город Москва, город Зеленоград, корпус 1204",район Силино,Зеленоградский административный округ,37.190385,55.995009,1870446.1437273347,6430086.300169682
224,3525,3525,Ломбард,услуги ломбарда,,нет,бытовые услуги,"город Москва, улица Милашенкова, дом 8",Бутырский район,Северо-Восточный административный округ,37.584724488973215,55.82529682042357,1900571.29353584,6419935.117275294
225,3613,3613,Ломбард,услуги ломбарда,,нет,бытовые услуги,"город Москва, Ангарская улица, дом 6",район Западное Дегунино,Северный административный округ,37.512804031706736,55.87170174594948,1894491.432716456,6423438.1982203415
226,3617,3617,Ломбард,услуги ломбарда,,нет,бытовые услуги,"город Москва, город Зеленоград, корпус 1504",район Крюково,Зеленоградский административный округ,37.152503,55.983168,1868587.0123849062,6428035.0621739775
227,3625,3625,ГОРОДСКОЙ ЛОМБАРД,услуги ломбарда,,нет,бытовые услуги,"город Москва, Бескудниковский бульвар, дом 23, корпус 1",Бескудниковский район,Северный административный округ,37.5565495716162,55.8677215328338,1897289.9203226268,6423919.840076135
228,3630,3630,СИТИ ЛОМБАРД,услуги ломбарда,,нет,бытовые услуги,"город Москва, Енисейская улица, дом 22, корпус 2",Бабушкинский район,Северо-Восточный административный округ,37.66496613553975,55.868879356842974,1903815.991320084,6426309.477054749
229,3654,3654,Ломбард,услуги ломбарда,,нет,бытовые услуги,"город Москва, Митинская улица, дом 52",район Митино,Северо-Западный административный округ,37.35419020793172,55.85293447791257,1885565.3607533847,6418127.882678148
230,3680,3680,ЛОМБАРД,услуги ломбарда,,нет,бытовые услуги,"город Москва, Митинская улица, дом 44",район Митино,Северо-Западный административный округ,37.35682615862109,55.848904854454176,1885873.2124065675,6417747.725607238
231,3683,3683,ЛОМБАРД,услуги ломбарда,,нет,бытовые услуги,"город Москва, Митинская улица, дом 44",район Митино,Северо-Западный административный округ,37.3568269239496,55.8488502452434,1885875.2636568474,6417741.851839937
232,3694,3694,ЛОМБАРД,услуги ломбарда,,нет,бытовые услуги,"город Москва, Ангелов переулок, дом 6",район Митино,Северо-Западный административный округ,37.347600124938495,55.853204581578495,1885155.6475977718,6418020.954730093
233,3695,3695,ЛОМБАРД,услуги ломбарда,,нет,бытовые услуги,"город Москва, Митинская улица, дом 37",район Митино,Северо-Западный административный округ,37.3542949186395,55.8482961314938,1885741.979117771,6417629.799778103
234,3725,3725,ЛОМБАРД,услуги ломбарда,,нет,бытовые услуги,"город Москва, Дубравная улица, дом 40",район Митино,Северо-Западный административный округ,37.35433,55.84339910901729,1885923.861286091,6417102.375232377
235,3735,3735,Ломбард,услуги ломбарда,,нет,бытовые услуги,"город Москва, Привольная улица, дом 9, корпус 1",район Выхино-Жулебино,Юго-Восточный административный округ,37.8399296080432,55.701386797277,1920695.7658096119,6411949.244683775
236,3736,3736,ВАШ ЛРОМБАРД НА СЕВЕРО-ВОСТОКЕ,услуги ломбарда,,нет,бытовые услуги,"город Москва, Привольная улица, дом 9, корпус 1",район Выхино-Жулебино,Юго-Восточный административный округ,37.839944,55.701402,1920696.07142454,6411951.187016421
237,3752,3752,Ломбард,услуги ломбарда,,нет,бытовые услуги,"город Москва, Таллинская улица, дом 26",район Строгино,Северо-Западный административный округ,37.40747583310776,55.799888132875225,1890749.3494652968,6413509.1411313275
238,3774,3774,Ломбард ИП Каторгин,услуги ломбарда,,нет,бытовые услуги,"город Москва, Лермонтовский проспект, дом 6",район Выхино-Жулебино,Юго-Восточный административный округ,37.84844751668113,55.70233032048503,1921178.5401835837,6412231.226522017
239,3775,3775,ЛОМБАРД,услуги ломбарда,,нет,бытовые услуги,"город Москва, Свободный проспект, дом 20",район Новогиреево,Восточный административный округ,37.8159567342827,55.7511109242392,1917375.057161896,6416798.555912105
240,3776,3776,«Ломбард ЛЮМЭР»,услуги ломбарда,,нет,бытовые услуги,"город Москва, Веерная улица, дом 1, корпус 2",район Очаково-Матвеевское,Западный административный округ,37.4814530836175,55.7069113885627,1898672.7501426085,6405018.650604055
241,3813,3813,МЕЛИБОНЕ,услуги ломбарда,,нет,бытовые услуги,"город Москва, улица Амундсена, дом 17, корпус 2",район Свиблово,Северо-Восточный административный округ,37.65335471996664,55.854036857927845,1903665.044542912,6424467.159031322
242,3828,3828,Ломбард «Залог Успеха»,услуги ломбарда,,нет,бытовые услуги,"город Москва, проспект Мира, дом 146",Алексеевский район,Северо-Восточный административный округ,37.64198330309121,55.82056251170573,1904220.9215849896,6420622.099695472
243,3837,3837,Ломбард «Семерочка»,услуги ломбарда,,нет,бытовые услуги,"город Москва, Хабаровская улица, дом 8",район Гольяново,Восточный административный округ,37.82766137429312,55.81915933184873,1915534.70726763,6424375.082834754
244,3866,3866,Ломбард,услуги ломбарда,,нет,бытовые услуги,"город Москва, шоссе Энтузиастов, дом 55",район Ивановское,Восточный административный округ,37.827982957071356,55.774098885438924,1917243.9162425015,6419528.771401268
245,3871,3871,Городской ломбард,услуги ломбарда,,нет,бытовые услуги,"город Москва, улица Генерала Кузнецова, дом 13, корпус 1",район Выхино-Жулебино,Юго-Восточный административный округ,37.85927260764044,55.68759134933609,1922389.958014896,6410872.8714969875
246,3902,3902,ЛОМБАРД,услуги ломбарда,,нет,бытовые услуги,"город Москва, улица Генерала Кузнецова, дом 27, корпус 1",район Выхино-Жулебино,Юго-Восточный административный округ,37.85222857400791,55.6811828534801,1922201.6299220603,6410033.277982274
247,4041,4041,ЛОМБАРД 222,услуги ломбарда,,нет,бытовые услуги,"город Москва, улица Саморы Машела, дом 4, корпус 1",Обручевский район,Юго-Западный административный округ,37.496547298181156,55.6487733011115,1901736.577994766,6399063.11888485
248,4054,4054,ТИЛБРУК,услуги ломбарда,,нет,бытовые услуги,"город Москва, Ратная улица, дом 8, корпус 1",район Северное Бутово,Юго-Западный административный округ,37.58366256935561,55.57410512959815,1909812.7285767125,6392831.879321291
249,4062,4062,ЛОМБАРД,услуги ломбарда,,нет,бытовые услуги,"город Москва, Южнобутовская улица, дом 84, корпус 1",район Южное Бутово,Юго-Западный административный округ,37.5151416288441,55.5354413932849,1907051.5980777696,6387227.017370741
250,4092,4092,Ломбард МАГНИТ,услуги ломбарда,,нет,бытовые услуги,"город Москва, улица Адмирала Лазарева, дом 62",район Южное Бутово,Юго-Западный административный округ,37.5098093973227,55.540061464246094,1906555.069335334,6387613.9262099415
251,4111,4111,ЛОМБАРД И Я,услуги ломбарда,,нет,бытовые услуги,"город Москва, улица Адмирала Лазарева, дом 36",район Южное Бутово,Юго-Западный административный округ,37.527651451689906,55.5463198535524,1907415.5454783954,6388662.134339814
252,4132,4132,ЛОМБАРД,услуги ломбарда,,нет,бытовые услуги,"город Москва, Скобелевская улица, дом 19, корпус 1",район Южное Бутово,Юго-Западный административный округ,37.556941174132604,55.547934368461796,1909147.0802782536,6389449.402509995
253,4145,4145,ЛОМБАРД,услуги ломбарда,,нет,бытовые услуги,"город Москва, Венёвская улица, дом 7",район Южное Бутово,Юго-Западный административный округ,37.5460728632043,55.5470724928138,1908514.3154122669,6389128.838948711
254,4152,4152,ЛОМБАРД,услуги ломбарда,,нет,бытовые услуги,"город Москва, бульвар Адмирала Ушакова, дом 5",район Южное Бутово,Юго-Западный административный округ,37.5524350629876,55.5469146825498,1908909.2029079718,6389245.040481008
255,4153,4153,Ломбард,услуги ломбарда,,нет,бытовые услуги,"город Москва, бульвар Адмирала Ушакова, дом 5",район Южное Бутово,Юго-Западный административный округ,37.552585266692304,55.5469760826078,1908916.1199366169,6389254.808772916
256,4275,4275,Ломбард Можайский,услуги ломбарда,,нет,бытовые услуги,"город Москва, Можайское шоссе, дом 28",Можайский район,Западный административный округ,37.421202,55.72015,1894516.7807421281,6405193.86362633
257,4287,4287,Ломбард,услуги ломбарда,,нет,бытовые услуги,"город Москва, улица Барклая, дом 7, корпус 1",район Филёвский Парк,Западный административный округ,37.500697971189965,55.74073105176641,1898596.1563117641,6409066.3721569525
258,4316,4316,Ломбард,услуги ломбарда,,нет,бытовые услуги,"город Москва, Строгинский бульвар, дом 7, корпус 1",район Строгино,Северо-Западный административный округ,37.399733,55.80566,1890066.76418142,6413971.227384643
259,4322,4322,ЛОМБАРД,услуги ломбарда,,нет,бытовые услуги,"город Москва, Пятницкое шоссе, дом 16",район Митино,Северо-Западный административный округ,37.384811377558954,55.8428671903031,1887793.0172854518,6417674.976356878
260,4329,4329,Ломбард,услуги ломбарда,,нет,бытовые услуги,"город Москва, улица Героев Панфиловцев, дом 1",район Северное Тушино,Северо-Западный административный округ,37.43795494915299,55.85314871903468,1890638.5079318369,6419884.025982427
261,4333,4333,Ломбард,услуги ломбарда,,нет,бытовые услуги,"город Москва, проспект Маршала Жукова, дом 51",район Хорошёво-Мнёвники,Северо-Западный административный округ,37.465054,55.775362,1895151.1387347847,6412059.045200046
262,4350,4350,ЛОМБАРД,услуги ломбарда,,нет,бытовые услуги,"город Москва, Пятницкое шоссе, дом 12, корпус 2",район Митино,Северо-Западный административный округ,37.38688629951009,55.84070720202407,1887998.321674171,6417484.956470353
263,4364,4364,ЛОМБАРД 911,услуги ломбарда,,нет,бытовые услуги,"город Москва, улица Героев Панфиловцев, дом 1/2",район Северное Тушино,Северо-Западный административный округ,37.438300189103614,55.85205932835471,1890699.5935031169,6419773.723504093
264,4365,4365,Ломбард,услуги ломбарда,,нет,бытовые услуги,"город Москва, улица Героев Панфиловцев, дом 1/2",район Северное Тушино,Северо-Западный административный округ,37.438300189103614,55.85205932835471,1890699.5935031169,6419773.723504093
265,4370,4370,Ломбард,услуги ломбарда,,нет,бытовые услуги,"город Москва, Сходненская улица, дом 35, корпус 1",район Южное Тушино,Северо-Западный административный округ,37.438837173753065,55.84825345310641,1890872.4187287255,6419374.500502248
266,4428,4428,Ломбард Даниловский,услуги ломбарда,,нет,бытовые услуги,"город Москва, Ангарская улица, дом 22, корпус 1",район Западное Дегунино,Северный административный округ,37.517462891732215,55.87585960454803,1894619.956570102,6423983.261171588
267,4441,4441,Ломбард,услуги ломбарда,,нет,бытовые услуги,"город Москва, Бескудниковский бульвар, дом 8, корпус 4",район Восточное Дегунино,Северный административный округ,37.564415801387256,55.8612110612824,1898007.984952263,6423382.123560802
268,4450,4450,Залог Успеха,услуги ломбарда,,нет,бытовые услуги,"город Москва, Коровинское шоссе, дом 19",район Западное Дегунино,Северный административный округ,37.52524300612404,55.87555526718521,1895102.6592241013,6424112.299676472
269,4452,4452,Ваш Ломбард,услуги ломбарда,,нет,бытовые услуги,"город Москва, Коровинское шоссе, дом 19",район Западное Дегунино,Северный административный округ,37.5254252182076,55.875480547891,1895116.4657107848,6424108.037092855
270,4492,4492,ТК СТАН,услуги ломбарда,,нет,бытовые услуги,"город Москва, город Зеленоград, корпус 362",район Савёлки,Зеленоградский административный округ,37.2117730604232,55.999969035570494,1871557.991581184,6431058.782101334
271,4495,4495,ОКТИОН (ломбард),услуги ломбарда,,нет,бытовые услуги,"город Москва, город Зеленоград, корпус 1805",район Крюково,Зеленоградский административный округ,37.162623,55.9793,1869339.981246302,6427824.392642093
272,4597,4597,Ломбард,услуги ломбарда,,нет,бытовые услуги,"город Москва, Новокосинская улица, дом 19",район Новокосино,Восточный административный округ,37.8585663066927,55.7401638774716,1920374.3679719209,6416520.647644993
273,4632,4632,Ломбард,услуги ломбарда,,нет,бытовые услуги,"город Москва, Марксистская улица, дом 7",Таганский район,Центральный административный округ,37.66616927963284,55.736291573323406,1908824.347820856,6412047.530455245
274,4666,4666,ЛОМБАРД 24,услуги ломбарда,,нет,бытовые услуги,"город Москва, Северный бульвар, дом 3, корпус 2",район Отрадное,Северо-Восточный административный округ,37.6059699642216,55.8656020119428,1900363.4168013327,6424722.463012101
275,4744,4744,Ломбард,услуги ломбарда,,нет,бытовые услуги,"город Москва, Святоозерская улица, дом 21",район Косино-Ухтомский,Восточный административный округ,37.89727741292656,55.71286196301369,1923752.7435676141,6414400.68805299
276,4752,4752,Ломбард,услуги ломбарда,,нет,бытовые услуги,"город Москва, Святоозерская улица, дом 2",район Косино-Ухтомский,Восточный административный округ,37.88079604681063,55.713329744906446,1922733.0557468985,6414101.469408851
277,4753,4753,Ломбард,услуги ломбарда,,нет,бытовые услуги,"город Москва, Святоозерская улица, дом 4",район Косино-Ухтомский,Восточный административный округ,37.88276003431078,55.71358267766568,1922842.9725895463,6414170.357327711
278,4764,4764,Ломбард,услуги ломбарда,,нет,бытовые услуги,"город Москва, Святоозерская улица, дом 16",район Косино-Ухтомский,Восточный административный округ,37.889640236497,55.71277031910749,1923291.8295814146,6414228.786020491
279,4789,4789,ЛОМБАРД,услуги ломбарда,,нет,бытовые услуги,"город Москва, Зелёный проспект, дом 22",район Новогиреево,Восточный административный округ,37.78856612812545,55.75080060560033,1915722.56414845,6416186.772849
280,4800,4800,Ломбард,услуги ломбарда,,нет,бытовые услуги,"город Москва, Сокольническая площадь, дом 9",район Сокольники,Восточный административный округ,37.679826,55.790337,1907642.433693626,6418158.274306143
281,4850,4850,Ломбард,услуги ломбарда,,нет,бытовые услуги,"город Москва, 2-я Вольская улица, дом 1, корпус 1",район Некрасовка,Юго-Восточный административный округ,37.91900238025239,55.68730812655238,1926034.947288276,6412109.876919002
282,4861,4861,Ломбард,услуги ломбарда,,нет,бытовые услуги,"город Москва, Рождественская улица, дом 14",район Некрасовка,Юго-Восточный административный округ,37.918213291950224,55.702980505809926,1925397.3898538284,6413780.98279637
283,4936,4936,ВАШ ЛОМБАРД,услуги ломбарда,,нет,бытовые услуги,"город Москва, улица Адмирала Лазарева, дом 11",район Южное Бутово,Юго-Западный административный округ,37.5394209848472,55.545379034210896,1908170.0523044309,6388806.928707782
284,5016,5016,Золотой ломбард,услуги ломбарда,,нет,бытовые услуги,"город Москва, Ярцевская улица, дом 27, корпус 1",район Кунцево,Западный административный округ,37.416041610845106,55.7419317534357,1893401.6579652715,6407436.111260865
285,5150,5150,МГКЛ «МОСГОРЛОМБАРД»,услуги ломбарда,,нет,бытовые услуги,"город Москва, Бескудниковский бульвар, дом 32, корпус 6",Бескудниковский район,Северный административный округ,37.5546452032161,55.872401806964895,1897001.071808792,6424384.583841434
286,5241,5241,Ломбард Мастер,услуги ломбарда,,нет,бытовые услуги,"город Москва, микрорайон Северное Чертаново, дом 1А",район Чертаново Северное,Южный административный округ,37.599718327463236,55.63706161892448,1908461.723005241,6399957.123001022
287,5294,5294,Республиканский ломбард,услуги ломбарда,,нет,бытовые услуги,"город Москва, улица Богданова, дом 2, корпус 1",район Солнцево,Западный административный округ,37.401172048030595,55.655846932115296,1895659.2437641819,6397841.601974073
288,5359,5359,Ломбард,услуги ломбарда,,нет,бытовые услуги,"город Москва, Печатников переулок, дом 12",Мещанский район,Центральный административный округ,37.62744696557324,55.76727450975769,1905318.941410873,6414574.926583215
289,5422,5422,Ломбард,услуги ломбарда,,нет,бытовые услуги,"город Москва, город Троицк, Академическая площадь, дом 3",поселение Троицк,Троицкий административный округ,37.29590455319873,55.4720898331513,1895946.1377390956,6375826.737719035
290,5423,5423,Ломбард,услуги ломбарда,,нет,бытовые услуги,"город Москва, город Троицк, Академическая площадь, дом 3",поселение Троицк,Троицкий административный округ,37.29590455319873,55.4720898331513,1895946.1377390956,6375826.737719035
291,5500,5500,Ломбард «Благо»,услуги ломбарда,,нет,бытовые услуги,"город Москва, улица Шолохова, дом 15А",район Ново-Переделкино,Западный административный округ,37.3454091961614,55.641937704855486,1892767.1468150096,6395184.5936892275
292,5526,5526,Ломбард 911,услуги ломбарда,,нет,бытовые услуги,"город Москва, Смоленский бульвар, дом 3-5, строение 1",район Хамовники,Центральный административный округ,37.58473635596951,55.741994661201474,1903660.7196185372,6410956.334295589
293,5553,5553,ЛОМБАРД,услуги ломбарда,,нет,бытовые услуги,"город Москва, улица Обручева, дом 11",Обручевский район,Юго-Западный административный округ,37.51574769145874,55.65984723457125,1902498.7424006043,6400657.982573203
294,5567,5567,Ломбард 161 отделение,услуги ломбарда,,нет,бытовые услуги,"город Москва, Тушинская улица, дом 16",район Покровское-Стрешнево,Северо-Западный административный округ,37.4449026406091,55.827384013151054,1892009.5537326268,6417250.073181476
295,5612,5612,Ломбард,услуги ломбарда,,нет,бытовые услуги,"город Москва, улица Маршала Катукова, дом 10",район Строгино,Северо-Западный административный округ,37.4034329877922,55.809323137469505,1890156.7750150368,6414442.904100543
296,5636,5636,МОСГОРЛОМБАРД,услуги ломбарда,,нет,бытовые услуги,"город Москва, Старая Басманная улица, дом 36",Басманный район,Центральный административный округ,37.66992566876,55.768501825285504,1907854.1219486631,6415597.60251373
297,5644,5644,Ломбарт на Никольской 8,услуги ломбарда,,нет,бытовые услуги,"город Москва, Никольская улица, дом 8/1, строение 1",Тверской район,Центральный административный округ,37.622667166544886,55.75702918534372,1905408.9816006203,6413370.58992479
298,5664,5664,Ломбард «Оптиум»,услуги ломбарда,,нет,бытовые услуги,"город Москва, город Зеленоград, корпус 317А, строение 1",район Савёлки,Зеленоградский административный округ,37.216067,55.996731,1871935.79118007,6430797.403369622
299,5707,5707,Ломбард Залог успеха,услуги ломбарда,,нет,бытовые услуги,"город Москва, Профсоюзная улица, дом 104/47",район Коньково,Юго-Западный административный округ,37.52353803149753,55.641761436811535,1903641.53113335,6398870.1671844665
300,5785,5785,ЛОМБАРД,услуги ломбарда,,нет,бытовые услуги,"город Москва, улица Маршала Федоренко, дом 12",район Западное Дегунино,Северный административный округ,37.48884716493063,55.881725312008996,1892669.1484606129,6424020.805313689
301,5794,5794,Ломбард,услуги ломбарда,,нет,бытовые услуги,"город Москва, Алтуфьевское шоссе, дом 9",район Отрадное,Северо-Восточный административный округ,37.58348265324301,55.85259277548304,1899483.3896265037,6422851.012956551
302,5796,5796,Мосгорломбард,услуги ломбарда,,нет,бытовые услуги,"город Москва, Алтуфьевское шоссе, дом 2",район Отрадное,Северо-Восточный административный округ,37.58661280668591,55.84928989151729,1899795.7031656047,6422560.387619844
303,5799,5799,Ломбард-Центр,услуги ломбарда,,нет,бытовые услуги,"город Москва, улица Декабристов, дом 17",район Отрадное,Северо-Восточный административный округ,37.60509513845234,55.864948286511705,1900334.6857485662,6424633.744943623
304,5803,5803,ЛОМБАРД ВЕКТОР,услуги ломбарда,,нет,бытовые услуги,"город Москва, Бойцовая улица, дом 16",район Богородское,Восточный административный округ,37.720448635679,55.812876702409405,1909267.4154981126,6421439.854595953
305,5808,5808,Ломбард Барс,услуги ломбарда,,нет,бытовые услуги,"город Москва, Открытое шоссе, дом 5А",район Богородское,Восточный административный округ,37.7335193701753,55.81408674767493,1910015.1451159755,6421844.976448733
306,5829,5829,МОСГОРЛОМБАРД,услуги ломбарда,,нет,бытовые услуги,"город Москва, Краснопрудная улица, дом 22-24, строение 1",Красносельский район,Центральный административный округ,37.6663323865957,55.7790632052562,1907242.7932549648,6416660.346518252
307,5830,5830,Ломбард анна и КО,услуги ломбарда,,нет,бытовые услуги,"город Москва, Дмитровское шоссе, дом 98, строение 1",район Восточное Дегунино,Северный административный округ,37.547374567282205,55.88032362454372,1896267.0222651546,6425086.922067573
308,5844,5844,Ломбард Ковчег,услуги ломбарда,,нет,бытовые услуги,"город Москва, Никольская улица, дом 11-13, строение 3",Тверской район,Центральный административный округ,37.621114,55.756804,1905322.9427619716,6413313.796778117
309,5847,5847,ВАШ ЛОМБАРД НА САВЕЛОВСКОЙ,услуги ломбарда,,нет,бытовые услуги,"город Москва, Новодмитровская улица, дом 5А, строение 1",Бутырский район,Северо-Восточный административный округ,37.58782916120939,55.80652314062964,1901456.0617051139,6417976.5307058375
310,5864,5864,Ломбард,услуги ломбарда,,нет,бытовые услуги,"город Москва, Широкая улица, дом 6",район Северное Медведково,Северо-Восточный административный округ,37.65773438498,55.8848627314854,1902782.7326806125,6427880.102011148
311,5884,5884,Ломбард Меридиан,услуги ломбарда,,нет,бытовые услуги,"город Москва, проспект Вернадского, дом 41, строение 3",район Проспект Вернадского,Западный административный округ,37.50458869167109,55.67451733460613,1901277.0852859272,6402007.258281828
312,5898,5898,Трейд Информ,услуги ломбарда,,нет,бытовые услуги,"город Москва, Ленинградский проспект, дом 71А",район Сокол,Северный административный округ,37.515186459507596,55.804062925675396,1897137.007160171,6416196.371571046
313,5915,5915,Ломбард,услуги ломбарда,,нет,бытовые услуги,"город Москва, Кронштадтский бульвар, дом 3, строение 3",Головинский район,Северный административный округ,37.48609906376737,55.84019453783225,1894036.6592118482,6419486.603956734
314,5924,5924,Ломбард,услуги ломбарда,,нет,бытовые услуги,"город Москва, Боровское шоссе, дом 27",район Ново-Переделкино,Западный административный округ,37.36568958357849,55.64478977597505,1893900.2389896438,6395912.55645368
315,6004,6004,Ломбард «Три вокзала»,услуги ломбарда,,нет,бытовые услуги,"город Москва, Комсомольская площадь, дом 6",Красносельский район,Центральный административный округ,37.66039123636682,55.775879529852894,1907000.415991179,6416192.6640494475
316,6058,6058,Ломбард,услуги ломбарда,,нет,бытовые услуги,"город Москва, 9-я Парковая улица, дом 59, корпус 2",район Северное Измайлово,Восточный административный округ,37.79791181670266,55.808093247263926,1914145.2713488068,6422555.409857367
317,6067,6067,Ломбард «Палада»,услуги ломбарда,,нет,бытовые услуги,"город Москва, Большая Грузинская улица, дом 60, строение 1",Пресненский район,Центральный административный округ,37.585148992207905,55.7721501816384,1902567.957312473,6414215.5849184925
318,6092,6092,Ломбард,услуги ломбарда,,нет,бытовые услуги,"город Москва, город Зеленоград, корпус 234А",район Матушкино,Зеленоградский административный округ,37.74423497388961,55.91756873136188,1906796.9913947969,6433216.7159730615
319,6106,6106,Ломбард «Гарантия+»,услуги ломбарда,,нет,бытовые услуги,"город Москва, Озёрная улица, дом 29",район Очаково-Матвеевское,Западный административный округ,37.45124480794431,55.672993215746246,1898082.012684776,6400731.806571132
320,6112,6112,Ломбард,услуги ломбарда,,нет,бытовые услуги,"город Москва, улица 26-ти Бакинских Комиссаров, дом 8, корпус 2",район Тропарёво-Никулино,Западный административный округ,37.49201899999991,55.65915,1901077.7712893381,6400087.847415162
321,6126,6126,Ломбард на Тверской,услуги ломбарда,,нет,бытовые услуги,"город Москва, Глинищевский переулок, дом 3",Тверской район,Центральный административный округ,37.60978843403484,55.76326478485554,1904394.7877175647,6413773.101805214
322,6129,6129,Ломбард Золотой,услуги ломбарда,,нет,бытовые услуги,"город Москва, 1-я Брестская улица, дом 66",Тверской район,Центральный административный округ,37.58470038961066,55.775640747178116,1902411.2878306431,6414582.462000627
323,6135,6135,Ломбард «Золотой Кремль»,услуги ломбарда,,нет,бытовые услуги,"город Москва, Часовая улица, дом 11",район Аэропорт,Северный административный округ,37.529546,55.808488,1897845.1957142141,6416972.473381078
324,6142,6142,ЛОМБАРД,услуги ломбарда,,нет,бытовые услуги,"город Москва, 3-я Тверская-Ямская улица, дом 39, строение 1",Тверской район,Центральный административный округ,37.59166068348573,55.77424679804026,1902885.8500778803,6414577.68279125
325,6147,6147,МОСГОРЛОМБАРД,услуги ломбарда,,нет,бытовые услуги,"город Москва, Хавская улица, дом 24",Даниловский район,Южный административный округ,37.6128608263909,55.71363983074108,1906423.1028825184,6408488.293214307
326,6153,6153,Ваш ломбард на Савеловской,услуги ломбарда,,нет,бытовые услуги,"город Москва, улица Щорса, дом 5",район Солнцево,Западный административный округ,37.4077030645438,55.6464772693371,1896401.7340959047,6396966.39488342
327,6177,6177,ЛОМБАРД,услуги ломбарда,,нет,бытовые услуги,"город Москва, улица Раменки, дом 3",район Раменки,Западный административный округ,37.495986711633,55.693502215464896,1900052.468709219,6403875.311363776
328,6198,6198,ЛОМБАРД,услуги ломбарда,,нет,бытовые услуги,"город Москва, Зубовский бульвар, дом 25, корпус 1",район Хамовники,Центральный административный округ,37.58965993893032,55.736609673854296,1904159.7576737169,6410478.798155773
329,6211,6211,ЛОМБАРД-СТАНДАРТ,услуги ломбарда,,нет,бытовые услуги,"город Москва, улица Сергия Радонежского, дом 27, строение 1",Таганский район,Центральный административный округ,37.6788958536208,55.7469746271184,1909200.515726648,6413466.009160708
330,6221,6221,Ломбард,услуги ломбарда,,нет,бытовые услуги,"город Москва, Саянская улица, дом 9Б",район Ивановское,Восточный административный округ,37.832639716693656,55.769724132577444,1917690.6713989102,6419155.9972848585
331,6228,6228,Ломбард,услуги ломбарда,,нет,бытовые услуги,"город Москва, Вешняковская улица, дом 18",район Вешняки,Восточный административный округ,37.8251433778232,55.724045006890115,1918947.394776387,6414077.199015413
332,6234,6234,ЛомбардЪ и Ко,услуги ломбарда,,нет,бытовые услуги,"город Москва, Вешняковская улица, дом 12Б, строение 1",район Вешняки,Восточный административный округ,37.82896959381787,55.73407183410191,1918804.24332932,6415238.198674174
333,6242,6242,Ломбард,услуги ломбарда,,нет,бытовые услуги,"город Москва, Вешняковская улица, дом 17А",район Вешняки,Восточный административный округ,37.83100212078949,55.73468039828001,1918904.966759365,6415346.734572727
334,6249,6249,Ломбард Марианна,услуги ломбарда,,нет,бытовые услуги,"город Москва, Вешняковская улица, дом 29А",район Вешняки,Восточный административный округ,37.8288033303258,55.72376565327013,1919180.3739537047,6414124.508132218
335,6275,6275,Ломбард ОСТЛАНТИК,услуги ломбарда,,нет,бытовые услуги,"город Москва, Снайперская улица, дом 9",район Вешняки,Восточный административный округ,37.81346961344057,55.72171295137344,1918324.989205017,6413579.183428182
336,6278,6278,Ломбард Центр,услуги ломбарда,,нет,бытовые услуги,"город Москва, Вешняковская улица, дом 39А",район Вешняки,Восточный административный округ,37.82391817949696,55.719009290319114,1919061.5709399425,6413508.829221508
337,6285,6285,ЛОМБАРД,услуги ломбарда,,нет,бытовые услуги,"город Москва, улица Измайловский Вал, дом 2",район Соколиная Гора,Восточный административный округ,37.71923193043154,55.7836275854597,1910284.9869237102,6418263.014427463
338,6303,6303,Ломбард,услуги ломбарда,,нет,бытовые услуги,"город Москва, Луганская улица, дом 5",район Царицыно,Южный административный округ,37.66600202121296,55.62627240064016,1912904.79960534,6400185.365793547
339,6344,6344,МОСГОРЛОМБАРД,услуги ломбарда,,нет,бытовые услуги,"город Москва, Бирюлёвская улица, дом 56, строение 2",район Бирюлёво Восточное,Южный административный округ,37.661847733123004,55.5846011914442,1914199.371136837,6395605.53736928
340,6347,6347,Ломбад,услуги ломбарда,,нет,бытовые услуги,"город Москва, Луганская улица, дом 10",район Царицыно,Южный административный округ,37.667667530369606,55.62239096615193,1913150.6338252872,6399801.962997718
341,6349,6349,Ломбард,услуги ломбарда,,нет,бытовые услуги,"город Москва, Бирюлёвская улица, дом 34",район Бирюлёво Восточное,Южный административный округ,37.663563010956516,55.59113541949727,1914061.4108016803,6396346.088997991
342,6370,6370,Ломбард,услуги ломбарда,,нет,бытовые услуги,"город Москва, Михневская улица, дом 7, корпус 2, строение 1",район Бирюлёво Восточное,Южный административный округ,37.661971,55.58355,1914245.939404889,6395494.797901887
343,6372,6372,Ломбард,услуги ломбарда,,нет,бытовые услуги,"город Москва, Михневская улица, дом 7, корпус 2",район Бирюлёво Восточное,Южный административный округ,37.66268045471384,55.583513166984886,1914290.6322135276,6395505.751531451
344,6403,6403,ЛОМБАРД,услуги ломбарда,,нет,бытовые услуги,"город Москва, Таганская площадь, дом 86/1, строение 1",Таганский район,Центральный административный округ,37.652575746880395,55.741103536263694,1907818.8589873826,6412280.925819022
345,6411,6411,Ломбард,услуги ломбарда,,нет,бытовые услуги,"город Москва, улица Мастеркова, дом 4",Даниловский район,Южный административный округ,37.656555126367806,55.70853784092306,1909271.607280089,6408854.49161997
346,6416,6416,МОСГОРЛОМБАРД,услуги ломбарда,,нет,бытовые услуги,"город Москва, Воронцовская улица, дом 4, строение 4",Таганский район,Центральный административный округ,37.65458478238442,55.73970572338277,1907992.9830605825,6412172.4149465235
347,6501,6501,Ломбард Лазурит-Ю,услуги ломбарда,,нет,бытовые услуги,"город Москва, Ярцевская улица, дом 34, корпус 1",район Кунцево,Западный административный округ,37.4190434157704,55.7423295000689,1893569.670074268,6407541.28999774
348,6538,6538,Ломбард «ТАНДЕМ»,услуги ломбарда,,нет,бытовые услуги,"город Москва, Филёвский бульвар, дом 10",район Филёвский Парк,Западный административный округ,37.48733017638674,55.764096931422436,1896920.7499777009,6411307.567294861
349,6555,6555,Ломбард ЭСТАЙЛ-КРЕДИТ,услуги ломбарда,,нет,бытовые услуги,"город Москва, Рязанский проспект, дом 75, строение 1",Рязанский район,Юго-Восточный административный округ,37.79241274014028,55.71778094138813,1917191.7320487048,6412710.728977269
350,6577,6577,Ломбард,услуги ломбарда,,нет,бытовые услуги,"город Москва, Зеленодольская улица, дом 41, корпус 1",район Кузьминки,Юго-Восточный административный округ,37.766535,55.702973,1916171.2238045319,6410569.1047302615
351,6579,6579,Вива ломбард,услуги ломбарда,,нет,бытовые услуги,"город Москва, Шоссейная улица, дом 1/2, строение 2",район Печатники,Юго-Восточный административный округ,37.72794069938799,55.69109222393636,1914265.9212337248,6408475.300805169
352,6582,6582,ВАШ ЛОМБАРД,услуги ломбарда,,нет,бытовые услуги,"город Москва, Люблинская улица, дом 10, строение 3",район Текстильщики,Юго-Восточный административный округ,37.731854,55.70166,1914109.9621461104,6409696.530355175
353,6615,6615,Ломбард «Антиквариат»,услуги ломбарда,,нет,бытовые услуги,"город Москва, улица Александра Солженицына, дом 1/5",Таганский район,Центральный административный округ,37.65532147115516,55.7422959073928,1907941.4624262503,6412467.026835611
354,6632,6632,Ломбард,услуги ломбарда,,нет,бытовые услуги,"город Москва, Таганская улица, дом 40, строение 2",Таганский район,Центральный административный округ,37.666674,55.738536,1908771.5406848958,6412300.011737004
355,6641,6641,Ломбард «Касса взаимопомощи»,услуги ломбарда,,нет,бытовые услуги,"город Москва, Липецкая улица, дом 7А",район Бирюлёво Восточное,Южный административный округ,37.682851013155286,55.583602821035456,1915519.0311209832,6395939.946491852
356,6649,6649,Ломбард,услуги ломбарда,,нет,бытовые услуги,"город Москва, Новокосинская улица, дом 35",район Новокосино,Восточный административный округ,37.86631570161894,55.743558636607055,1920717.7775946208,6417050.3811870925
357,6658,6658,ЛОМБАРД,услуги ломбарда,,нет,бытовые услуги,"город Москва, Литовский бульвар, дом 22",район Ясенево,Юго-Западный административный округ,37.53760122556732,55.611935988338544,1905601.1198513904,6395947.442425575
358,6669,6669,Ломбард,услуги ломбарда,,нет,бытовые услуги,"город Москва, Новокосинская улица, дом 31",район Новокосино,Восточный административный округ,37.86392295550576,55.74309428168787,1920589.8381953954,6416949.694365815
359,6670,6670,Ломбард,услуги ломбарда,,нет,бытовые услуги,"город Москва, Кронштадтский бульвар, дом 7",Головинский район,Северный административный округ,37.48747433037189,55.84094565305625,1894092.3466166004,6419596.1589670535
360,6671,6671,Ломбард,услуги ломбарда,,нет,бытовые услуги,"город Москва, Кронштадтский бульвар, дом 7",Головинский район,Северный административный округ,37.48747433037189,55.84094565305625,1894092.3466166004,6419596.1589670535
361,6673,6673,Ломбард,услуги ломбарда,,нет,бытовые услуги,"город Москва, Кронштадтский бульвар, дом 7",Головинский район,Северный административный округ,37.48747433037189,55.84094565305625,1894092.3466166004,6419596.1589670535
362,6701,6701,ЛОМБАРД,услуги ломбарда,,нет,бытовые услуги,"город Москва, Старый Петровско-Разумовский проезд, дом 1/23, строение 1",Савёловский район,Северный административный округ,37.5653649195374,55.8003165741015,1900322.3748134056,6416838.499217405
363,6705,6705,Ломбард,услуги ломбарда,,нет,бытовые услуги,"город Москва, улица Золоторожский Вал, дом 38, строение 1",Таганский район,Центральный административный округ,37.68129571989065,55.748089206218594,1909304.895637769,6413636.515746122
364,6714,6714,Услуги ломбарда «Ломбард ИКо»,услуги ломбарда,,нет,бытовые услуги,"город Москва, проспект Мира, дом 61",Мещанский район,Центральный административный округ,37.634617947203004,55.785880737912706,1905063.2222428368,6416730.377411334
365,6793,6793,Класс-Ломбард,услуги ломбарда,,нет,бытовые услуги,"город Москва, проспект Мира, дом 114Б, строение 2",Алексеевский район,Северо-Восточный административный округ,37.63798783882103,55.80824641087315,1904436.443041001,6419211.238409437
366,6797,6797,ЛОМБАРД,услуги ломбарда,,нет,бытовые услуги,"город Москва, улица Менжинского, дом 38, корпус 1, строение 2",Бабушкинский район,Северо-Восточный административный округ,37.66172327888528,55.870492300646916,1903559.4724898785,6426415.348429358
367,6811,6811,ЛОМБАРД АЛМАЗ,услуги ломбарда,,нет,бытовые услуги,"город Москва, Ясный проезд, дом 6",район Южное Медведково,Северо-Восточный административный округ,37.6299294458464,55.87322643990569,1901531.7071214882,6426044.718852926
368,6816,6816,Ваш ломбард на Савеловской,услуги ломбарда,,нет,бытовые услуги,"город Москва, улица Яблочкова, дом 21, строение 3",Бутырский район,Северо-Восточный административный округ,37.577519498130265,55.819310947792474,1900356.1180307681,6419139.53571057
369,6841,6841,Ломбард,услуги ломбарда,,нет,бытовые услуги,"город Москва, Алтуфьевское шоссе, дом 72",район Бибирево,Северо-Восточный административный округ,37.588036,55.890201,1898363.6019748,6426998.912728939
370,6847,6847,Городской ломбардъ,услуги ломбарда,,нет,бытовые услуги,"город Москва, Лианозовский проезд, владение 1",район Лианозово,Северо-Восточный административный округ,37.554988,55.897189,1896103.153380384,6427063.122584377
371,6848,6848,Ломбард,услуги ломбарда,,нет,бытовые услуги,"город Москва, Лианозовский проезд, владение 1",район Лианозово,Северо-Восточный административный округ,37.554988,55.897189,1896103.153380384,6427063.122584377
372,6849,6849,Ломбард,услуги ломбарда,,нет,бытовые услуги,"город Москва, Лианозовский проезд, владение 1Г",район Лианозово,Северо-Восточный административный округ,37.55353189913952,55.89740189207287,1896007.0917377968,6427055.740903896
373,6853,6853,Ломбард №1,услуги ломбарда,,нет,бытовые услуги,"город Москва, Широкая улица, дом 13А",район Северное Медведково,Северо-Восточный административный округ,37.66040859999999,55.8881469,1902822.350631611,6428289.902002728
374,6855,6855,Ломбард,услуги ломбарда,,нет,бытовые услуги,"город Москва, улица Плещеева, дом 4, корпус 1, строение 1",район Бибирево,Северо-Восточный административный округ,37.60507689810912,55.88328806723223,1899652.3500737718,6426609.637147033
375,6860,6860,Ломбард Северное сияние,услуги ломбарда,,нет,бытовые услуги,"город Москва, Сигнальный проезд, дом 17",район Отрадное,Северо-Восточный административный округ,37.585559677372196,55.8590878820616,1899368.303171376,6423594.3401737185
376,6861,6861,Гейдаров Акиф,услуги ломбарда,,нет,бытовые услуги,"город Москва, Широкая улица, дом 12Б",район Северное Медведково,Северо-Восточный административный округ,37.66040859999999,55.8881469,1902822.350631611,6428289.902002728
377,6862,6862,Ломбард Меридиан,услуги ломбарда,,нет,бытовые услуги,"город Москва, Широкая улица, дом 12Б",район Северное Медведково,Северо-Восточный административный округ,37.66051300000004,55.886523999999994,1902889.115706671,6428117.24176993
378,6863,6863,Ломбард,услуги ломбарда,,нет,бытовые услуги,"город Москва, Широкая улица, дом 12Б",район Северное Медведково,Северо-Восточный административный округ,37.660640739066494,55.8866979800882,1902890.3705870928,6428138.659634758
379,6866,6866,Ломбард Корона,услуги ломбарда,,нет,бытовые услуги,"город Москва, улица Плещеева, дом 12А",район Бибирево,Северо-Восточный административный округ,37.61088805036175,55.885869020523124,1899908.4043659146,6427009.0979461875
380,6868,6868,Ломбард,услуги ломбарда,,нет,бытовые услуги,"город Москва, Алтуфьевское шоссе, дом 70, корпус 1",район Бибирево,Северо-Восточный административный округ,37.588269375425405,55.8881871754178,1898452.4909875384,6426786.769961437
381,6873,6873,Ломбард Меридиан,услуги ломбарда,,нет,бытовые услуги,"город Москва, Снежная улица, дом 27, корпус 1, строение 1",район Свиблово,Северо-Восточный административный округ,37.6516793720794,55.85621276505187,1903482.5230972287,6424666.533742121
382,6891,6891,Ломбард,услуги ломбарда,,нет,бытовые услуги,"город Москва, Ракетный бульвар, дом 16",Алексеевский район,Северо-Восточный административный округ,37.6557637718412,55.81749067208733,1905171.2296706068,6420579.702719655
383,6896,6896,ЛОМБАРД,услуги ломбарда,,нет,бытовые услуги,"город Москва, Снежная улица, дом 16, корпус 1",район Свиблово,Северо-Восточный административный округ,37.646026966086495,55.85120153475978,1903326.4185529775,6424008.262038455
384,6904,6904,Ломбард,услуги ломбарда,,нет,бытовые услуги,"город Москва, улица Лескова, дом 19А",район Бибирево,Северо-Восточный административный округ,37.6172773109467,55.893978953484506,1899993.883949111,6428016.404886127
385,6913,6913,Ломбард,услуги ломбарда,,нет,бытовые услуги,"город Москва, улица Яблочкова, дом 21А",Бутырский район,Северо-Восточный административный округ,37.578386798813156,55.819489647882186,1900402.1206670275,6419176.90178756
386,6914,6914,Ломбард,услуги ломбарда,,нет,бытовые услуги,"город Москва, улица Яблочкова, дом 21А",Бутырский район,Северо-Восточный административный округ,37.578386798813156,55.819489647882186,1900402.1206670275,6419176.90178756
387,6933,6933,Ломбард,услуги ломбарда,,нет,бытовые услуги,"город Москва, Сокольническая площадь, дом 4, строение 1",район Сокольники,Восточный административный округ,37.67672562953548,55.78994487959962,1907468.8074591719,6418050.968850425
388,6936,6936,Ломбард Цердиньофо Дэль,услуги ломбарда,,нет,бытовые услуги,"город Москва, Открытое шоссе, дом 9, строение 1",район Богородское,Восточный административный округ,37.73516630734616,55.81608964790726,1910040.2469303587,6422095.379080175
389,6969,6969,Ломбард,услуги ломбарда,,нет,бытовые услуги,"город Москва, Новокосинская улица, владение 32А, строение 1",район Новокосино,Восточный административный округ,37.86718504743123,55.74203363336691,1920827.853492619,6416904.547133201
390,6998,6998,ЛОМБАРД,услуги ломбарда,,нет,бытовые услуги,"город Москва, Зелёный проспект, дом 79А",район Новогиреево,Восточный административный округ,37.8166862951346,55.7519079413172,1917389.5203075828,6416899.823277749
391,7006,7006,Ломбард,услуги ломбарда,,нет,бытовые услуги,"город Москва, Измайловское шоссе, дом 69Д",район Измайлово,Восточный административный округ,37.74801314689247,55.788452708977246,1911852.1004956518,6419388.326673771
392,7009,7009,Ломбард «Семерочка»,услуги ломбарда,,нет,бытовые услуги,"город Москва, Вешняковская улица, дом 43",район Вешняки,Восточный административный округ,37.82174630735794,55.71611836174113,1919037.8035971539,6413151.478712492
393,7013,7013,Ломбард «ГРАНДЪ ЛОМБАРД»,услуги ломбарда,,нет,бытовые услуги,"город Москва, Главная улица, дом 29А",район Восточный,Восточный административный округ,37.87191112035775,55.82046335056717,1918168.5135584576,6425450.823336317
394,7020,7020,Ломбард,услуги ломбарда,,нет,бытовые услуги,"город Москва, Первомайская улица, владение 104А",район Восточное Измайлово,Восточный административный округ,37.81222661696125,55.79329828378869,1915567.9729143945,6421263.912448542
395,7021,7021,Ломбард центр,услуги ломбарда,,нет,бытовые услуги,"город Москва, Измайловский бульвар, дом 43",район Измайлово,Восточный административный округ,37.79811616382041,55.79726528206872,1914563.1718504303,6421393.4312483035
396,7023,7023,Ломбард,услуги ломбарда,,нет,бытовые услуги,"город Москва, Челябинская улица, дом 15, сооружение 1",район Ивановское,Восточный административный округ,37.828139327628,55.7789183951646,1917072.7170161211,6420051.171711597
397,7030,7030,Ломбард,услуги ломбарда,,нет,бытовые услуги,"город Москва, Вешняковская улица, дом 18А",район Вешняки,Восточный административный округ,37.825175934072156,55.72330323293279,1918977.1669207218,6413997.982154593
398,7033,7033,Ломбард,услуги ломбарда,,нет,бытовые услуги,"город Москва, Вешняковская улица, дом 22А",район Вешняки,Восточный административный округ,37.82207982926991,55.72037842153545,1918898.4997730097,6413617.443670643
399,7048,7048,Ломбард,услуги ломбарда,,нет,бытовые услуги,"город Москва, Большая Семёновская улица, дом 16",район Соколиная Гора,Восточный административный округ,37.704096,55.782028,1909425.6224936752,6417772.557028791
400,7053,7053,Ломбард,услуги ломбарда,,нет,бытовые услуги,"город Москва, Суздальская улица, дом 18Г",район Новокосино,Восточный административный округ,37.85037695807671,55.74172349225852,1919818.244994354,6416515.270281757
401,7070,7070,Ломбард,услуги ломбарда,,нет,бытовые услуги,"город Москва, Привольная улица, дом 29, корпус 1",район Выхино-Жулебино,Юго-Восточный административный округ,37.85012944214668,55.694719122726106,1921566.2834084525,6411446.967674118
402,7080,7080,Гарант Ломбард,услуги ломбарда,,нет,бытовые услуги,"город Москва, Таганская улица, дом 2",Таганский район,Центральный административный округ,37.657628,55.74075,1908139.1833715152,6412348.802432115
403,7109,7109,Люблинский ломбард,услуги ломбарда,,нет,бытовые услуги,"город Москва, улица Судакова, дом 17",район Люблино,Юго-Восточный административный округ,37.750494741065104,55.6731904334145,1916306.9665706754,6407021.556512269
404,7141,7141,ЛОМБАРД 1,услуги ломбарда,,нет,бытовые услуги,"город Москва, Люблинская улица, дом 4, корпус 2",район Текстильщики,Юго-Восточный административный округ,37.730318,55.707401,1913802.3579068792,6410282.823399465
405,7151,7151,ЛОМБАРД 911,услуги ломбарда,,нет,бытовые услуги,"город Москва, шоссе Энтузиастов, дом 15Б",район Лефортово,Юго-Восточный административный округ,37.715931795699504,55.7517932201655,1911271.9418289345,6414763.548780672
406,7170,7170,Ломбард 24,услуги ломбарда,,нет,бытовые услуги,"город Москва, улица Хлобыстова, дом 26, строение 2",район Выхино-Жулебино,Юго-Восточный административный округ,37.81714205781458,55.7151023193504,1918795.866673459,6412944.673283458
407,7175,7175,Ваш ломбард«Подмосковье+»,услуги ломбарда,,нет,бытовые услуги,"город Москва, Рязанский проспект, дом 99А",район Выхино-Жулебино,Юго-Восточный административный округ,37.816785,55.712548,1918869.8126726141,6412661.954481043
408,7181,7181,Ломбард Столичный,услуги ломбарда,,нет,бытовые услуги,"город Москва, улица Трофимова, дом 32, корпус 1, строение 2",Южнопортовый район,Юго-Восточный административный округ,37.68551465600208,55.70251847238897,1911257.9288259929,6408813.995336605
409,7210,7210,ГЕРАСИМОВ,услуги ломбарда,,нет,бытовые услуги,"город Москва, улица Хлобыстова, дом 20, корпус 2, строение 2",район Выхино-Жулебино,Юго-Восточный административный округ,37.81020361499998,55.71620536199999,1918332.6154254738,6412916.835580235
410,7211,7211,Ломбард,услуги ломбарда,,нет,бытовые услуги,"город Москва, Волгоградский проспект, дом 117, корпус 1",район Кузьминки,Юго-Восточный административный округ,37.763474,55.706272999,1915861.70600217,6410860.099398329
411,7213,7213,Ломбард,услуги ломбарда,,нет,бытовые услуги,"город Москва, Волгоградский проспект, дом 117, корпус 3",район Кузьминки,Юго-Восточный административный округ,37.763791,55.7067,1915865.040367917,6410912.794159197
412,7241,7241,Ломбард,услуги ломбарда,,нет,бытовые услуги,"город Москва, улица Каховка, дом 29А",район Черёмушки,Юго-Западный административный округ,37.569559080709446,55.656349621123255,1905908.5400579744,6401405.271240032
413,7249,7249,Ломбард,услуги ломбарда,,нет,бытовые услуги,"город Москва, Профсоюзная улица, дом 56",Обручевский район,Юго-Западный административный округ,37.552200036195,55.669789264548,1904353.2833818172,6402491.417838806
414,7251,7251,Ломбард,услуги ломбарда,,нет,бытовые услуги,"город Москва, Профсоюзная улица, дом 56",Обручевский район,Юго-Западный административный округ,37.552200036195,55.669789264548,1904353.2833818172,6402491.417838806
415,7252,7252,Ломбард,услуги ломбарда,,нет,бытовые услуги,"город Москва, Профсоюзная улица, дом 56",Обручевский район,Юго-Западный административный округ,37.552200036195,55.669789264548,1904353.2833818172,6402491.417838806
416,7260,7260,Ваш ломбард,услуги ломбарда,,нет,бытовые услуги,"город Москва, Профсоюзная улица, дом 112, строение 1",район Коньково,Юго-Западный административный округ,37.521190499326,55.639627979940805,1903577.1092612015,6398591.060349157
417,7263,7263,Ломбард ЛИДЕР,услуги ломбарда,,нет,бытовые услуги,"город Москва, Большая Черёмушкинская улица, дом 1",район Котловка,Юго-Западный административный округ,37.60213,55.68942,1906668.1157040852,6405652.604048138
418,7269,7269,БЛАГО,услуги ломбарда,,нет,бытовые услуги,"город Москва, Новоясеневский проспект, дом 11",район Ясенево,Юго-Западный административный округ,37.53626288183937,55.60674489720762,1905711.1508661585,6395359.6078192815
419,7276,7276,ВАШ ЛОМБАРД-1,услуги ломбарда,,нет,бытовые услуги,"город Москва, Новоясеневский проспект, дом 1",район Ясенево,Юго-Западный административный округ,37.50920432761052,55.61948500310925,1903589.1272160718,6396168.355017936
420,7283,7283,ЛОМБАРД,услуги ломбарда,,нет,бытовые услуги,"город Москва, Новоясеневский проспект, владение 2А, строение 1",район Ясенево,Юго-Западный административный округ,37.505714,55.617759,1903439.755975676,6395909.332230995
421,7292,7292,Мобильный ломбард,услуги ломбарда,,нет,бытовые услуги,"город Москва, улица Введенского, дом 13К",район Коньково,Юго-Западный административный округ,37.541180920559775,55.64185191996863,1904714.2821698482,6399248.515417057
422,7296,7296,Каффарг,услуги ломбарда,,нет,бытовые услуги,"город Москва, Новоясеневский проспект, дом 7",район Ясенево,Юго-Западный административный округ,37.532367,55.607489,1905445.8203619104,6395358.41527178
423,7298,7298,ЛОМБАРД И Я,услуги ломбарда,,нет,бытовые услуги,"город Москва, Южнобутовская улица, дом 97",район Южное Бутово,Юго-Западный административный округ,37.52072062359551,55.534433526449206,1907430.07694725,6387234.970876623
