,index,Unnamed: 0,Name,TypeObject,OperatingCompany,IsNetObject,TypeService,Address,District,AdmArea,Longitude_WGS84,Latitude_WGS84,Xs,Ys
0,17,17,Сервисный центр,"ремонт и техническое обслуживание бытовой радиоэлектронной аппаратуры, бытовых машин и бытовых приборов, техники",,нет,бытовые услуги,"город Москва, Филипповский переулок, дом 16",район Арбат,Центральный административный округ,37.59870681752143,55.74954169027603,1904230.3619069182,6412062.050048097
1,18,18,Ремонт телефонов,"ремонт и техническое обслуживание бытовой радиоэлектронной аппаратуры, бытовых машин и бытовых приборов, техники",,нет,бытовые услуги,"город Москва, Авангардная улица, дом 12",Головинский район,Северный административный округ,37.48967135207502,55.846706340359326,1894012.83772032,6420262.853754698
2,20,20,Мастерская Айсберг,"ремонт и техническое обслуживание бытовой радиоэлектронной аппаратуры, бытовых машин и бытовых приборов, техники",,нет,бытовые услуги,"город Москва, Авангардная улица, дом 16",Головинский район,Северный административный округ,37.489541016531696,55.84736459565426,1893980.618049124,6420331.108441317
3,27,27,Ремонт телефонов,"ремонт и техническое обслуживание бытовой радиоэлектронной аппаратуры, бытовых машин и бытовых приборов, техники",,нет,бытовые услуги,"город Москва, Авиамоторная улица, дом 47",район Лефортово,Юго-Восточный административный округ,37.718474071807925,55.750211166145725,1911485.4387346925,6414646.551332697
4,47,47,Ремонт сотовых телефонов и компьютеров,"ремонт и техническое обслуживание бытовой радиоэлектронной аппаратуры, бытовых машин и бытовых приборов, техники",,нет,бытовые услуги,"город Москва, Автозаводская улица, дом 13/1",Даниловский район,Южный административный округ,37.656424,55.705402,1909380.198449221,6408513.746430477
5,69,69,РГ Сервис,"ремонт и техническое обслуживание бытовой радиоэлектронной аппаратуры, бытовых машин и бытовых приборов, техники",,нет,бытовые услуги,"город Москва, улица Алабяна, дом 12, корпус 1",район Сокол,Северный административный округ,37.5020649981457,55.79924060282,1896518.418580811,6415403.354504118
6,82,82,Ремонт бытовой техники,"ремонт и техническое обслуживание бытовой радиоэлектронной аппаратуры, бытовых машин и бытовых приборов, техники",,нет,бытовые услуги,"город Москва, Алтуфьевское шоссе, дом 64",Алтуфьевский район,Северо-Восточный административный округ,37.58772248283848,55.88475271151847,1898546.856354843,6426405.25735982
7,85,85,РЕМОНТ КОМПЬЮТЕРОВ И СОТОВЫХ ТЕЛЕФОНОВ,"ремонт и техническое обслуживание бытовой радиоэлектронной аппаратуры, бытовых машин и бытовых приборов, техники",,нет,бытовые услуги,"город Москва, Алтуфьевское шоссе, дом 83",район Лианозово,Северо-Восточный административный округ,37.585557169310704,55.8904544371495,1898204.0811530575,6426974.51522381
8,101,101,Арном-Л,"ремонт и техническое обслуживание бытовой радиоэлектронной аппаратуры, бытовых машин и бытовых приборов, техники",,нет,бытовые услуги,"город Москва, Анадырский проезд, дом 41",Лосиноостровский район,Северо-Восточный административный округ,37.693522,55.87046,1905486.8698964212,6427078.178410757
9,149,149,СОВИНСЕРВИС,"ремонт и техническое обслуживание бытовой радиоэлектронной аппаратуры, бытовых машин и бытовых приборов, техники",,нет,бытовые услуги,"город Москва, Певческий переулок, дом 1/2, строение 1",Таганский район,Центральный административный округ,37.64225138086268,55.75185622400848,1906791.5145271854,6413223.342014262
10,191,191,Ремонт телефонов «Прохорова»,"ремонт и техническое обслуживание бытовой радиоэлектронной аппаратуры, бытовых машин и бытовых приборов, техники",,нет,бытовые услуги,"город Москва, Балаклавский проспект, дом 5",район Чертаново Северное,Южный административный округ,37.609615924607056,55.64020382204867,1908948.8713946769,6400503.390916981
11,192,192,Ремонт кассовых аппаратов,"ремонт и техническое обслуживание бытовой радиоэлектронной аппаратуры, бытовых машин и бытовых приборов, техники",,нет,бытовые услуги,"город Москва, Балаклавский проспект, дом 5",район Чертаново Северное,Южный административный округ,37.61057730966111,55.6403697166745,1909001.3475867892,6400541.434739344
12,220,220,Ремонт ТВ,"ремонт и техническое обслуживание бытовой радиоэлектронной аппаратуры, бытовых машин и бытовых приборов, техники",,нет,бытовые услуги,"город Москва, Башиловская улица, дом 19",Савёловский район,Северный административный округ,37.5754142774964,55.7998220054005,1900950.8554524963,6416994.969442528
13,225,225,Компютерная клиника № 772,"ремонт и техническое обслуживание бытовой радиоэлектронной аппаратуры, бытовых машин и бытовых приборов, техники",,нет,бытовые услуги,"город Москва, Беговая улица, дом 7",район Беговой,Северный административный округ,37.55612578259169,55.7784175894533,1900572.3545147981,6414285.0755356075
14,245,245,РЕМОНТ ЭЛЕКТРОБЫТОВОЙ ТЕХНИКИ,"ремонт и техническое обслуживание бытовой радиоэлектронной аппаратуры, бытовых машин и бытовых приборов, техники",,нет,бытовые услуги,"город Москва, улица Берзарина, дом 16",район Щукино,Северо-Западный административный округ,37.4866243825979,55.788227382455105,1895987.2327047568,6413894.719452035
15,247,247,ЦВЕТКОВ С. В.,"ремонт и техническое обслуживание бытовой радиоэлектронной аппаратуры, бытовых машин и бытовых приборов, техники",,нет,бытовые услуги,"город Москва, Берингов проезд, дом 1",район Свиблово,Северо-Восточный административный округ,37.65624802531661,55.856033070034336,1903766.0889020457,6424742.822287968
16,277,277,Ремонт телефонов,"ремонт и техническое обслуживание бытовой радиоэлектронной аппаратуры, бытовых машин и бытовых приборов, техники",,нет,бытовые услуги,"город Москва, улица Богданова, дом 58",район Солнцево,Западный административный округ,37.391641996962704,55.6481591117291,1895360.121158277,6396814.383607692
17,295,295,Сервисный центр по ремонту компьютеров,"ремонт и техническое обслуживание бытовой радиоэлектронной аппаратуры, бытовых машин и бытовых приборов, техники",,нет,бытовые услуги,"город Москва, Боровское шоссе, дом 33",район Ново-Переделкино,Западный административный округ,37.360684212305735,55.64184440273626,1893702.7492423,6395491.00419171
18,296,296,Ремонт бытовых приборов,"ремонт и техническое обслуживание бытовой радиоэлектронной аппаратуры, бытовых машин и бытовых приборов, техники",,нет,бытовые услуги,"город Москва, Боровское шоссе, дом 36",район Ново-Переделкино,Западный административный округ,37.3540006038247,55.6397267540484,1893372.45352852,6395124.0022341125
19,298,298,Торговый дом Солнцево,"ремонт и техническое обслуживание бытовой радиоэлектронной аппаратуры, бытовых машин и бытовых приборов, техники",,нет,бытовые услуги,"город Москва, Боровское шоссе, дом 36",район Ново-Переделкино,Западный административный округ,37.354259797604776,55.639901363993935,1893381.8754780702,6395148.213644266
20,387,387,Мастерская «Ремонт электроники»,"ремонт и техническое обслуживание бытовой радиоэлектронной аппаратуры, бытовых машин и бытовых приборов, техники",,нет,бытовые услуги,"город Москва, Васильевская улица, дом 3",Пресненский район,Центральный административный округ,37.58551291399017,55.77049929189024,1902651.27661574,6414045.238478279
21,409,409,Ремонт телефонов,"ремонт и техническое обслуживание бытовой радиоэлектронной аппаратуры, бытовых машин и бытовых приборов, техники",,нет,бытовые услуги,"город Москва, проспект Вернадского, дом 109",район Тропарёво-Никулино,Западный административный округ,37.483714999999904,55.662212,1900458.5879676868,6400245.015866525
22,411,411,Ремонт телевизоров,"ремонт и техническое обслуживание бытовой радиоэлектронной аппаратуры, бытовых машин и бытовых приборов, техники",,нет,бытовые услуги,"город Москва, проспект Вернадского, дом 109",район Тропарёво-Никулино,Западный административный округ,37.483608,55.66203099999991,1900458.7366175412,6400223.264727546
23,461,461,Ремонт телефонов,"ремонт и техническое обслуживание бытовой радиоэлектронной аппаратуры, бытовых машин и бытовых приборов, техники",,нет,бытовые услуги,"город Москва, 3-я Владимирская улица, дом 27",район Перово,Восточный административный округ,37.79112856470429,55.75399907741965,1915758.5643459053,6416585.407466101
24,487,487,Юник,"ремонт и техническое обслуживание бытовой радиоэлектронной аппаратуры, бытовых машин и бытовых приборов, техники",,нет,бытовые услуги,"город Москва, Волжский бульвар, дом 50, корпус 2",район Текстильщики,Юго-Восточный административный округ,37.752224,55.696485,1915542.6978455738,6409568.181716693
25,543,543,Мастерская по ремонту оргтехники АЛД,"ремонт и техническое обслуживание бытовой радиоэлектронной аппаратуры, бытовых машин и бытовых приборов, техники",,нет,бытовые услуги,"город Москва, Гаврикова улица, дом 2/38",Красносельский район,Центральный административный округ,37.6703137619797,55.780421043670366,1907434.0495332368,6416890.182655394
26,558,558,ФИРМА «ТЕХНОПАРК»,"ремонт и техническое обслуживание бытовой радиоэлектронной аппаратуры, бытовых машин и бытовых приборов, техники",,нет,бытовые услуги,"город Москва, Гвардейская улица, дом 3, корпус 1",Можайский район,Западный административный округ,37.42351899999991,55.721298,1894615.6156189283,6405365.785169339
27,581,581,Ремонт бытовой техники,"ремонт и техническое обслуживание бытовой радиоэлектронной аппаратуры, бытовых машин и бытовых приборов, техники",,нет,бытовые услуги,"город Москва, улица Гиляровского, дом 36, строение 1А",Мещанский район,Центральный административный округ,37.6325906318118,55.78261977886029,1905061.2864434218,6416336.483333997
28,632,632,РИНСТРУМ,"ремонт и техническое обслуживание бытовой радиоэлектронной аппаратуры, бытовых машин и бытовых приборов, техники",,нет,бытовые услуги,"город Москва, улица Гришина, дом 18, корпус 2",Можайский район,Западный административный округ,37.417232999,55.724706,1894107.617249887,6405602.894701145
29,633,633,Сервисный центр GOSTrem.ru,"ремонт и техническое обслуживание бытовой радиоэлектронной аппаратуры, бытовых машин и бытовых приборов, техники",,нет,бытовые услуги,"город Москва, улица Гришина, дом 23, корпус 1",Можайский район,Западный административный округ,37.41501224545952,55.724572760820415,1893977.330946079,6405542.438695279
30,645,645,Ремонт электроники,"ремонт и техническое обслуживание бытовой радиоэлектронной аппаратуры, бытовых машин и бытовых приборов, техники",,нет,бытовые услуги,"город Москва, Гурьевский проезд, дом 19, корпус 1",район Орехово-Борисово Южное,Южный административный округ,37.75158327952317,55.60651794311904,1918860.9735069515,6399859.306167043
31,696,696,Ремонт продукции APPL «Brobrolab»,"ремонт и техническое обслуживание бытовой радиоэлектронной аппаратуры, бытовых машин и бытовых приборов, техники",,нет,бытовые услуги,"город Москва, Дербеневская улица, дом 1",Даниловский район,Южный административный округ,37.652037656639116,55.72642061813545,1908331.9908314282,6410687.13721267
32,750,750,Ремонт бытовой техники,"ремонт и техническое обслуживание бытовой радиоэлектронной аппаратуры, бытовых машин и бытовых приборов, техники",,нет,бытовые услуги,"город Москва, Донская улица, дом 35",Донской район,Южный административный округ,37.60600184933133,55.71891609874743,1905809.9935236569,6408913.427651644
33,757,757,МАСТЕРСКАЯ ПО РЕМОНТУ ВЕЛОСИПЕДОВ,"ремонт и техническое обслуживание бытовой радиоэлектронной аппаратуры, бытовых машин и бытовых приборов, техники",,нет,бытовые услуги,"город Москва, улица Дружбы, дом 2/19",район Раменки,Западный административный округ,37.52151760948096,55.71235244942661,1900911.17358086,6406440.300901255
34,764,764,Ремонт холодильников,"ремонт и техническое обслуживание бытовой радиоэлектронной аппаратуры, бытовых машин и бытовых приборов, техники",,нет,бытовые услуги,"город Москва, Дубнинская улица, дом 4, корпус 1",район Восточное Дегунино,Северный административный округ,37.569075766888076,55.85832013270442,1898397.6246160613,6423167.717408488
35,785,785,Ремонт тонометров,"ремонт и техническое обслуживание бытовой радиоэлектронной аппаратуры, бытовых машин и бытовых приборов, техники",,нет,бытовые услуги,"город Москва, 1-я Дубровская улица, дом 3",Таганский район,Центральный административный округ,37.6697441564629,55.72789669887809,1909354.0555256144,6411217.829334562
36,796,796,Ремонт бытовой техники «ПУЛЬСАР»,"ремонт и техническое обслуживание бытовой радиоэлектронной аппаратуры, бытовых машин и бытовых приборов, техники",,нет,бытовые услуги,"город Москва, улица Олеко Дундича, дом 21, корпус 2",район Филёвский Парк,Западный административный округ,37.48923673444265,55.738955824181645,1897964.4603120186,6408636.295331181
37,797,797,Ремонт бытовой техники «СВ-СЕРВИС»,"ремонт и техническое обслуживание бытовой радиоэлектронной аппаратуры, бытовых машин и бытовых приборов, техники",,нет,бытовые услуги,"город Москва, улица Олеко Дундича, дом 21, корпус 2",район Филёвский Парк,Западный административный округ,37.48923673444265,55.738955824181645,1897964.4603120186,6408636.295331181
38,817,817,Ремонт телефонов,"ремонт и техническое обслуживание бытовой радиоэлектронной аппаратуры, бытовых машин и бытовых приборов, техники",,нет,бытовые услуги,"город Москва, бульвар Матроса Железняка, дом 7/20",район Коптево,Северный административный округ,37.524548325416475,55.8275072183784,1896838.314035622,6418918.650503107
39,847,847,ЭЛЕКТРОНИКА СК,"ремонт и техническое обслуживание бытовой радиоэлектронной аппаратуры, бытовых машин и бытовых приборов, техники",,нет,бытовые услуги,"город Москва, Запорожская улица, дом 5",Можайский район,Западный административный округ,37.40292099999991,55.722688,1893310.5333654264,6405088.305957707
40,886,886,Cервисный центр,"ремонт и техническое обслуживание бытовой радиоэлектронной аппаратуры, бытовых машин и бытовых приборов, техники",,нет,бытовые услуги,"город Москва, Зубовский бульвар, дом 16-20, строение 1",район Хамовники,Центральный административный округ,37.588,55.738,1904007.2634940657,6410593.958066492
41,895,895,Ремонт бытовой техники и радиоэлектронной аппаратуры,"ремонт и техническое обслуживание бытовой радиоэлектронной аппаратуры, бытовых машин и бытовых приборов, техники",,нет,бытовые услуги,"город Москва, Изваринская улица, дом 4",район Внуково,Западный административный округ,37.29071323776031,55.645400332838705,1889302.3957367789,6394426.907469679
42,900,900,Ремонт телефонов,"ремонт и техническое обслуживание бытовой радиоэлектронной аппаратуры, бытовых машин и бытовых приборов, техники",,нет,бытовые услуги,"город Москва, Измайловский бульвар, дом 47",район Измайлово,Восточный административный округ,37.799771447330116,55.79726351330816,1914663.6744959084,6421428.160496666
43,905,905,Ремонт телефонов,"ремонт и техническое обслуживание бытовой радиоэлектронной аппаратуры, бытовых машин и бытовых приборов, техники",,нет,бытовые услуги,"город Москва, Измайловский бульвар, дом 67, корпус 1",район Восточное Измайлово,Восточный административный округ,37.815670449033654,55.79741629000101,1915622.6135691868,6421780.154347402
44,938,938,МАСТЕРСКАЯ ПО РЕМОНТУ ОРГТЕХНИКИ,"ремонт и техническое обслуживание бытовой радиоэлектронной аппаратуры, бытовых машин и бытовых приборов, техники",,нет,бытовые услуги,"город Москва, Средняя Калитниковская улица, дом 51, корпус 1",Нижегородский район,Юго-Восточный административный округ,37.70058444064839,55.73307989107372,1911036.5507200162,6412424.3402898675
45,956,956,Сервисный центр,"ремонт и техническое обслуживание бытовой радиоэлектронной аппаратуры, бытовых машин и бытовых приборов, техники",,нет,бытовые услуги,"город Москва, Кантемировская улица, дом 20, корпус 1",район Москворечье-Сабурово,Южный административный округ,37.66206956903751,55.63869230560774,1912203.4556145042,6401441.5672777165
46,962,962,ТЕЛЕМАСТЕРСКАЯ,"ремонт и техническое обслуживание бытовой радиоэлектронной аппаратуры, бытовых машин и бытовых приборов, техники",,нет,бытовые услуги,"город Москва, 3-я Карачаровская улица, дом 7",Нижегородский район,Юго-Восточный административный округ,37.74750949232471,55.734553600257804,1913834.5896259032,6413570.700312559
47,967,967,Ремонт сотовых телефонов,"ремонт и техническое обслуживание бытовой радиоэлектронной аппаратуры, бытовых машин и бытовых приборов, техники",,нет,бытовые услуги,"город Москва, Каргопольская улица, дом 14, корпус 1",район Отрадное,Северо-Восточный административный округ,37.59316142154202,55.86379035636028,1899654.4963585783,6424259.779069812
48,988,988,МБТ-Сервис,"ремонт и техническое обслуживание бытовой радиоэлектронной аппаратуры, бытовых машин и бытовых приборов, техники",,нет,бытовые услуги,"город Москва, Кастанаевская улица, дом 36, корпус 1",район Фили-Давыдково,Западный административный округ,37.48159376669,55.7362233337502,1897600.2824114317,6408182.557527964
49,1004,1004,Ремонт оргтехники,"ремонт и техническое обслуживание бытовой радиоэлектронной аппаратуры, бытовых машин и бытовых приборов, техники",,нет,бытовые услуги,"город Москва, Каширское шоссе, дом 26, корпус 3",район Москворечье-Сабурово,Южный административный округ,37.64732407558401,55.65295376668088,1910774.7272697915,6402669.172914403
50,1005,1005,Ремонт бытовой техники,"ремонт и техническое обслуживание бытовой радиоэлектронной аппаратуры, бытовых машин и бытовых приборов, техники",,нет,бытовые услуги,"город Москва, Каширское шоссе, дом 46, корпус 2",район Москворечье-Сабурово,Южный административный округ,37.66423674290629,55.64734099197913,1912014.17225984,6402419.4264307525
51,1079,1079,РЕМОНТ ФОТОАППАРАТОВ,"ремонт и техническое обслуживание бытовой радиоэлектронной аппаратуры, бытовых машин и бытовых приборов, техники",,нет,бытовые услуги,"город Москва, Комсомольский проспект, дом 3",район Хамовники,Центральный административный округ,37.59348134610723,55.73277212673733,1904534.4561625118,6410145.049546284
52,1091,1091,РЕМОНТ ТЕЛЕ-РАДИОАППАРАТУРЫ,"ремонт и техническое обслуживание бытовой радиоэлектронной аппаратуры, бытовых машин и бытовых приборов, техники",,нет,бытовые услуги,"город Москва, Комсомольский проспект, дом 40",район Хамовники,Центральный административный округ,37.5740145332712,55.721920172727096,1903752.2884192616,6408568.074251032
53,1111,1111,Ремонт бытовой техники,"ремонт и техническое обслуживание бытовой радиоэлектронной аппаратуры, бытовых машин и бытовых приборов, техники",,нет,бытовые услуги,"город Москва, Коптевская улица, дом 16, корпус 2",район Коптево,Северный административный округ,37.518512,55.829282,1896406.4087000592,6418984.303974006
54,1170,1170,Радиосервис-Д,"ремонт и техническое обслуживание бытовой радиоэлектронной аппаратуры, бытовых машин и бытовых приборов, техники",,нет,бытовые услуги,"город Москва, улица Кравченко, дом 12",Ломоносовский район,Юго-Западный административный округ,37.51779066517238,55.67777058272884,1901961.499938906,6402633.480962138
55,1272,1272,Мастерская,"ремонт и техническое обслуживание бытовой радиоэлектронной аппаратуры, бытовых машин и бытовых приборов, техники",,нет,бытовые услуги,"город Москва, Кунцевская улица, дом 10",район Кунцево,Западный административный округ,37.412545426956704,55.731471510205296,1893573.5344477128,6406235.35779282
56,1308,1308,Ремонт бытовой техники,"ремонт и техническое обслуживание бытовой радиоэлектронной аппаратуры, бытовых машин и бытовых приборов, техники",,нет,бытовые услуги,"город Москва, Лебедянская улица, дом 14, корпус 1",район Бирюлёво Восточное,Южный административный округ,37.6747437940666,55.5862505161098,1914925.574743876,6396054.711868661
57,1313,1313,Скайнет Сервис,"ремонт и техническое обслуживание бытовой радиоэлектронной аппаратуры, бытовых машин и бытовых приборов, техники",,нет,бытовые услуги,"город Москва, Ленинградский проспект, дом 1",район Беговой,Северный административный округ,37.5800346808459,55.7779923772113,1902040.6528250284,6414738.460144668
58,1340,1340,Ремонт мобильной техники,"ремонт и техническое обслуживание бытовой радиоэлектронной аппаратуры, бытовых машин и бытовых приборов, техники",,нет,бытовые услуги,"город Москва, Ленинградский проспект, дом 60А",район Аэропорт,Северный административный округ,37.537216630694346,55.80005058247736,1898623.0879818185,6416222.751690236
59,1353,1353,Ремонт сотовых телефонов,"ремонт и техническое обслуживание бытовой радиоэлектронной аппаратуры, бытовых машин и бытовых приборов, техники",,нет,бытовые услуги,"город Москва, Ленинградский проспект, дом 74, корпус 1",район Аэропорт,Северный административный округ,37.5163486228984,55.8052740138934,1897162.800105227,6416351.1322782785
60,1354,1354,Ремонт ККМ,"ремонт и техническое обслуживание бытовой радиоэлектронной аппаратуры, бытовых машин и бытовых приборов, техники",,нет,бытовые услуги,"город Москва, Ленинградский проспект, дом 74, корпус 2",район Аэропорт,Северный административный округ,37.5168850637018,55.80567800059671,1897180.4357002592,6416405.854008297
61,1394,1394,Обслуживание радиоаппаратуры и бытовых приборов,"ремонт и техническое обслуживание бытовой радиоэлектронной аппаратуры, бытовых машин и бытовых приборов, техники",,нет,бытовые услуги,"город Москва, Ленинский проспект, дом 37А",Донской район,Южный административный округ,37.58629343485838,55.7094734047086,1904960.66487487,6407483.007524057
62,1411,1411,КВАНТ,"ремонт и техническое обслуживание бытовой радиоэлектронной аппаратуры, бытовых машин и бытовых приборов, техники",,нет,бытовые услуги,"город Москва, Ленинский проспект, дом 69",Гагаринский район,Юго-Западный административный округ,37.55033221112009,55.69022387641991,1903483.7215305783,6404655.7735600425
63,1439,1439,Орбита-Сервис ТВ,"ремонт и техническое обслуживание бытовой радиоэлектронной аппаратуры, бытовых машин и бытовых приборов, техники",,нет,бытовые услуги,"город Москва, Ленинский проспект, дом 95",Ломоносовский район,Юго-Западный административный округ,37.52582216465795,55.67398416384663,1902590.7577457991,6402392.782216381
64,1441,1441,Орбита-Сервис,"ремонт и техническое обслуживание бытовой радиоэлектронной аппаратуры, бытовых машин и бытовых приборов, техники",,нет,бытовые услуги,"город Москва, Ленинский проспект, дом 95",Ломоносовский район,Юго-Западный административный округ,37.52582216465795,55.67398416384663,1902590.7577457991,6402392.782216381
65,1488,1488,ЭРТА,"ремонт и техническое обслуживание бытовой радиоэлектронной аппаратуры, бытовых машин и бытовых приборов, техники",,нет,бытовые услуги,"город Москва, Лихов переулок, дом 5",Тверской район,Центральный административный округ,37.612119992087614,55.77251324687604,1904193.1790179044,6414818.723593977
66,1493,1493,НОРД-ТЕХСЕРВИС,"ремонт и техническое обслуживание бытовой радиоэлектронной аппаратуры, бытовых машин и бытовых приборов, техники",,нет,бытовые услуги,"город Москва, Локомотивный проезд, дом 21",Тимирязевский район,Северный административный округ,37.57294399999999,55.845148783397626,1899120.5231719543,6421828.843592579
67,1512,1512,Мастер Плазма,"ремонт и техническое обслуживание бытовой радиоэлектронной аппаратуры, бытовых машин и бытовых приборов, техники",,нет,бытовые услуги,"город Москва, Люблинская улица, дом 27/2",район Текстильщики,Юго-Восточный административный округ,37.733634,55.7009,1914246.6303685957,6409652.128991397
68,1515,1515,Ремонт бытовой техники,"ремонт и техническое обслуживание бытовой радиоэлектронной аппаратуры, бытовых машин и бытовых приборов, техники",,нет,бытовые услуги,"город Москва, Люблинская улица, дом 50, строение 1",район Люблино,Юго-Восточный административный округ,37.73794121628654,55.679378330798656,1915311.648379922,6407423.689610239
69,1521,1521,"Ремонт айфонов, ноутбуков","ремонт и техническое обслуживание бытовой радиоэлектронной аппаратуры, бытовых машин и бытовых приборов, техники",,нет,бытовые услуги,"город Москва, Люсиновская улица, дом 2, строение 1",район Замоскворечье,Центральный административный округ,37.62247967792616,55.728357245120776,1906462.128803668,6410276.222635016
70,1549,1549,"Ремонт аудио, видео аппаратуры","ремонт и техническое обслуживание бытовой радиоэлектронной аппаратуры, бытовых машин и бытовых приборов, техники",,нет,бытовые услуги,"город Москва, Космодамианская набережная, дом 46-50, строение 1",район Замоскворечье,Центральный административный округ,37.644764,55.735829,1907539.9227898985,6411548.6223765025
71,1563,1563,ОЛДИ ЛТД,"ремонт и техническое обслуживание бытовой радиоэлектронной аппаратуры, бытовых машин и бытовых приборов, техники",,нет,бытовые услуги,"город Москва, улица Малышева, дом 7",район Текстильщики,Юго-Восточный административный округ,37.742859,55.700577,1914820.051006473,6409811.698737131
72,1571,1571,Сервисный центр,"ремонт и техническое обслуживание бытовой радиоэлектронной аппаратуры, бытовых машин и бытовых приборов, техники",,нет,бытовые услуги,"город Москва, Марксистская улица, дом 5",Таганский район,Центральный административный округ,37.663762162340156,55.737254884540135,1908642.1476727016,6412100.830225929
73,1582,1582,Ремонт телефонов,"ремонт и техническое обслуживание бытовой радиоэлектронной аппаратуры, бытовых машин и бытовых приборов, техники",,нет,бытовые услуги,"город Москва, улица Мастеркова, дом 3",Даниловский район,Южный административный округ,37.65845693087973,55.70869531588614,1909381.487419584,6408911.383488345
74,1609,1609,РЕМОНТ КОМПЬЮТЕРОВ,"ремонт и техническое обслуживание бытовой радиоэлектронной аппаратуры, бытовых машин и бытовых приборов, техники",,нет,бытовые услуги,"город Москва, улица Менжинского, дом 25",Бабушкинский район,Северо-Восточный административный округ,37.65835970432303,55.86961212117623,1903388.4872371256,6426250.093080098
75,1618,1618,МАСТЕР ГРУПП,"ремонт и техническое обслуживание бытовой радиоэлектронной аппаратуры, бытовых машин и бытовых приборов, техники",,нет,бытовые услуги,"город Москва, Малый Казённый переулок, дом 8",Басманный район,Центральный административный округ,37.6539164298626,55.7603053379664,1907186.3556048197,6414378.492273219
76,1652,1652,М.ВИДЕО-СЕРВИС,"ремонт и техническое обслуживание бытовой радиоэлектронной аппаратуры, бытовых машин и бытовых приборов, техники",,нет,бытовые услуги,"город Москва, проспект Мира, дом 91, корпус 1",Останкинский район,Северо-Восточный административный округ,37.6354540789186,55.8053808325354,1904389.19477247,6418849.381140661
77,1654,1654,Сервисный цетр «Apple»,"ремонт и техническое обслуживание бытовой радиоэлектронной аппаратуры, бытовых машин и бытовых приборов, техники",,нет,бытовые услуги,"город Москва, проспект Мира, дом 91, корпус 3",Останкинский район,Северо-Восточный административный округ,37.635550873693994,55.8068749581586,1904339.5283488003,6419012.423060928
78,1712,1712,ДОМ БЫТА,"ремонт и техническое обслуживание бытовой радиоэлектронной аппаратуры, бытовых машин и бытовых приборов, техники",,нет,бытовые услуги,"город Москва, Можайское шоссе, дом 26",Можайский район,Западный административный округ,37.423454999999905,55.720368,1894645.9256046244,6405264.147706789
79,1737,1737,Мастерская,"ремонт и техническое обслуживание бытовой радиоэлектронной аппаратуры, бытовых машин и бытовых приборов, техники",,нет,бытовые услуги,"город Москва, 5-й Монетчиковский переулок, дом 8/10",район Замоскворечье,Центральный административный округ,37.632278500847775,55.732632892117465,1906899.362054816,6410942.403906965
80,1774,1774,Сервисный центр АДК-Гарант,"ремонт и техническое обслуживание бытовой радиоэлектронной аппаратуры, бытовых машин и бытовых приборов, техники",,нет,бытовые услуги,"город Москва, Нагатинская улица, дом 28",район Нагатино-Садовники,Южный административный округ,37.6571699596,55.677428316502706,1910465.36593202,6405514.189207646
81,1818,1818,Ремонт ноутбуков и электроники,"ремонт и техническое обслуживание бытовой радиоэлектронной аппаратуры, бытовых машин и бытовых приборов, техники",,нет,бытовые услуги,"город Москва, Нелидовская улица, дом 21, корпус 1",район Южное Тушино,Северо-Западный административный округ,37.43643221213729,55.845536249979084,1890826.6586851215,6419031.66623055
82,1857,1857,Ремонт бытовой техники,"ремонт и техническое обслуживание бытовой радиоэлектронной аппаратуры, бытовых машин и бытовых приборов, техники",,нет,бытовые услуги,"город Москва, Новозаводская улица, дом 2, корпус 3",район Филёвский Парк,Западный административный округ,37.51438967026964,55.74853111998826,1899140.8377611225,6410192.653857099
83,1870,1870,Ремонт техники,"ремонт и техническое обслуживание бытовой радиоэлектронной аппаратуры, бытовых машин и бытовых приборов, техники",,нет,бытовые услуги,"город Москва, Новокосинская улица, дом 27",район Новокосино,Восточный административный округ,37.86231354922291,55.74208852021785,1920529.8109840841,6416807.288044807
84,1871,1871,Sotwork сервисный центр Apple,"ремонт и техническое обслуживание бытовой радиоэлектронной аппаратуры, бытовых машин и бытовых приборов, техники",,нет,бытовые услуги,"город Москва, Новокузнецкая улица, дом 6",район Замоскворечье,Центральный административный округ,37.62990896971687,55.73842143739927,1906540.271181083,6411516.668921148
85,1880,1880,Ремонт бытовой техники,"ремонт и техническое обслуживание бытовой радиоэлектронной аппаратуры, бытовых машин и бытовых приборов, техники",,нет,бытовые услуги,"город Москва, 1-я Новокузьминская улица, дом 23, корпус 2",Рязанский район,Юго-Восточный административный округ,37.793701282203855,55.71455322974592,1917390.84639891,6412390.203475216
86,1897,1897,МЕГАТЕХ РЕАЛИЗАЦИЯ И РЕМОНТ ОРГТЕХНИКИ,"ремонт и техническое обслуживание бытовой радиоэлектронной аппаратуры, бытовых машин и бытовых приборов, техники",,нет,бытовые услуги,"город Москва, 2-й Новоподмосковный переулок, дом 3",Войковский район,Северный административный округ,37.5094023676306,55.8179302790398,1896273.27063742,6417570.963031673
87,1941,1941,Ремонт Apple,"ремонт и техническое обслуживание бытовой радиоэлектронной аппаратуры, бытовых машин и бытовых приборов, техники",,нет,бытовые услуги,"город Москва, Калужская площадь, дом 1, корпус 1",район Якиманка,Центральный административный округ,37.612711421397854,55.72841180032911,1905865.911176896,6410077.509729474
88,1969,1969,Сервисный центр,"ремонт и техническое обслуживание бытовой радиоэлектронной аппаратуры, бытовых машин и бытовых приборов, техники",,нет,бытовые услуги,"город Москва, Ореховый бульвар, дом 11, корпус 1",район Орехово-Борисово Северное,Южный административный округ,37.71277849700274,55.61090999666969,1916329.7545031626,6399514.073126403
89,1981,1981,АЛИНА-СЕРВИС,"ремонт и техническое обслуживание бытовой радиоэлектронной аппаратуры, бытовых машин и бытовых приборов, техники",,нет,бытовые услуги,"город Москва, Ослябинский переулок, дом 3",Даниловский район,Южный административный округ,37.66044711814559,55.71279895091895,1909350.018273607,6409395.4570352025
90,2014,2014,Ремонтная мастерская,"ремонт и техническое обслуживание бытовой радиоэлектронной аппаратуры, бытовых машин и бытовых приборов, техники",,нет,бытовые услуги,"город Москва, Большая Очаковская улица, дом 19",район Очаково-Матвеевское,Западный административный округ,37.456681514342,55.6813554735926,1898105.488934528,6401746.863318292
91,2057,2057,"Ремонт аудио, видио аппаратуры","ремонт и техническое обслуживание бытовой радиоэлектронной аппаратуры, бытовых машин и бытовых приборов, техники",,нет,бытовые услуги,"город Москва, 9-я Парковая улица, дом 30",район Измайлово,Восточный административный округ,37.799909300105796,55.794957878652255,1914758.38615034,6421182.724559957
92,2069,2069,ГАРАНТ СЕРВИС,"ремонт и техническое обслуживание бытовой радиоэлектронной аппаратуры, бытовых машин и бытовых приборов, техники",,нет,бытовые услуги,"город Москва, 11-я Парковая улица, дом 57, корпус 3",район Северное Измайлово,Восточный административный округ,37.802821730179254,55.809231389406655,1914400.4594511287,6422781.5640782975
93,2087,2087,Бюро ремонта,"ремонт и техническое обслуживание бытовой радиоэлектронной аппаратуры, бытовых машин и бытовых приборов, техники",,нет,бытовые услуги,"город Москва, город Зеленоград, улица 1 Мая, дом 2",район Крюково,Зеленоградский административный округ,37.1731941693109,55.977184894508,1870056.4704703882,6427812.16524347
94,2098,2098,Мастерская по ремонту электрооборудования,"ремонт и техническое обслуживание бытовой радиоэлектронной аппаратуры, бытовых машин и бытовых приборов, техники",,нет,бытовые услуги,"город Москва, Первомайская улица, дом 39",район Измайлово,Восточный административный округ,37.20631419783744,55.96429702423659,1872530.1256669452,6427099.244284082
95,2128,2128,Ателье «МГСБС»,"ремонт и техническое обслуживание бытовой радиоэлектронной аппаратуры, бытовых машин и бытовых приборов, техники",,нет,бытовые услуги,"город Москва, Переведеновский переулок, дом 7/7",Басманный район,Центральный административный округ,37.6849898315036,55.777931862101795,1908418.0225440469,6416929.934835156
96,2130,2130,Ремонт аудио-видио техники,"ремонт и техническое обслуживание бытовой радиоэлектронной аппаратуры, бытовых машин и бытовых приборов, техники",,нет,бытовые услуги,"город Москва, Большая Переяславская улица, дом 9",Мещанский район,Центральный административный округ,37.6412054525424,55.783346927008196,1905557.4553585616,6416595.284211828
97,2229,2229,Мастерская по ремонту техники,"ремонт и техническое обслуживание бытовой радиоэлектронной аппаратуры, бытовых машин и бытовых приборов, техники",,нет,бытовые услуги,"город Москва, Полоцкая улица, дом 16",район Кунцево,Западный административный округ,37.425962,55.734167,1894290.921108401,6406804.50871196
98,2346,2346,РЕМОНТ ТОНОМЕТРОВ,"ремонт и техническое обслуживание бытовой радиоэлектронной аппаратуры, бытовых машин и бытовых приборов, техники",,нет,бытовые услуги,"город Москва, Радужная улица, дом 15, корпус 1",Бабушкинский район,Северо-Восточный административный округ,37.66347518094025,55.8596073481976,1904070.9712331612,6425279.2756762775
99,2349,2349,РЕМОНТ ЭЛЕКТРОИНСТРУМЕНТОВ,"ремонт и техническое обслуживание бытовой радиоэлектронной аппаратуры, бытовых машин и бытовых приборов, техники",,нет,бытовые услуги,"город Москва, Радужная улица, дом 26",Бабушкинский район,Северо-Восточный административный округ,37.66268974070675,55.86020192811257,1904001.2355026144,6425326.8872568915
100,2358,2358,РЕМОНТ АУДИО- И ВИДЕОТЕХНИКИ,"ремонт и техническое обслуживание бытовой радиоэлектронной аппаратуры, бытовых машин и бытовых приборов, техники",,нет,бытовые услуги,"город Москва, бульвар Яна Райниса, дом 10",район Северное Тушино,Северо-Западный административный округ,37.426577507436924,55.850229324466525,1890055.979459613,6419333.45430661
101,2388,2388,Дельта Копирс,"ремонт и техническое обслуживание бытовой радиоэлектронной аппаратуры, бытовых машин и бытовых приборов, техники",,нет,бытовые услуги,"город Москва, улица Рогожский Вал, дом 7",Таганский район,Центральный административный округ,37.67816629276831,55.74383135191871,1909273.1757985,6413111.950321504
102,2392,2392,Ремонт бытовой техники,"ремонт и техническое обслуживание бытовой радиоэлектронной аппаратуры, бытовых машин и бытовых приборов, техники",,нет,бытовые услуги,"город Москва, бульвар Маршала Рокоссовского, дом 3",район Богородское,Восточный административный округ,37.726370953185906,55.8087771024336,1909779.7262035091,6421122.665126652
103,2396,2396,Сервис центр,"ремонт и техническое обслуживание бытовой радиоэлектронной аппаратуры, бытовых машин и бытовых приборов, техники",,нет,бытовые услуги,"город Москва, улица Петра Романова, дом 6",Южнопортовый район,Юго-Восточный административный округ,37.680674055829684,55.708323323432126,1910747.301776824,6409337.885583355
104,2428,2428,ILikeService,"ремонт и техническое обслуживание бытовой радиоэлектронной аппаратуры, бытовых машин и бытовых приборов, техники",,нет,бытовые услуги,"город Москва, Русаковская улица, дом 22",район Сокольники,Восточный административный округ,37.67838854082508,55.78620732272771,1907708.9529455213,6417683.116466754
105,2451,2451,ЭЛЕКТРОНИКА С,"ремонт и техническое обслуживание бытовой радиоэлектронной аппаратуры, бытовых машин и бытовых приборов, техники",,нет,бытовые услуги,"город Москва, Рязанский проспект, дом 38",Рязанский район,Юго-Восточный административный округ,37.78842656186299,55.71719807951182,1916971.118146052,6412563.765416546
106,2491,2491,Ремонт радиоаппаратуры,"ремонт и техническое обслуживание бытовой радиоэлектронной аппаратуры, бытовых машин и бытовых приборов, техники",,нет,бытовые услуги,"город Москва, улица Свободы, дом 18",район Покровское-Стрешнево,Северо-Западный административный округ,37.4544509387814,55.832533553726094,1892399.18396458,6418003.425825805
107,2506,2506,НИКО,"ремонт и техническое обслуживание бытовой радиоэлектронной аппаратуры, бытовых машин и бытовых приборов, техники",,нет,бытовые услуги,"город Москва, Севастопольский проспект, дом 19, корпус 1",район Котловка,Юго-Западный административный округ,37.594795544422496,55.67799384288511,1906644.9096226718,6404267.16304769
108,2507,2507,НОРД,"ремонт и техническое обслуживание бытовой радиоэлектронной аппаратуры, бытовых машин и бытовых приборов, техники",,нет,бытовые услуги,"город Москва, Севастопольский проспект, дом 25",район Котловка,Юго-Западный административный округ,37.5939556585378,55.676614654361906,1906644.8521873988,6404100.882510431
109,2526,2526,Сервисный центр INKSYSTEM,"ремонт и техническое обслуживание бытовой радиоэлектронной аппаратуры, бытовых машин и бытовых приборов, техники",,нет,бытовые услуги,"город Москва, Селивёрстов переулок, дом 3",Красносельский район,Центральный административный округ,37.63489317113674,55.76999182343254,1905670.400210914,6415023.743992609
110,2563,2563,ДИЛАКСИ,"ремонт и техническое обслуживание бытовой радиоэлектронной аппаратуры, бытовых машин и бытовых приборов, техники",,нет,бытовые услуги,"город Москва, Симферопольский проезд, дом 7",Нагорный район,Южный административный округ,37.61547870255836,55.664993056486736,1908387.089115741,6403298.897917975
111,2584,2584,Транссервис-95,"ремонт и техническое обслуживание бытовой радиоэлектронной аппаратуры, бытовых машин и бытовых приборов, техники",,нет,бытовые услуги,"город Москва, Славянский бульвар, дом 13, корпус 1",район Фили-Давыдково,Западный административный округ,37.464018725021,55.725582868304095,1896923.100687768,6406669.453956712
112,2631,2631,Технический центр,"ремонт и техническое обслуживание бытовой радиоэлектронной аппаратуры, бытовых машин и бытовых приборов, техники",,нет,бытовые услуги,"город Москва, 8-я улица Соколиной Горы, дом 4, корпус 1",район Соколиная Гора,Восточный административный округ,37.88664458272558,55.77226594704985,1920873.844342572,6420572.6772780325
113,2644,2644,Служба быта,"ремонт и техническое обслуживание бытовой радиоэлектронной аппаратуры, бытовых машин и бытовых приборов, техники",,нет,бытовые услуги,"город Москва, Солнцевский проспект, дом 15",район Солнцево,Западный административный округ,37.407112978560704,55.6486736989551,1896285.065126579,6397191.09584476
114,2697,2697,Дом быта «Виртуоз»,"ремонт и техническое обслуживание бытовой радиоэлектронной аппаратуры, бытовых машин и бытовых приборов, техники",,нет,бытовые услуги,"город Москва, Строгинский бульвар, дом 15",район Строгино,Северо-Западный административный округ,37.4037580948674,55.804207135808895,1890364.672536267,6413897.906833692
115,2702,2702,Ремонт телефонов «Stark Service»,"ремонт и техническое обслуживание бытовой радиоэлектронной аппаратуры, бытовых машин и бытовых приборов, техники",,нет,бытовые услуги,"город Москва, Строгинский бульвар, дом 26, корпус 2",район Строгино,Северо-Западный административный округ,37.40504107893142,55.80210792737049,1890519.8065016945,6413698.094114085
116,2736,2736,Upsremont,"ремонт и техническое обслуживание бытовой радиоэлектронной аппаратуры, бытовых машин и бытовых приборов, техники",,нет,бытовые услуги,"город Москва, Аминьевское шоссе, дом 36",район Фили-Давыдково,Западный административный округ,37.451334454439106,55.7208658881702,1896324.8054691583,6405897.006508367
117,2770,2770,Неоторекс,"ремонт и техническое обслуживание бытовой радиоэлектронной аппаратуры, бытовых машин и бытовых приборов, техники",,нет,бытовые услуги,"город Москва, Таганрогская улица, дом 6, строение 1",район Люблино,Юго-Восточный административный округ,37.7565779911105,55.684423902632,1916258.018931204,6408360.365432262
118,2844,2844,ЮНИК-МАСТЕР,"ремонт и техническое обслуживание бытовой радиоэлектронной аппаратуры, бытовых машин и бытовых приборов, техники",,нет,бытовые услуги,"город Москва, Старый Толмачёвский переулок, дом 17, строение 2",район Замоскворечье,Центральный административный округ,37.629134805331894,55.73865916987248,1906484.3656405641,6411526.07200451
119,2874,2874,Сервисный центр «BEST console»,"ремонт и техническое обслуживание бытовой радиоэлектронной аппаратуры, бытовых машин и бытовых приборов, техники",,нет,бытовые услуги,"город Москва, Большая Тульская улица, дом 2",Даниловский район,Южный административный округ,37.62072164048301,55.70963436191901,1907050.127724751,6408221.200484103
120,2879,2879,СОДРУЖЕСТВО-БО,"ремонт и техническое обслуживание бытовой радиоэлектронной аппаратуры, бытовых машин и бытовых приборов, техники",,нет,бытовые услуги,"город Москва, Большая Тульская улица, дом 2",Даниловский район,Южный административный округ,37.62077061304085,55.70915652020059,1907070.8426815309,6408170.71756062
121,2906,2906,Пункт по ремонту быт.машин,"ремонт и техническое обслуживание бытовой радиоэлектронной аппаратуры, бытовых машин и бытовых приборов, техники",,нет,бытовые услуги,"город Москва, улица Леси Украинки, дом 4, корпус 1",район Кунцево,Западный административный округ,37.4176568433673,55.7290974747301,1893971.930030851,6406085.352492313
122,2948,2948,Ремонт бытовой техники,"ремонт и техническое обслуживание бытовой радиоэлектронной аппаратуры, бытовых машин и бытовых приборов, техники",,нет,бытовые услуги,"город Москва, Уральская улица, дом 5",район Гольяново,Восточный административный округ,37.7977994417392,55.8143409641493,1913904.4636152312,6423225.973094657
123,2951,2951,Ремонт бытовой техники,"ремонт и техническое обслуживание бытовой радиоэлектронной аппаратуры, бытовых машин и бытовых приборов, техники",,нет,бытовые услуги,"город Москва, Уральская улица, дом 6, корпус 1",район Гольяново,Восточный административный округ,37.79932676987209,55.813757150200445,1914018.95895304,6423195.302870568
124,2956,2956,Ремонт бытовой техники,"ремонт и техническое обслуживание бытовой радиоэлектронной аппаратуры, бытовых машин и бытовых приборов, техники",,нет,бытовые услуги,"город Москва, Уральская улица, дом 6, корпус 1",район Гольяново,Восточный административный округ,37.79932676987209,55.813757150200445,1914018.95895304,6423195.302870568
125,3031,3031,Радиомастерская,"ремонт и техническое обслуживание бытовой радиоэлектронной аппаратуры, бытовых машин и бытовых приборов, техники",,нет,бытовые услуги,"город Москва, Большая Филёвская улица, дом 41, корпус 2",район Фили-Давыдково,Западный административный округ,37.477001830774256,55.741264554168524,1897134.9872627843,6408630.6321654515
126,3042,3042,Квикли сервис,"ремонт и техническое обслуживание бытовой радиоэлектронной аппаратуры, бытовых машин и бытовых приборов, техники",,нет,бытовые услуги,"город Москва, Флотская улица, дом 6/21",Головинский район,Северный административный округ,37.47863826592931,55.85008196460287,1893219.027460525,6420397.549398012
127,3044,3044,Ремонт бытовой техники,"ремонт и техническое обслуживание бытовой радиоэлектронной аппаратуры, бытовых машин и бытовых приборов, техники",,нет,бытовые услуги,"город Москва, Флотская улица, дом 17, корпус 1",район Ховрино,Северный административный округ,37.5076421724374,55.857564451646596,1894701.3281173368,6421806.947069747
128,3068,3068,Ремонт оргтехники,"ремонт и техническое обслуживание бытовой радиоэлектронной аппаратуры, бытовых машин и бытовых приборов, техники",,нет,бытовые услуги,"город Москва, Хавская улица, дом 3",Даниловский район,Южный административный округ,37.61390533477181,55.718859443135926,1906292.9958758226,6409072.823966621
129,3093,3093,Ремонт мобильных телефонов,"ремонт и техническое обслуживание бытовой радиоэлектронной аппаратуры, бытовых машин и бытовых приборов, техники",,нет,бытовые услуги,"город Москва, улица Хачатуряна, дом 20",район Отрадное,Северо-Восточный административный округ,37.60444462148483,55.861966985324166,1900405.9915826928,6424298.888138353
130,3100,3100,РЕМОНТ РАДИОАППАРАТУРЫ,"ремонт и техническое обслуживание бытовой радиоэлектронной аппаратуры, бытовых машин и бытовых приборов, техники",,нет,бытовые услуги,"город Москва, Химкинский бульвар, дом 16, корпус 1",район Северное Тушино,Северо-Западный административный округ,37.44299834877765,55.8519813923428,1890987.4167024759,6419862.725213374
131,3110,3110,ЦЕНТР РЕКЛАМАЦИИ ОРБИТА-СЕРВИС,"ремонт и техническое обслуживание бытовой радиоэлектронной аппаратуры, бытовых машин и бытовых приборов, техники",,нет,бытовые услуги,"город Москва, Холмогорская улица, дом 6, корпус 1",Ярославский район,Северо-Восточный административный округ,37.718150167531455,55.88200610274695,1906547.4563856132,6428838.64444397
132,3118,3118,Сервисный Центр,"ремонт и техническое обслуживание бытовой радиоэлектронной аппаратуры, бытовых машин и бытовых приборов, техники",,нет,бытовые услуги,"город Москва, Хорошёвское шоссе, дом 24",Хорошёвский район,Северный административный округ,37.5422179665077,55.7746522946104,1899866.691216301,6413589.015524727
133,3147,3147,РЕМОНТ БЫТОВОЙ Техники,"ремонт и техническое обслуживание бытовой радиоэлектронной аппаратуры, бытовых машин и бытовых приборов, техники",,нет,бытовые услуги,"город Москва, Большая Черёмушкинская улица, дом 4",Академический район,Юго-Западный административный округ,37.595098279575105,55.6881767472024,1906285.968153192,6405371.328334565
134,3163,3163,Ремонт бытовой техники,"ремонт и техническое обслуживание бытовой радиоэлектронной аппаратуры, бытовых машин и бытовых приборов, техники",,нет,бытовые услуги,"город Москва, Большая Черкизовская улица, дом 5, корпус 3",район Преображенское,Восточный административный округ,37.719842871381644,55.79810378511885,1909781.9472492347,6419835.535207743
135,3178,3178,Ремонт холодильников,"ремонт и техническое обслуживание бытовой радиоэлектронной аппаратуры, бытовых машин и бытовых приборов, техники",,нет,бытовые услуги,"город Москва, Хабаровская улица, дом 7/50",район Гольяново,Восточный административный округ,37.826216020551676,55.81707037036069,1915525.4136318362,6424119.5886136675
136,3224,3224,Ремонт ноутбуков,"ремонт и техническое обслуживание бытовой радиоэлектронной аппаратуры, бытовых машин и бытовых приборов, техники",,нет,бытовые услуги,"город Москва, Чистопрудный бульвар, дом 10, строение 1",Басманный район,Центральный административный округ,37.64213248698919,55.762243049266765,1906398.2402670118,6414340.299628463
137,3228,3228,ТЕХИНТЕРГРАД,"ремонт и техническое обслуживание бытовой радиоэлектронной аппаратуры, бытовых машин и бытовых приборов, техники",,нет,бытовые услуги,"город Москва, улица Чистова, дом 6А",район Текстильщики,Юго-Восточный административный округ,37.740503691633506,55.6951313538992,1914879.9240578688,6409175.253702938
138,3239,3239,Сервисный центр «Apple spa»,"ремонт и техническое обслуживание бытовой радиоэлектронной аппаратуры, бытовых машин и бытовых приборов, техники",,нет,бытовые услуги,"город Москва, улица Земляной Вал, дом 48Б",Таганский район,Центральный административный округ,37.6553819406566,55.75160915026859,1907598.815700188,6413472.020587949
139,3251,3251,Сервисный центр,"ремонт и техническое обслуживание бытовой радиоэлектронной аппаратуры, бытовых машин и бытовых приборов, техники",,нет,бытовые услуги,"город Москва, Чонгарский бульвар, дом 9",Нагорный район,Южный административный округ,37.610876262187965,55.652767766786845,1908559.9257412588,6401884.394731076
140,3252,3252,Сервисный центр «MOBI 911»,"ремонт и техническое обслуживание бытовой радиоэлектронной аппаратуры, бытовых машин и бытовых приборов, техники",,нет,бытовые услуги,"город Москва, Чонгарский бульвар, дом 10, корпус 1",Нагорный район,Южный административный округ,37.61437731747089,55.653663260758094,1908740.1392408984,6402054.34099784
141,3288,3288,Приемный пункт Сервесного центра,"ремонт и техническое обслуживание бытовой радиоэлектронной аппаратуры, бытовых машин и бытовых приборов, техники",,нет,бытовые услуги,"город Москва, проспект 60-летия Октября, дом 16, корпус 1",Академический район,Юго-Западный административный округ,37.57449486230916,55.69058685588182,1904941.8993314719,6405200.014961982
142,3292,3292,Ремонт кофемашин,"ремонт и техническое обслуживание бытовой радиоэлектронной аппаратуры, бытовых машин и бытовых приборов, техники",,нет,бытовые услуги,"город Москва, Шипиловский проезд, дом 43, корпус 2",район Орехово-Борисово Северное,Южный административный округ,37.699147322698266,55.611340910959655,1915482.0443988775,6399273.316339552
143,3293,3293,"Ремот бытовой, аудио, цифровой техники","ремонт и техническое обслуживание бытовой радиоэлектронной аппаратуры, бытовых машин и бытовых приборов, техники",,нет,бытовые услуги,"город Москва, Шипиловский проезд, дом 45, корпус 1",район Орехово-Борисово Северное,Южный административный округ,37.698041294614335,55.609977970405275,1915465.277825305,6399103.103170582
144,3301,3301,Мастерская по ремонту аппаратуры,"ремонт и техническое обслуживание бытовой радиоэлектронной аппаратуры, бытовых машин и бытовых приборов, техники",,нет,бытовые услуги,"город Москва, Шипиловская улица, дом 48, корпус 1",район Зябликово,Южный административный округ,37.735749335043764,55.621344689010485,1917342.2123529816,6401123.125100704
145,3327,3327,Ремонт радиоаппаратуры,"ремонт и техническое обслуживание бытовой радиоэлектронной аппаратуры, бытовых машин и бытовых приборов, техники",,нет,бытовые услуги,"город Москва, улица Шолохова, дом 24",район Ново-Переделкино,Западный административный округ,37.3489390884576,55.6416557433067,1892992.8953514372,6395227.28367014
146,3387,3387,Оцелот,"ремонт и техническое обслуживание бытовой радиоэлектронной аппаратуры, бытовых машин и бытовых приборов, техники",,нет,бытовые услуги,"город Москва, Южнопортовая улица, дом 16",Южнопортовый район,Юго-Восточный административный округ,37.68392166602813,55.707150856279895,1910988.561894297,6409279.768845762
147,3427,3427,"Сервисный центр, ремонт техники","ремонт и техническое обслуживание бытовой радиоэлектронной аппаратуры, бытовых машин и бытовых приборов, техники",,нет,бытовые услуги,"город Москва, Югорский проезд, дом 2, строение 1",Ярославский район,Северо-Восточный административный округ,37.706688000000014,55.874731792065724,1906124.922352905,6427814.519079612
148,3451,3451,Технический центр «Гудвин»,"ремонт и техническое обслуживание бытовой радиоэлектронной аппаратуры, бытовых машин и бытовых приборов, техники",,нет,бытовые услуги,"город Москва, город Зеленоград, корпус 447",район Матушкино,Зеленоградский административный округ,37.2105392442762,55.9914368137108,1871794.9576634325,6430113.22699402
149,3492,3492,Сервисный центр,"ремонт и техническое обслуживание бытовой радиоэлектронной аппаратуры, бытовых машин и бытовых приборов, техники",,нет,бытовые услуги,"город Москва, Новоспасский переулок, дом 3, корпус 1",Таганский район,Центральный административный округ,37.6549705492095,55.734161400271105,1908222.5868392512,6411582.95830755
150,3493,3493,РТЦ СОВИНСЕРВИС,"ремонт и техническое обслуживание бытовой радиоэлектронной аппаратуры, бытовых машин и бытовых приборов, техники",,нет,бытовые услуги,"город Москва, улица Бочкова, дом 6, корпус 2",Останкинский район,Северо-Восточный административный округ,37.633888386351906,55.81088126703169,1904089.7099795688,6419409.361734147
151,3513,3513,СЕРВИС-ВМ,"ремонт и техническое обслуживание бытовой радиоэлектронной аппаратуры, бытовых машин и бытовых приборов, техники",,нет,бытовые услуги,"город Москва, Коктебельская улица, дом 4, корпус 1",район Северное Бутово,Юго-Западный административный округ,37.586040557372925,55.56572944036352,1910267.9624987391,6391978.478700058
152,3606,3606,РЕМОНТ БЫТОВОЙ ТЕХНИКИ,"ремонт и техническое обслуживание бытовой радиоэлектронной аппаратуры, бытовых машин и бытовых приборов, техники",,нет,бытовые услуги,"город Москва, Пятницкое шоссе, дом 37",район Митино,Северо-Западный административный округ,37.35610903676398,55.854492866508174,1885624.5565550409,6418335.576583345
153,3619,3619,РемонтIФото,"ремонт и техническое обслуживание бытовой радиоэлектронной аппаратуры, бытовых машин и бытовых приборов, техники",,нет,бытовые услуги,"город Москва, Алтуфьевское шоссе, дом 40Г",район Отрадное,Северо-Восточный административный округ,37.59038391473458,55.871327929461145,1899206.3962335924,6425014.092499369
154,3677,3677,РЕМОНТ БЫТ. ТЕХНИКИ,"ремонт и техническое обслуживание бытовой радиоэлектронной аппаратуры, бытовых машин и бытовых приборов, техники",,нет,бытовые услуги,"город Москва, Ангелов переулок, дом 2",район Митино,Северо-Западный административный округ,37.350357435805,55.8540838212734,1885290.654829277,6418172.70332376
155,3707,3707,Ремонт бытовой техники,"ремонт и техническое обслуживание бытовой радиоэлектронной аппаратуры, бытовых машин и бытовых приборов, техники",,нет,бытовые услуги,"город Москва, 9-я Чоботовская аллея, дом 1, строение 1",район Ново-Переделкино,Западный административный округ,37.352420154072,55.6555111922322,1892697.7528959452,6396794.411155287
156,3770,3770,Салон «Техноприбор»,"ремонт и техническое обслуживание бытовой радиоэлектронной аппаратуры, бытовых машин и бытовых приборов, техники",,нет,бытовые услуги,"город Москва, Марьинский бульвар, дом 4",район Марьино,Юго-Восточный административный округ,37.749818553954185,55.64795541517657,1917207.47972417,6404287.868445506
157,3877,3877,Ремонт сотовых телефонов,"ремонт и техническое обслуживание бытовой радиоэлектронной аппаратуры, бытовых машин и бытовых приборов, техники",,нет,бытовые услуги,"город Москва, Новомарьинская улица, дом 14/15",район Марьино,Юго-Восточный административный округ,37.75849896746802,55.6542342940482,1917502.0854504488,6405147.692508928
158,3900,3900,Ремонт сотовых телефонов,"ремонт и техническое обслуживание бытовой радиоэлектронной аппаратуры, бытовых машин и бытовых приборов, техники",,нет,бытовые услуги,"город Москва, Братиславская улица, дом 16, корпус 3",район Марьино,Юго-Восточный административный округ,37.75619852854624,55.657916742974095,1917224.4707803824,6405495.9738741
159,3917,3917,Павильон «Ремонт телефонов»,"ремонт и техническое обслуживание бытовой радиоэлектронной аппаратуры, бытовых машин и бытовых приборов, техники",,нет,бытовые услуги,"город Москва, Братиславская улица, дом 14",район Марьино,Юго-Восточный административный округ,37.75458027846062,55.659274819436966,1917075.1930670012,6405608.176351383
160,3950,3950,Ремонт бытовой техники «MASTER-TV»,"ремонт и техническое обслуживание бытовой радиоэлектронной аппаратуры, бытовых машин и бытовых приборов, техники",,нет,бытовые услуги,"город Москва, Братиславская улица, дом 8",район Марьино,Юго-Восточный административный округ,37.752186316324554,55.66286015235369,1916795.5421207391,6405944.031977296
161,3960,3960,ИСервис Лефортово ИРП,"ремонт и техническое обслуживание бытовой радиоэлектронной аппаратуры, бытовых машин и бытовых приборов, техники",ИРП,да,бытовые услуги,"город Москва, шоссе Энтузиастов, дом 11А, корпус 2",район Лефортово,Юго-Восточный административный округ,37.7133246885367,55.7521615342454,1911099.773828944,6414748.407471484
162,3974,3974,Ремонт бытовой техники,"ремонт и техническое обслуживание бытовой радиоэлектронной аппаратуры, бытовых машин и бытовых приборов, техники",,нет,бытовые услуги,"город Москва, Новомарьинская улица, дом 36, корпус 1",район Марьино,Юго-Восточный административный округ,37.772645846021504,55.66047984283814,1918130.7147874788,6406119.373885305
163,4012,4012,ЛИЗУНОВ П.Н.,"ремонт и техническое обслуживание бытовой радиоэлектронной аппаратуры, бытовых машин и бытовых приборов, техники",,нет,бытовые услуги,"город Москва, улица Строителей, дом 4, корпус 6",Гагаринский район,Юго-Западный административный округ,37.53657816340813,55.68725920926831,1902755.568049153,6404048.827400178
164,4188,4188,Ремонт бытовой техники,"ремонт и техническое обслуживание бытовой радиоэлектронной аппаратуры, бытовых машин и бытовых приборов, техники",,нет,бытовые услуги,"город Москва, Южнобутовская улица, дом 139",район Южное Бутово,Юго-Западный административный округ,37.5122555719446,55.5295759746796,1907091.2680471945,6386533.93044301
165,4260,4260,ВОСТОК ПОЛЮС,"ремонт и техническое обслуживание бытовой радиоэлектронной аппаратуры, бытовых машин и бытовых приборов, техники",,нет,бытовые услуги,"город Москва, Кутузовский проспект, дом 35",район Дорогомилово,Западный административный округ,37.5373578229294,55.7402170910585,1900845.0610991463,6409775.15457206
166,4317,4317,Ремонт сотовых телефонов,"ремонт и техническое обслуживание бытовой радиоэлектронной аппаратуры, бытовых машин и бытовых приборов, техники",,нет,бытовые услуги,"город Москва, Строгинский бульвар, дом 7, корпус 1",район Строгино,Северо-Западный административный округ,37.39964,55.805643,1890061.7405893502,6413967.468085378
167,4324,4324,РЕМОНТ ТЕЛЕФОНОВ,"ремонт и техническое обслуживание бытовой радиоэлектронной аппаратуры, бытовых машин и бытовых приборов, техники",,нет,бытовые услуги,"город Москва, Пятницкое шоссе, дом 16",район Митино,Северо-Западный административный округ,37.384893559078705,55.8422003588538,1887822.515094901,6417604.763886171
168,4361,4361,РЕМОНТ ТЕЛЕФОНОВ,"ремонт и техническое обслуживание бытовой радиоэлектронной аппаратуры, бытовых машин и бытовых приборов, техники",,нет,бытовые услуги,"город Москва, улица Генерала Белобородова, дом 19",район Митино,Северо-Западный административный округ,37.35757898733189,55.835636054968205,1886405.9996718531,6416332.22292901
169,4397,4397,Эжени,"ремонт и техническое обслуживание бытовой радиоэлектронной аппаратуры, бытовых машин и бытовых приборов, техники",,нет,бытовые услуги,"город Москва, Ленинградский проспект, дом 69, строение 1",район Сокол,Северный административный округ,37.517911667562096,55.802969081948,1897342.9197895539,6416135.191881741
170,4429,4429,Ремонт компьютеров,"ремонт и техническое обслуживание бытовой радиоэлектронной аппаратуры, бытовых машин и бытовых приборов, техники",,нет,бытовые услуги,"город Москва, Ангарская улица, дом 22, корпус 1",район Западное Дегунино,Северный административный округ,37.517462891732215,55.87585960454803,1894619.956570102,6423983.261171588
171,4493,4493,Ремонт-это как два пальца,"ремонт и техническое обслуживание бытовой радиоэлектронной аппаратуры, бытовых машин и бытовых приборов, техники",,нет,бытовые услуги,"город Москва, город Зеленоград, корпус 1805",район Крюково,Зеленоградский административный округ,37.162558,55.980373,1869296.96442954,6427938.823241913
172,4505,4505,Ремонт техники,"ремонт и техническое обслуживание бытовой радиоэлектронной аппаратуры, бытовых машин и бытовых приборов, техники",,нет,бытовые услуги,"город Москва, Братеевская улица, дом 10, корпус 1",район Братеево,Южный административный округ,37.76066393038611,55.632627446763145,1918440.561460377,6402864.932343761
173,4710,4710,Сервисный центр,"ремонт и техническое обслуживание бытовой радиоэлектронной аппаратуры, бытовых машин и бытовых приборов, техники",,нет,бытовые услуги,"город Москва, улица Бориса Галушкина, дом 17",Алексеевский район,Северо-Восточный административный округ,37.65893040597052,55.82405094970835,1905119.1845033604,6421352.947913848
174,4989,4989,Ремонт офисных машин и вычислительной техники,"ремонт и техническое обслуживание бытовой радиоэлектронной аппаратуры, бытовых машин и бытовых приборов, техники",,нет,бытовые услуги,"город Москва, улица Покрышкина, домовладение 8, строение 3",район Тропарёво-Никулино,Западный административный округ,37.464875,55.66533073119395,1899195.0606371618,6400188.98474994
175,5047,5047,СЕРВИСНЫЙ ЦЕНТР,"ремонт и техническое обслуживание бытовой радиоэлектронной аппаратуры, бытовых машин и бытовых приборов, техники",,нет,бытовые услуги,"город Москва, улица Героев Панфиловцев, дом 17, корпус 2",район Северное Тушино,Северо-Западный административный округ,37.42725372670621,55.85488558662493,1889925.4902627203,6419849.525927906
176,5065,5065,CAFE-PROFF,"ремонт и техническое обслуживание бытовой радиоэлектронной аппаратуры, бытовых машин и бытовых приборов, техники",,нет,бытовые услуги,"город Москва, Соколово-Мещерская улица, дом 25",район Куркино,Северо-Западный административный округ,37.384585,55.902868,1885573.181891701,6424140.430140424
177,5084,5084,Ремонт компьютеров «ГрафКом»,"ремонт и техническое обслуживание бытовой радиоэлектронной аппаратуры, бытовых машин и бытовых приборов, техники",,нет,бытовые услуги,"город Москва, Родионовская улица, дом 10, корпус 1",район Куркино,Северо-Западный административный округ,37.390283922713024,55.89560051999616,1886185.7405420528,6423474.573188714
178,5209,5209,Ремонт бытовой техники,"ремонт и техническое обслуживание бытовой радиоэлектронной аппаратуры, бытовых машин и бытовых приборов, техники",,нет,бытовые услуги,"город Москва, Загорьевская улица, дом 25",район Бирюлёво Восточное,Южный административный округ,37.6946565137936,55.58344905024191,1916245.6254453168,6396172.0221430035
179,5407,5407,Ремонт оргтехники,"ремонт и техническое обслуживание бытовой радиоэлектронной аппаратуры, бытовых машин и бытовых приборов, техники",,нет,бытовые услуги,"город Москва, город Троицк, Солнечная улица, дом 10",поселение Троицк,Троицкий административный округ,37.29276540997139,55.46963737773492,1895843.063715188,6375496.923240918
180,5409,5409,Ремонт бытовой техники,"ремонт и техническое обслуживание бытовой радиоэлектронной аппаратуры, бытовых машин и бытовых приборов, техники",,нет,бытовые услуги,"город Москва, город Троицк, Нагорная улица, дом 9",поселение Троицк,Троицкий административный округ,37.29966147572883,55.49197903448263,1895450.8688905109,6378051.812855425
181,5415,5415,Магазин-мастерская «Ремотека»,"ремонт и техническое обслуживание бытовой радиоэлектронной аппаратуры, бытовых машин и бытовых приборов, техники",,нет,бытовые услуги,"город Москва, город Троицк, Академическая площадь, дом 1",поселение Троицк,Троицкий административный округ,37.303827,55.48525,1895951.7573005809,6377411.673840009
182,5420,5420,Ремонт сотовых телефонов,"ремонт и техническое обслуживание бытовой радиоэлектронной аппаратуры, бытовых машин и бытовых приборов, техники",,нет,бытовые услуги,"город Москва, город Троицк, Академическая площадь, дом 3",поселение Троицк,Троицкий административный округ,37.30480823729837,55.484435491814885,1896041.6356384791,6377344.076350244
183,5466,5466,Ремонт телефонов,"ремонт и техническое обслуживание бытовой радиоэлектронной аппаратуры, бытовых машин и бытовых приборов, техники",,нет,бытовые услуги,"город Москва, поселение Сосенское, улица Александры Монаховой, дом 101",поселение Сосенское,Новомосковский административный округ,37.492644,55.540475,1905489.785847596,6387299.857134386
184,5509,5509,"Ремонт телефонов, компьютеров","ремонт и техническое обслуживание бытовой радиоэлектронной аппаратуры, бытовых машин и бытовых приборов, техники",,нет,бытовые услуги,"город Москва, улица Рождественка, дом 5/7, строение 1",Мещанский район,Центральный административный округ,37.623246269805016,55.76159700947442,1905274.550222513,6413875.044632501
185,5533,5533,Ремонт сотовых телефонов,"ремонт и техническое обслуживание бытовой радиоэлектронной аппаратуры, бытовых машин и бытовых приборов, техники",,нет,бытовые услуги,"город Москва, Новокузнецкая улица, дом 39",район Замоскворечье,Центральный административный округ,37.635562757553956,55.73228643614395,1907111.9756804882,6410973.896166783
186,5547,5547,РЕМОНТ БЫТОВОЙ ТЕХНИКИ,"ремонт и техническое обслуживание бытовой радиоэлектронной аппаратуры, бытовых машин и бытовых приборов, техники",,нет,бытовые услуги,"город Москва, улица Уткина, дом 40А",район Соколиная Гора,Восточный административный округ,37.744771229892045,55.76380906564227,1912575.7315140013,6416665.083037056
187,5549,5549,Ремонт бытовой техники,"ремонт и техническое обслуживание бытовой радиоэлектронной аппаратуры, бытовых машин и бытовых приборов, техники",,нет,бытовые услуги,"город Москва, 2-я Владимирская улица, дом 19",район Перово,Восточный административный округ,37.7816459165642,55.75841630461031,1915017.240894896,6416861.1967150485
188,5570,5570,Ремонт телефонов,"ремонт и техническое обслуживание бытовой радиоэлектронной аппаратуры, бытовых машин и бытовых приборов, техники",,нет,бытовые услуги,"город Москва, проезд Дежнёва, дом 23",район Южное Медведково,Северо-Восточный административный округ,37.63722329207156,55.86969038883075,1902105.0938676745,6425816.2341540875
189,5575,5575,Ремонт бытовой техники,"ремонт и техническое обслуживание бытовой радиоэлектронной аппаратуры, бытовых машин и бытовых приборов, техники",,нет,бытовые услуги,"город Москва, Алтуфьевское шоссе, дом 22",район Отрадное,Северо-Восточный административный округ,37.585510348725904,55.859477280571504,1899350.8641373154,6423635.275910223
190,5687,5687,Ремонт бытовой техники,"ремонт и техническое обслуживание бытовой радиоэлектронной аппаратуры, бытовых машин и бытовых приборов, техники",,нет,бытовые услуги,"город Москва, Варшавское шоссе, дом 102, строение 2",Нагорный район,Южный административный округ,37.61896094989905,55.64459200643561,1909355.988705524,6401172.472190256
191,5693,5693,Ремонт телевизоров,"ремонт и техническое обслуживание бытовой радиоэлектронной аппаратуры, бытовых машин и бытовых приборов, техники",,нет,бытовые услуги,"город Москва, Булатниковская улица, дом 6, корпус 1",район Бирюлёво Западное,Южный административный округ,37.6440164075918,55.58097486218529,1913245.019818973,6394839.600083964
192,5701,5701,Приемный пункт ремонта бытовой техники,"ремонт и техническое обслуживание бытовой радиоэлектронной аппаратуры, бытовых машин и бытовых приборов, техники",,нет,бытовые услуги,"город Москва, Чертановская улица, дом 48А",район Чертаново Центральное,Южный административный округ,37.58971405194852,55.60741581019526,1908949.3477611975,6396550.850442343
193,5704,5704,Ремонт бытовой техники,"ремонт и техническое обслуживание бытовой радиоэлектронной аппаратуры, бытовых машин и бытовых приборов, техники",,нет,бытовые услуги,"город Москва, Чертановская улица, дом 45А, корпус 1",район Чертаново Центральное,Южный административный округ,37.59155455785249,55.60730061966418,1909065.958707324,6396577.005495368
194,5769,5769,Ремонт бытовой техники.Ремонт обуви,"ремонт и техническое обслуживание бытовой радиоэлектронной аппаратуры, бытовых машин и бытовых приборов, техники",,нет,бытовые услуги,"город Москва, микрорайон Северное Чертаново, корпус 806",район Чертаново Северное,Южный административный округ,37.5946163330517,55.6357686003466,1908198.4559541948,6399710.789371436
195,5780,5780,Ремонт бытовой техники,"ремонт и техническое обслуживание бытовой радиоэлектронной аппаратуры, бытовых машин и бытовых приборов, техники",,нет,бытовые услуги,"город Москва, Коптевская улица, дом 24А",район Коптево,Северный административный округ,37.522744,55.833983,1896489.2990774082,6419579.158724184
196,5815,5815,Ремонт быттехники,"ремонт и техническое обслуживание бытовой радиоэлектронной аппаратуры, бытовых машин и бытовых приборов, техники",,нет,бытовые услуги,"город Москва, Дубнинская улица, дом 32",район Восточное Дегунино,Северный административный округ,37.55850858332704,55.88336583742284,1896828.7714359432,6425646.720232704
197,5836,5836,REMPHONE,"ремонт и техническое обслуживание бытовой радиоэлектронной аппаратуры, бытовых машин и бытовых приборов, техники",,нет,бытовые услуги,"город Москва, Страстной бульвар, дом 7, строение 3",Тверской район,Центральный административный округ,37.60818112815516,55.76775356749899,1904130.5223860182,6414223.29447755
198,5855,5855,СЕРВИСНЫЙ ЦЕНТР,"ремонт и техническое обслуживание бытовой радиоэлектронной аппаратуры, бытовых машин и бытовых приборов, техники",,нет,бытовые услуги,"город Москва, улица Петровка, дом 2, строение 1",Тверской район,Центральный административный округ,37.61957819205863,55.76039773454505,1905096.164642174,6413668.984669488
199,5860,5860,РЕМОНТ БЫТОВОЙ ТЕХНИКИ,"ремонт и техническое обслуживание бытовой радиоэлектронной аппаратуры, бытовых машин и бытовых приборов, техники",,нет,бытовые услуги,"город Москва, Ясный проезд, дом 10",район Южное Медведково,Северо-Восточный административный округ,37.62885656224031,55.8740570743614,1901435.8252156847,6426111.789942242
200,5891,5891,Ремонт бытовой техники,"ремонт и техническое обслуживание бытовой радиоэлектронной аппаратуры, бытовых машин и бытовых приборов, техники",,нет,бытовые услуги,"город Москва, улица Мичуринский Проспект, Олимпийская Деревня, дом 4, корпус 2",район Тропарёво-Никулино,Западный административный округ,37.46969299999991,55.675288,1899121.9459735912,6401363.252837783
201,5922,5922,Ремонт телефонов,"ремонт и техническое обслуживание бытовой радиоэлектронной аппаратуры, бытовых машин и бытовых приборов, техники",,нет,бытовые услуги,"город Москва, Боровское шоссе, дом 27",район Ново-Переделкино,Западный административный округ,37.365748,55.64475,1893905.2615381198,6395909.475706226
202,5931,5931,Ремонт мобильных телефонов,"ремонт и техническое обслуживание бытовой радиоэлектронной аппаратуры, бытовых машин и бытовых приборов, техники",,нет,бытовые услуги,"город Москва, Россошанский проезд, дом 3",район Чертаново Южное,Южный административный округ,37.60855715559418,55.60046922421449,1910356.9219878973,6396196.923578196
203,5941,5941,Роско,"ремонт и техническое обслуживание бытовой радиоэлектронной аппаратуры, бытовых машин и бытовых приборов, техники",,нет,бытовые услуги,"город Москва, улица Юннатов, дом 18",Савёловский район,Северный административный округ,37.5587030639338,55.802875630113796,1899823.100929133,6416975.335986328
204,5947,5947,Сервисный центр Wefix,"ремонт и техническое обслуживание бытовой радиоэлектронной аппаратуры, бытовых машин и бытовых приборов, техники",,нет,бытовые услуги,"город Москва, улица Шаболовка, дом 12",район Якиманка,Центральный административный округ,37.610213710400544,55.723109719473435,1905910.6900550984,6409453.67423883
205,5950,5950,"Фотография, ремонт бытовой техники","ремонт и техническое обслуживание бытовой радиоэлектронной аппаратуры, бытовых машин и бытовых приборов, техники",,нет,бытовые услуги,"город Москва, улица Обручева, дом 16, корпус 1",Обручевский район,Юго-Западный административный округ,37.514412,55.658774,1902456.9290584843,6400514.366252633
206,5951,5951,Сервисный центр,"ремонт и техническое обслуживание бытовой радиоэлектронной аппаратуры, бытовых машин и бытовых приборов, техники",,нет,бытовые услуги,"город Москва, улица Обручева, дом 16, корпус 1",Обручевский район,Юго-Западный административный округ,37.514412,55.658774,1902456.9290584843,6400514.366252633
207,5976,5976,Малхасян А.Р,"ремонт и техническое обслуживание бытовой радиоэлектронной аппаратуры, бытовых машин и бытовых приборов, техники",,нет,бытовые услуги,"город Москва, улица Каховка, дом 20, строение 2",район Черёмушки,Юго-Западный административный округ,37.56820338101857,55.658274253701066,1905754.6729005354,6401584.433206667
208,5983,5983,ССМ,"ремонт и техническое обслуживание бытовой радиоэлектронной аппаратуры, бытовых машин и бытовых приборов, техники",,нет,бытовые услуги,"город Москва, улица Гарибальди, дом 25, корпус 1",район Черёмушки,Юго-Западный административный округ,37.55621240048534,55.67052391546533,1904570.6269259416,6402654.505168006
209,5987,5987,Мастерская по ремонту велосипедов,"ремонт и техническое обслуживание бытовой радиоэлектронной аппаратуры, бытовых машин и бытовых приборов, техники",,нет,бытовые услуги,"город Москва, улица Свободы, дом 89, корпус 5",район Северное Тушино,Северо-Западный административный округ,37.442385915435835,55.86599677460385,1890433.6413999156,6421361.137746583
210,6024,6024,Ремонт бытовой техники,"ремонт и техническое обслуживание бытовой радиоэлектронной аппаратуры, бытовых машин и бытовых приборов, техники",,нет,бытовые услуги,"город Москва, улица Преображенский Вал, дом 1, строение 1",район Преображенское,Восточный административный округ,37.7142259107653,55.7955258101584,1909537.219598253,6419439.73098356
211,6109,6109,Мюнхгаузен,"ремонт и техническое обслуживание бытовой радиоэлектронной аппаратуры, бытовых машин и бытовых приборов, техники",,нет,бытовые услуги,"город Москва, улица Раменки, дом 23",район Раменки,Западный административный округ,37.49297202509008,55.689832313684235,1900004.217930204,6403416.718907785
212,6134,6134,Ремонт телефонов,"ремонт и техническое обслуживание бытовой радиоэлектронной аппаратуры, бытовых машин и бытовых приборов, техники",,нет,бытовые услуги,"город Москва, Часовая улица, дом 11",район Аэропорт,Северный административный округ,37.620393,55.75396,1905384.7162384847,6412992.163423901
213,6145,6145,Астра-Сервис,"ремонт и техническое обслуживание бытовой радиоэлектронной аппаратуры, бытовых машин и бытовых приборов, техники",,нет,бытовые услуги,"город Москва, Люсиновская улица, дом 39, строение 5",район Замоскворечье,Центральный административный округ,37.62274007264397,55.72247993016867,1906696.150004439,6409648.158651562
214,6149,6149,Восток,"ремонт и техническое обслуживание бытовой радиоэлектронной аппаратуры, бытовых машин и бытовых приборов, техники",,нет,бытовые услуги,"город Москва, Пятницкая улица, дом 30, строение 1",район Замоскворечье,Центральный административный округ,37.62815540944887,55.74031959384255,1906363.1462117452,6411684.520855751
215,6150,6150,Ремонт электроники,"ремонт и техническое обслуживание бытовой радиоэлектронной аппаратуры, бытовых машин и бытовых приборов, техники",,нет,бытовые услуги,"город Москва, Пятницкая улица, дом 18, строение 4",район Замоскворечье,Центральный административный округ,37.62733288051751,55.742084651054135,1906247.5835945853,6411857.535178084
216,6217,6217,Ремонт бытовой техники,"ремонт и техническое обслуживание бытовой радиоэлектронной аппаратуры, бытовых машин и бытовых приборов, техники",,нет,бытовые услуги,"город Москва, Вешняковская улица, дом 29Б",район Вешняки,Восточный административный округ,37.8296623399436,55.7234783955014,1919243.3635555282,6414111.733042646
217,6247,6247,Ремонт бытовой техники,"ремонт и техническое обслуживание бытовой радиоэлектронной аппаратуры, бытовых машин и бытовых приборов, техники",,нет,бытовые услуги,"город Москва, Кетчерская улица, дом 13",район Вешняки,Восточный административный округ,37.83774712334087,55.745877039503206,1918895.080493887,6416695.42946579
218,6251,6251,Ремонт бытовой техники,"ремонт и техническое обслуживание бытовой радиоэлектронной аппаратуры, бытовых машин и бытовых приборов, техники",,нет,бытовые услуги,"город Москва, Вешняковская улица, дом 29А",район Вешняки,Восточный административный округ,37.828802943409435,55.72376786422081,1919180.2675768281,6414124.7381139565
219,6306,6306,Ремонт бытовой техники,"ремонт и техническое обслуживание бытовой радиоэлектронной аппаратуры, бытовых машин и бытовых приборов, техники",,нет,бытовые услуги,"город Москва, Ясеневая улица, дом 32, корпус 3",район Орехово-Борисово Южное,Южный административный округ,37.74028731134012,55.60300186823275,1918302.859754896,6399241.8802235415
220,6315,6315,Компьютерный Сервис,"ремонт и техническое обслуживание бытовой радиоэлектронной аппаратуры, бытовых машин и бытовых приборов, техники",,нет,бытовые услуги,"город Москва, улица Генерала Белова, дом 19, корпус 4",район Орехово-Борисово Северное,Южный административный округ,37.719369,55.617779,1916475.986657133,6400393.382472216
221,6317,6317,Ремонт бытовой техники,"ремонт и техническое обслуживание бытовой радиоэлектронной аппаратуры, бытовых машин и бытовых приборов, техники",,нет,бытовые услуги,"город Москва, улица Генерала Белова, дом 19, корпус 4",район Орехово-Борисово Северное,Южный административный округ,37.7194027816463,55.61778859591666,1916477.6898381482,6400395.128905235
222,6338,6338,Ремонт бытовой техники,"ремонт и техническое обслуживание бытовой радиоэлектронной аппаратуры, бытовых машин и бытовых приборов, техники",,нет,бытовые услуги,"город Москва, Пролетарский проспект, дом 20, корпус 2",район Царицыно,Южный административный округ,37.65791193153402,55.633326107181965,1912149.307996153,6400775.7061660765
223,6517,6517,Ibolit,"ремонт и техническое обслуживание бытовой радиоэлектронной аппаратуры, бытовых машин и бытовых приборов, техники",,нет,бытовые услуги,"город Москва, улица Арбат, дом 12, строение 1",район Арбат,Центральный административный округ,37.59595821889428,55.75112705247009,1904004.461832269,6412175.446266651
224,6536,6536,Ремонт бытовой техники «КВАНТИС-СЕРВИС»,"ремонт и техническое обслуживание бытовой радиоэлектронной аппаратуры, бытовых машин и бытовых приборов, техники",,нет,бытовые услуги,"город Москва, Филёвский бульвар, дом 10",район Филёвский Парк,Западный административный округ,37.48733017638674,55.764096931422436,1896920.7499777009,6411307.567294861
225,6551,6551,Клевертико,"ремонт и техническое обслуживание бытовой радиоэлектронной аппаратуры, бытовых машин и бытовых приборов, техники",,нет,бытовые услуги,"город Москва, 1-й Вязовский проезд, дом 4, строение 5",Рязанский район,Юго-Восточный административный округ,37.758968,55.718915,1915115.374072627,6412127.207792103
226,6633,6633,Ремонт техники «Apple»,"ремонт и техническое обслуживание бытовой радиоэлектронной аппаратуры, бытовых машин и бытовых приборов, техники",,нет,бытовые услуги,"город Москва, Волгоградский проспект, дом 10, строение 2",Таганский район,Центральный административный округ,37.6741822071326,55.729924366971616,1909548.52166134,6411529.542714328
227,6650,6650,Ателье «Panasonic»,"ремонт и техническое обслуживание бытовой радиоэлектронной аппаратуры, бытовых машин и бытовых приборов, техники",,нет,бытовые услуги,"город Москва, улица Россолимо, дом 17, строение 1",район Хамовники,Центральный административный округ,37.5779785467678,55.733532527954246,1903563.2866965781,6409902.820943714
228,6663,6663,Ремонт бытовой техники,"ремонт и техническое обслуживание бытовой радиоэлектронной аппаратуры, бытовых машин и бытовых приборов, техники",,нет,бытовые услуги,"город Москва, Вольная улица, дом 25, строение 3",район Соколиная Гора,Восточный административный округ,37.732341,55.777712,1911301.7137210798,6417901.360518058
229,6695,6695,Протор-Сервис,"ремонт и техническое обслуживание бытовой радиоэлектронной аппаратуры, бытовых машин и бытовых приборов, техники",,нет,бытовые услуги,"город Москва, город Зеленоград, корпус 1534",район Крюково,Зеленоградский административный округ,37.154094837767694,55.9827286457968,1868699.288119293,6428020.156482716
230,6707,6707,РАДИОМОБАЙЛ СЕРВИС,"ремонт и техническое обслуживание бытовой радиоэлектронной аппаратуры, бытовых машин и бытовых приборов, техники",,нет,бытовые услуги,"город Москва, Авиамоторная улица, дом 44, строение 2",район Лефортово,Юго-Восточный административный округ,37.71983172760449,55.7384168365828,1912007.819486513,6413404.2393094
231,6738,6738,Ремонт и продажа телефонов,"ремонт и техническое обслуживание бытовой радиоэлектронной аппаратуры, бытовых машин и бытовых приборов, техники",,нет,бытовые услуги,"город Москва, Смольная улица, дом 24Б",район Ховрино,Северный административный округ,37.483577393157404,55.86067748489889,1893127.270872572,6421642.395092033
232,6739,6739,Ремонт техники,"ремонт и техническое обслуживание бытовой радиоэлектронной аппаратуры, бытовых машин и бытовых приборов, техники",,нет,бытовые услуги,"город Москва, улица Народного Ополчения, дом 34",район Хорошёво-Мнёвники,Северо-Западный административный округ,37.485359832403354,55.785958701322336,1895994.1455279973,6413623.807079863
233,6771,6771,Техцентр «ЮНик+»,"ремонт и техническое обслуживание бытовой радиоэлектронной аппаратуры, бытовых машин и бытовых приборов, техники",,нет,бытовые услуги,"город Москва, Новоалексеевская улица, дом 14, строение 1",Алексеевский район,Северо-Восточный административный округ,37.64592470961696,55.808264209026234,1904917.4524918837,6419379.36240634
234,6772,6772,Зенин Алексей Анатольевич,"ремонт и техническое обслуживание бытовой радиоэлектронной аппаратуры, бытовых машин и бытовых приборов, техники",,нет,бытовые услуги,"город Москва, улица Сущёвский Вал, дом 5, строение 20",район Марьина Роща,Северо-Восточный административный округ,37.5933190393258,55.7939395740078,1902256.1367266213,6416734.949497114
235,6774,6774,Ремонт сотовых телефонов,"ремонт и техническое обслуживание бытовой радиоэлектронной аппаратуры, бытовых машин и бытовых приборов, техники",,нет,бытовые услуги,"город Москва, улица Декабристов, дом 15А",район Отрадное,Северо-Восточный административный округ,37.604529,55.865399,1900283.6389655191,6424670.490099371
236,6783,6783,Ремонт телефонов,"ремонт и техническое обслуживание бытовой радиоэлектронной аппаратуры, бытовых машин и бытовых приборов, техники",,нет,бытовые услуги,"город Москва, улица Хачатуряна, дом 20А",район Отрадное,Северо-Восточный административный округ,37.6059407107258,55.8632775495977,1900447.9817080838,6424471.365661081
237,6802,6802,ФИЛИППОВ АЛЕКСАНДР ЕВГЕНЬЕВИЧ,"ремонт и техническое обслуживание бытовой радиоэлектронной аппаратуры, бытовых машин и бытовых приборов, техники",,нет,бытовые услуги,"город Москва, Шереметьевская улица, дом 20",район Марьина Роща,Северо-Восточный административный округ,37.6185802271463,55.80351809448,1903434.2149941185,6418295.501063025
238,6807,6807,СЦ «ТЕЛЕМАСТЕР»,"ремонт и техническое обслуживание бытовой радиоэлектронной аппаратуры, бытовых машин и бытовых приборов, техники",,нет,бытовые услуги,"город Москва, Алтуфьевское шоссе, дом 79Д",район Лианозово,Северо-Восточный административный округ,37.58511096315425,55.88829692075232,1898257.1384976048,6426732.710216794
239,6845,6845,РЕМОНТ СОТОВЫХ ТЕЛЕФОНОВ,"ремонт и техническое обслуживание бытовой радиоэлектронной аппаратуры, бытовых машин и бытовых приборов, техники",,нет,бытовые услуги,"город Москва, Лианозовский проезд, владение 1",район Лианозово,Северо-Восточный административный округ,37.554988,55.897189,1896103.153380384,6427063.122584377
240,6923,6923,Серсо,"ремонт и техническое обслуживание бытовой радиоэлектронной аппаратуры, бытовых машин и бытовых приборов, техники",,нет,бытовые услуги,"город Москва, Колодезный переулок, дом 3, строение 25",район Сокольники,Восточный административный округ,37.701345943075005,55.7962887486409,1908727.0019574084,6419251.342564402
241,6942,6942,Ремонт бытовой техники,"ремонт и техническое обслуживание бытовой радиоэлектронной аппаратуры, бытовых машин и бытовых приборов, техники",,нет,бытовые услуги,"город Москва, Электрозаводская улица, дом 27, строение 8",район Преображенское,Восточный административный округ,37.704870365721696,55.79107453512129,1909135.3453576572,6418763.56327596
242,6946,6946,Ремонт техники Apple,"ремонт и техническое обслуживание бытовой радиоэлектронной аппаратуры, бытовых машин и бытовых приборов, техники",,нет,бытовые услуги,"город Москва, Щёлковское шоссе, дом 100, корпус 100",район Северное Измайлово,Восточный административный округ,37.830805,55.810612,1916045.9252550085,6423520.9522043085
243,6976,6976,"Ремонт компьютерной техники, телефонов","ремонт и техническое обслуживание бытовой радиоэлектронной аппаратуры, бытовых машин и бытовых приборов, техники",,нет,бытовые услуги,"город Москва, Суздальская улица, дом 12А",район Новокосино,Восточный административный округ,37.84666615370817,55.73806331866085,1919730.0657671925,6416042.500559316
244,6979,6979,Ремонт телефонов,"ремонт и техническое обслуживание бытовой радиоэлектронной аппаратуры, бытовых машин и бытовых приборов, техники",,нет,бытовые услуги,"город Москва, улица Руднёвка, дом 5",район Косино-Ухтомский,Восточный административный округ,37.881614,55.715763,1922691.3940969156,6414380.886882038
245,6986,6986,Автоклуб Вода,"ремонт и техническое обслуживание бытовой радиоэлектронной аппаратуры, бытовых машин и бытовых приборов, техники",,нет,бытовые услуги,"город Москва, проспект Будённого, дом 33А",район Соколиная Гора,Восточный административный округ,37.7327,55.766628,1911737.2473400813,6416714.710831451
246,7008,7008,Ремонт бытовой техники «Симлайн»,"ремонт и техническое обслуживание бытовой радиоэлектронной аппаратуры, бытовых машин и бытовых приборов, техники",,нет,бытовые услуги,"город Москва, Измайловское шоссе, дом 69Д",район Измайлово,Восточный административный округ,37.74801314689247,55.788452708977246,1911852.1004956518,6419388.326673771
247,7022,7022,Сервисный центр,"ремонт и техническое обслуживание бытовой радиоэлектронной аппаратуры, бытовых машин и бытовых приборов, техники",,нет,бытовые услуги,"город Москва, Измайловский бульвар, дом 43",район Измайлово,Восточный административный округ,37.79811616382041,55.79726528206872,1914563.1718504303,6421393.4312483035
248,7079,7079,Ремонт телефонов,"ремонт и техническое обслуживание бытовой радиоэлектронной аппаратуры, бытовых машин и бытовых приборов, техники",,нет,бытовые услуги,"город Москва, Таганская улица, дом 2",Таганский район,Центральный административный округ,37.65765750638309,55.74078035596686,1908139.8484924112,6412352.6930584125
249,7096,7096,Ремонт бытовой техники,"ремонт и техническое обслуживание бытовой радиоэлектронной аппаратуры, бытовых машин и бытовых приборов, техники",,нет,бытовые услуги,"город Москва, 1-й Люберецкий проезд, дом 2, строение 1",район Выхино-Жулебино,Юго-Восточный административный округ,37.857526,55.69529,1921994.881703953,6411665.151402025
250,7114,7114,ГАРРИ АЗА,"ремонт и техническое обслуживание бытовой радиоэлектронной аппаратуры, бытовых машин и бытовых приборов, техники",,нет,бытовые услуги,"город Москва, Люблинская улица, дом 62",район Люблино,Юго-Восточный административный округ,37.73896124230209,55.6730452301425,1915610.00629396,6406762.71159796
251,7128,7128,Павильон «Ремонт телефонов»,"ремонт и техническое обслуживание бытовой радиоэлектронной аппаратуры, бытовых машин и бытовых приборов, техники",,нет,бытовые услуги,"город Москва, улица Перерва, владение 31Б",район Марьино,Юго-Восточный административный округ,37.72285623135423,55.6529790820663,1915377.0813409481,6404260.753245746
252,7131,7131,Павильон «Ремонт сотовых телефонов»,"ремонт и техническое обслуживание бытовой радиоэлектронной аппаратуры, бытовых машин и бытовых приборов, техники",,нет,бытовые услуги,"город Москва, улица Перерва, владение 31Б",район Марьино,Юго-Восточный административный округ,37.72285623135423,55.6529790820663,1915377.0813409481,6404260.753245746
253,7143,7143,Ремонт телефонов,"ремонт и техническое обслуживание бытовой радиоэлектронной аппаратуры, бытовых машин и бытовых приборов, техники",,нет,бытовые услуги,"город Москва, Рязанский проспект, дом 46, корпус 7",Рязанский район,Юго-Восточный административный округ,37.79330695914785,55.717027946856035,1917274.2830482656,6412648.489082293
254,7144,7144,Ремонт телефонов,"ремонт и техническое обслуживание бытовой радиоэлектронной аппаратуры, бытовых машин и бытовых приборов, техники",,нет,бытовые услуги,"город Москва, Рязанский проспект, дом 46, корпус 7",Рязанский район,Юго-Восточный административный округ,37.79330695914785,55.717027946856035,1917274.2830482656,6412648.489082293
255,7153,7153,ФОРТУС,"ремонт и техническое обслуживание бытовой радиоэлектронной аппаратуры, бытовых машин и бытовых приборов, техники",,нет,бытовые услуги,"город Москва, Люблинская улица, дом 4, сооружение 1",район Текстильщики,Юго-Восточный административный округ,37.729941,55.707827,1913763.5304020538,6410320.788814172
256,7182,7182,Ремонт телефонов,"ремонт и техническое обслуживание бытовой радиоэлектронной аппаратуры, бытовых машин и бытовых приборов, техники",,нет,бытовые услуги,"город Москва, 1-й Капотнинский проезд, дом 12, строение 1",район Капотня,Юго-Восточный административный округ,37.792847,55.637355,1920225.7835213398,6404054.411932486
257,7201,7201,Элементарно,"ремонт и техническое обслуживание бытовой радиоэлектронной аппаратуры, бытовых машин и бытовых приборов, техники",,нет,бытовые услуги,"город Москва, шоссе Энтузиастов, дом 12, корпус 2",район Лефортово,Юго-Восточный административный округ,37.706972485210464,55.747404143146525,1910891.0799678375,6414102.21113932
258,7264,7264,Компьютерный Мастер,"ремонт и техническое обслуживание бытовой радиоэлектронной аппаратуры, бытовых машин и бытовых приборов, техники",,нет,бытовые услуги,"город Москва, Большая Черёмушкинская улица, дом 1",район Котловка,Юго-Западный административный округ,37.60213,55.68942,1906668.1157040852,6405652.604048138
259,7265,7265,МИР БИЗНЕСА,"ремонт и техническое обслуживание бытовой радиоэлектронной аппаратуры, бытовых машин и бытовых приборов, техники",,нет,бытовые услуги,"город Москва, Большая Черёмушкинская улица, дом 1",район Котловка,Юго-Западный административный округ,37.602216862303905,55.6894014090238,1906674.0947432185,6405652.418978662
260,7304,7304,ЕФРЕМОВ,"ремонт и техническое обслуживание бытовой радиоэлектронной аппаратуры, бытовых машин и бытовых приборов, техники",,нет,бытовые услуги,"город Москва, улица Знаменские Садки, владение 1В, строение 1",район Северное Бутово,Юго-Западный административный округ,37.576396887916154,55.57154650690926,1909463.441074092,6392403.652470934
261,7339,7339,Ай Эм Эл Логистика,"ремонт и техническое обслуживание бытовой радиоэлектронной аппаратуры, бытовых машин и бытовых приборов, техники",,нет,бытовые услуги,"город Москва, Старокачаловская улица, дом 5А",район Северное Бутово,Юго-Западный административный округ,37.58061350252935,55.570046708507,1909776.580487844,6392330.287685201
262,7369,7369,Анцелович Константин Николаевич,"ремонт и техническое обслуживание бытовой радиоэлектронной аппаратуры, бытовых машин и бытовых приборов, техники",,нет,бытовые услуги,"город Москва, Манежная площадь, дом 1, строение 2",Тверской район,Центральный административный округ,37.614625717781195,55.755791329324765,1904966.1727962345,6413068.811184181
263,7399,7399,МАСТЕРСКАЯ ПО РЕМОНТУ ТЕЛЕФОНОВ,"ремонт и техническое обслуживание бытовой радиоэлектронной аппаратуры, бытовых машин и бытовых приборов, техники",,нет,бытовые услуги,"город Москва, Мичуринский проспект, дом 21, корпус 6",район Раменки,Западный административный округ,37.506163,55.699446,1900452.9084972437,6404728.389314039
264,7519,7519,Ремонт телеаппаратуры,"ремонт и техническое обслуживание бытовой радиоэлектронной аппаратуры, бытовых машин и бытовых приборов, техники",,нет,бытовые услуги,"город Москва, Митинская улица, дом 39",район Митино,Северо-Западный административный округ,37.35396994196897,55.84889037272714,1885700.4485130175,6417687.177990167
265,7538,7538,РЕМОНТ СОТОВЫХ ТЕЛЕФОНОВ,"ремонт и техническое обслуживание бытовой радиоэлектронной аппаратуры, бытовых машин и бытовых приборов, техники",,нет,бытовые услуги,"город Москва, улица Маршала Бирюзова, дом 32",район Щукино,Северо-Западный административный округ,37.48299698939827,55.799772168511396,1895340.7634709624,6415064.047480604
266,7549,7549,Ремонт компьютеров,"ремонт и техническое обслуживание бытовой радиоэлектронной аппаратуры, бытовых машин и бытовых приборов, техники",,нет,бытовые услуги,"город Москва, Таллинская улица, дом 9",район Строгино,Северо-Западный административный округ,37.396892,55.799897,1890106.077910546,6413290.872674925
267,7551,7551,Ремонт сотовых телефонов,"ремонт и техническое обслуживание бытовой радиоэлектронной аппаратуры, бытовых машин и бытовых приборов, техники",,нет,бытовые услуги,"город Москва, Таллинская улица, дом 9",район Строгино,Северо-Западный административный округ,37.39688510292185,55.79987072163853,1890106.624999,6413287.895777202
268,7565,7565,Сервисный центр по ремонту техники,"ремонт и техническое обслуживание бытовой радиоэлектронной аппаратуры, бытовых машин и бытовых приборов, техники",,нет,бытовые услуги,"город Москва, Пятницкое шоссе, дом 18",район Митино,Северо-Западный административный округ,37.383642,55.844324,1887668.515423003,6417807.89683053
269,7572,7572,ТриалСпорт,"ремонт и техническое обслуживание бытовой радиоэлектронной аппаратуры, бытовых машин и бытовых приборов, техники",ТриалСпорт,да,бытовые услуги,"город Москва, Новокуркинское шоссе, дом 1",район Куркино,Северо-Западный административный округ,37.40672455206245,55.88511049861428,1887567.9549120485,6422683.463100504
270,7577,7577,Сервисный центр,"ремонт и техническое обслуживание бытовой радиоэлектронной аппаратуры, бытовых машин и бытовых приборов, техники",,нет,бытовые услуги,"город Москва, улица Маршала Катукова, дом 11, корпус 1, строение 2",район Строгино,Северо-Западный административный округ,37.40458418597081,55.810205700103076,1890194.2284013808,6414561.9257106
271,7590,7590,Компания Серв,"ремонт и техническое обслуживание бытовой радиоэлектронной аппаратуры, бытовых машин и бытовых приборов, техники",,нет,бытовые услуги,"город Москва, 3-я улица Ямского Поля, дом 2, корпус 13",район Беговой,Северный административный округ,37.5827,55.781448,1902074.4620367943,6415166.629501503
272,7598,7598,Samsung Сервис Плаза,"ремонт и техническое обслуживание бытовой радиоэлектронной аппаратуры, бытовых машин и бытовых приборов, техники",,нет,бытовые услуги,"город Москва, Тверская улица, дом 24, строение 1",Тверской район,Центральный административный округ,37.60015598515282,55.76817210046508,1903627.3532155415,6414100.533745519
273,7599,7599,ВНЕШРЕМТОРГ,"ремонт и техническое обслуживание бытовой радиоэлектронной аппаратуры, бытовых машин и бытовых приборов, техники",,нет,бытовые услуги,"город Москва, Селезнёвская улица, дом 30, корпус Б-В",Тверской район,Центральный административный округ,37.611174257928894,55.78068027763905,1903832.5526221632,6415679.1897691125
274,7624,7624,Remobi.ru Сеть сервис центров,"ремонт и техническое обслуживание бытовой радиоэлектронной аппаратуры, бытовых машин и бытовых приборов, техники",,нет,бытовые услуги,"город Москва, Ленинградский проспект, дом 62А",район Аэропорт,Северный административный округ,37.53196766792906,55.80191181604408,1898235.5032512944,6416314.005934964
275,7654,7654,Бытовые услуги,"ремонт и техническое обслуживание бытовой радиоэлектронной аппаратуры, бытовых машин и бытовых приборов, техники",,нет,бытовые услуги,"город Москва, Хорошёвское шоссе, дом 32А",Хорошёвский район,Северный административный округ,37.5411687200326,55.775783128202804,1899761.0924212784,6413689.042725648
276,7666,7666,Радиоэлектроника сервис,"ремонт и техническое обслуживание бытовой радиоэлектронной аппаратуры, бытовых машин и бытовых приборов, техники",,нет,бытовые услуги,"город Москва, улица 8 Марта, дом 10, строение 12",Савёловский район,Северный административный округ,37.555589340787904,55.804167551232,1899586.209591219,6417049.640716127
277,7697,7697,Ремонт садовой техники,"ремонт и техническое обслуживание бытовой радиоэлектронной аппаратуры, бытовых машин и бытовых приборов, техники",,нет,бытовые услуги,"город Москва, город Зеленоград, Заводская улица, дом 18, строение 2",район Крюково,Зеленоградский административный округ,37.18236099999999,55.97566582180952,1870666.33420156,6427835.646654582
278,7710,7710,Ремонт телефонов и планшетов,"ремонт и техническое обслуживание бытовой радиоэлектронной аппаратуры, бытовых машин и бытовых приборов, техники",,нет,бытовые услуги,"город Москва, город Зеленоград, корпус 1104",район Силино,Зеленоградский административный округ,37.1881212990932,55.9949225249819,1870312.4456449924,6430030.694661482
279,7716,7716,Ремонт телефонов и планшетов «ZELFON»,"ремонт и техническое обслуживание бытовой радиоэлектронной аппаратуры, бытовых машин и бытовых приборов, техники",,нет,бытовые услуги,"город Москва, город Зеленоград, корпус 1215",район Силино,Зеленоградский административный округ,37.1901104323055,55.9943543408672,1870453.425575242,6430010.068909857
280,7742,7742,Ремонт техники «АСК-Сервис»,"ремонт и техническое обслуживание бытовой радиоэлектронной аппаратуры, бытовых машин и бытовых приборов, техники",,нет,бытовые услуги,"город Москва, улица Орджоникидзе, дом 10",Донской район,Южный административный округ,37.592931372122486,55.71031268159146,1905333.5846794148,6407712.378701074
281,7750,7750,Ремонт техники «Панасоник»,"ремонт и техническое обслуживание бытовой радиоэлектронной аппаратуры, бытовых машин и бытовых приборов, техники",,нет,бытовые услуги,"город Москва, улица Шаболовка, дом 31Г",Донской район,Южный административный округ,37.61041474109226,55.720791095482205,1906008.9425974125,6409207.9461751
282,7762,7762,Ремонт садовой техники,"ремонт и техническое обслуживание бытовой радиоэлектронной аппаратуры, бытовых машин и бытовых приборов, техники",,нет,бытовые услуги,"город Москва, улица Академика Янгеля, дом 14, корпус 5, строение 2",район Чертаново Южное,Южный административный округ,37.582043213794655,55.60194448106407,1908683.604257876,6395800.107451107
283,7775,7775,Сервисный центр «М.Видео»,"ремонт и техническое обслуживание бытовой радиоэлектронной аппаратуры, бытовых машин и бытовых приборов, техники",,нет,бытовые услуги,"город Москва, 1-й Варшавский проезд, дом 1А, строение 3",район Москворечье-Сабурово,Южный административный округ,37.62792125124901,55.64803612539605,1909774.5176539775,6401731.754834233
284,7817,7817,Самсунг Сервис,"ремонт и техническое обслуживание бытовой радиоэлектронной аппаратуры, бытовых машин и бытовых приборов, техники",,нет,бытовые услуги,"город Москва, Ленинский проспект, дом 31, корпус 2",Донской район,Южный административный округ,37.590731642004734,55.71331189147961,1905088.5382368243,6407989.676573457
285,7819,7819,Сервисная компания,"ремонт и техническое обслуживание бытовой радиоэлектронной аппаратуры, бытовых машин и бытовых приборов, техники",,нет,бытовые услуги,"город Москва, Варшавское шоссе, дом 125, строение 1",район Чертаново Северное,Южный административный округ,37.6199159147769,55.62664621712849,1910079.753989796,6399257.687860855
286,7827,7827,Ремонт бытовых приборов,"ремонт и техническое обслуживание бытовой радиоэлектронной аппаратуры, бытовых машин и бытовых приборов, техники",,нет,бытовые услуги,"город Москва, Симферопольский бульвар, дом 11",Нагорный район,Южный административный округ,37.60642375399722,55.65729148611826,1908120.8076703956,6402278.782981993
287,7848,7848,Сервисцентр,"ремонт и техническое обслуживание бытовой радиоэлектронной аппаратуры, бытовых машин и бытовых приборов, техники",,нет,бытовые услуги,"город Москва, Нагатинская улица, дом 16",район Нагатино-Садовники,Южный административный округ,37.642642,55.678819,1909528.820755294,6405359.111193342
288,7864,7864,Мастерская «Remmob.com»,"ремонт и техническое обслуживание бытовой радиоэлектронной аппаратуры, бытовых машин и бытовых приборов, техники",,нет,бытовые услуги,"город Москва, проспект Андропова, дом 36",район Нагатино-Садовники,Южный административный округ,37.66182006325185,55.67580012819791,1910809.1176557844,6405436.350634208
289,7935,7935,Ремонт компьютеров,"ремонт и техническое обслуживание бытовой радиоэлектронной аппаратуры, бытовых машин и бытовых приборов, техники",,нет,бытовые услуги,"город Москва, Борисовский проезд, дом 40А",район Орехово-Борисово Северное,Южный административный округ,37.72775243693653,55.61668660281775,1917028.062872431,6400452.401838914
290,7974,7974,Ремонт сотовых телефонов и ноутбуков,"ремонт и техническое обслуживание бытовой радиоэлектронной аппаратуры, бытовых машин и бытовых приборов, техники",,нет,бытовые услуги,"город Москва, Кожевническая улица, дом 14, корпус 1",Даниловский район,Южный административный округ,37.646957942149335,55.72888118516113,1907931.5644601572,6410845.788631997
291,7997,7997,Ремонт компьютеров,"ремонт и техническое обслуживание бытовой радиоэлектронной аппаратуры, бытовых машин и бытовых приборов, техники",,нет,бытовые услуги,"город Москва, Боровское шоссе, дом 51, строение 1",район Ново-Переделкино,Западный административный округ,37.353175271016326,55.63710075275174,1893418.2786646446,6394823.548149719
